"zip","lat","lng","city","state_id","state_name","zcta","parent_zcta","population","density","county_fips","county_name","county_weights","county_names_all","county_fips_all","imprecise","military","timezone"
"97761","44.8433","-121.29807","Warm Springs","OR","Oregon","TRUE","","3438","3.6","41065","Wasco","{""41065"": 61.4, ""41031"": 38.6}","Wasco|Jefferson","41065|41031","FALSE","FALSE","America/Los_Angeles"
"97801","45.67317","-118.83362","Pendleton","OR","Oregon","TRUE","","21526","16.8","41059","Umatilla","{""41059"": 100}","Umatilla","41059","FALSE","FALSE","America/Los_Angeles"
"97810","45.6725","-118.39642","Adams","OR","Oregon","TRUE","","1179","1.7","41059","Umatilla","{""41059"": 100}","Umatilla","41059","FALSE","FALSE","America/Los_Angeles"
"97812","45.58138","-120.21907","Arlington","OR","Oregon","TRUE","","785","0.7","41021","Gilliam","{""41021"": 100}","Gilliam","41021","FALSE","FALSE","America/Los_Angeles"
"97813","45.85305","-118.52802","Athena","OR","Oregon","TRUE","","1436","10.3","41059","Umatilla","{""41059"": 100}","Umatilla","41059","FALSE","FALSE","America/Los_Angeles"
"97814","44.80075","-117.77034","Baker City","OR","Oregon","TRUE","","12316","5.7","41001","Baker","{""41001"": 94.87, ""41061"": 5.13}","Baker|Union","41001|41061","FALSE","FALSE","America/Los_Angeles"
"97817","44.6555","-118.60816","Bates","OR","Oregon","TRUE","","41","0.1","41023","Grant","{""41023"": 100}","Grant","41023","FALSE","FALSE","America/Los_Angeles"
"97818","45.7567","-119.78444","Boardman","OR","Oregon","TRUE","","5034","9.1","41049","Morrow","{""41049"": 100}","Morrow","41049","FALSE","FALSE","America/Los_Angeles"
"97819","44.48603","-117.76317","Bridgeport","OR","Oregon","TRUE","","29","0.2","41001","Baker","{""41001"": 100}","Baker","41001","FALSE","FALSE","America/Los_Angeles"
"97820","44.16327","-119.21436","Canyon City","OR","Oregon","TRUE","","1016","1.1","41023","Grant","{""41023"": 100}","Grant","41023","FALSE","FALSE","America/Los_Angeles"
"97823","45.24334","-120.19097","Condon","OR","Oregon","TRUE","","1140","0.7","41021","Gilliam","{""41021"": 98.22, ""41069"": 1.78}","Gilliam|Wheeler","41021|41069","FALSE","FALSE","America/Los_Angeles"
"97824","45.34992","-117.75506","Cove","OR","Oregon","TRUE","","1866","3.1","41061","Union","{""41061"": 100}","Union","41061","FALSE","FALSE","America/Los_Angeles"
"97825","44.38804","-119.51852","Dayville","OR","Oregon","TRUE","","265","0.4","41023","Grant","{""41023"": 100}","Grant","41023","FALSE","FALSE","America/Los_Angeles"
"97826","45.65508","-119.22586","Echo","OR","Oregon","TRUE","","1319","1.5","41059","Umatilla","{""41059"": 86.25, ""41049"": 13.75}","Umatilla|Morrow","41059|41049","FALSE","FALSE","America/Los_Angeles"
"97827","45.60854","-117.85886","Elgin","OR","Oregon","TRUE","","2504","4.7","41061","Union","{""41061"": 100}","Union","41061","FALSE","FALSE","America/Los_Angeles"
"97828","45.71382","-117.25971","Enterprise","OR","Oregon","TRUE","","3192","1.8","41063","Wallowa","{""41063"": 100}","Wallowa","41063","FALSE","FALSE","America/Los_Angeles"
"97830","44.9779","-120.17165","Fossil","OR","Oregon","TRUE","","729","0.6","41069","Wheeler","{""41069"": 86.71, ""41021"": 13.29}","Wheeler|Gilliam","41069|41021","FALSE","FALSE","America/Los_Angeles"
"97833","44.93471","-118.05951","Haines","OR","Oregon","TRUE","","696","2.1","41001","Baker","{""41001"": 100}","Baker","41001","FALSE","FALSE","America/Los_Angeles"
"97834","44.97251","-117.20509","Halfway","OR","Oregon","TRUE","","1336","1.8","41001","Baker","{""41001"": 100}","Baker","41001","FALSE","FALSE","America/Los_Angeles"
"97835","45.8992","-118.772","Helix","OR","Oregon","TRUE","","379","0.9","41059","Umatilla","{""41059"": 100}","Umatilla","41059","FALSE","FALSE","America/Los_Angeles"
"97836","45.29166","-119.50144","Heppner","OR","Oregon","TRUE","","2076","0.8","41049","Morrow","{""41049"": 100}","Morrow","41049","FALSE","FALSE","America/Los_Angeles"
"97837","44.51127","-118.0483","Hereford","OR","Oregon","TRUE","","76","0.2","41001","Baker","{""41001"": 100}","Baker","41001","FALSE","FALSE","America/Los_Angeles"
"97838","45.85266","-119.28878","Hermiston","OR","Oregon","TRUE","","27318","52.1","41059","Umatilla","{""41059"": 75.52, ""41049"": 24.48}","Umatilla|Morrow","41059|41049","FALSE","FALSE","America/Los_Angeles"
"97839","45.58272","-119.60005","Lexington","OR","Oregon","TRUE","","303","0.7","41049","Morrow","{""41049"": 100}","Morrow","41049","FALSE","FALSE","America/Los_Angeles"
"97840","44.90218","-116.93608","Oxbow","OR","Oregon","TRUE","","154","0.5","41001","Baker","{""41001"": 100}","Baker","41001","FALSE","FALSE","America/Boise"
"97841","45.46823","-117.94035","Imbler","OR","Oregon","TRUE","","544","13.5","41061","Union","{""41061"": 100}","Union","41061","FALSE","FALSE","America/Los_Angeles"
"97842","45.57223","-116.82384","Imnaha","OR","Oregon","TRUE","","82","0.0","41063","Wallowa","{""41063"": 100}","Wallowa","41063","FALSE","FALSE","America/Los_Angeles"
"97843","45.50479","-119.88066","Ione","OR","Oregon","TRUE","","845","0.9","41049","Morrow","{""41049"": 94.71, ""41021"": 5.29}","Morrow|Gilliam","41049|41021","FALSE","FALSE","America/Los_Angeles"
"97844","45.87867","-119.54676","Irrigon","OR","Oregon","TRUE","","3676","43.0","41049","Morrow","{""41049"": 100}","Morrow","41049","FALSE","FALSE","America/Los_Angeles"
"97845","44.41445","-118.90372","John Day","OR","Oregon","TRUE","","2571","8.7","41023","Grant","{""41023"": 100}","Grant","41023","FALSE","FALSE","America/Los_Angeles"
"97846","45.27465","-117.10956","Joseph","OR","Oregon","TRUE","","2114","1.8","41063","Wallowa","{""41063"": 100}","Wallowa","41063","FALSE","FALSE","America/Los_Angeles"
"97848","44.69761","-119.57336","Kimberly","OR","Oregon","TRUE","","277","0.5","41023","Grant","{""41023"": 99.17, ""41069"": 0.83}","Grant|Wheeler","41023|41069","FALSE","FALSE","America/Los_Angeles"
"97850","45.30689","-118.13265","La Grande","OR","Oregon","TRUE","","17029","20.5","41061","Union","{""41061"": 100}","Union","41061","FALSE","FALSE","America/Los_Angeles"
"97856","44.78426","-119.12976","Long Creek","OR","Oregon","TRUE","","433","0.3","41023","Grant","{""41023"": 100}","Grant","41023","FALSE","FALSE","America/Los_Angeles"
"97857","45.37273","-117.50418","Lostine","OR","Oregon","TRUE","","538","0.8","41063","Wallowa","{""41063"": 100}","Wallowa","41063","FALSE","FALSE","America/Los_Angeles"
"97859","45.5258","-118.43209","Meacham","OR","Oregon","TRUE","","277","1.0","41059","Umatilla","{""41059"": 100}","Umatilla","41059","FALSE","FALSE","America/Los_Angeles"
"97862","45.92712","-118.31797","Milton Freewater","OR","Oregon","TRUE","","12559","16.6","41059","Umatilla","{""41059"": 100}","Umatilla","41059","FALSE","FALSE","America/Los_Angeles"
"97864","44.83842","-119.45471","Monument","OR","Oregon","TRUE","","244","0.4","41023","Grant","{""41023"": 100}","Grant","41023","FALSE","FALSE","America/Los_Angeles"
"97865","44.42949","-119.19192","Mount Vernon","OR","Oregon","TRUE","","1228","1.3","41023","Grant","{""41023"": 100}","Grant","41023","FALSE","FALSE","America/Los_Angeles"
"97867","45.0627","-117.997","North Powder","OR","Oregon","TRUE","","1046","2.7","41061","Union","{""41061"": 74.26, ""41001"": 25.74}","Union|Baker","41061|41001","FALSE","FALSE","America/Los_Angeles"
"97868","45.40815","-118.86964","Pilot Rock","OR","Oregon","TRUE","","1579","1.4","41059","Umatilla","{""41059"": 100}","Umatilla","41059","FALSE","FALSE","America/Los_Angeles"
"97869","44.37993","-118.61425","Prairie City","OR","Oregon","TRUE","","905","1.2","41023","Grant","{""41023"": 92.15, ""41001"": 7.85}","Grant|Baker","41023|41001","FALSE","FALSE","America/Los_Angeles"
"97870","44.79434","-117.19033","Richland","OR","Oregon","TRUE","","639","2.6","41001","Baker","{""41001"": 100}","Baker","41001","FALSE","FALSE","America/Los_Angeles"
"97873","44.12837","-118.99505","Seneca","OR","Oregon","TRUE","","206","0.7","41023","Grant","{""41023"": 100}","Grant","41023","FALSE","FALSE","America/Los_Angeles"
"97874","44.75783","-119.84828","Spray","OR","Oregon","TRUE","","380","0.5","41069","Wheeler","{""41069"": 100}","Wheeler","41069","FALSE","FALSE","America/Los_Angeles"
"97875","45.81481","-119.14898","Stanfield","OR","Oregon","TRUE","","2783","18.4","41059","Umatilla","{""41059"": 100}","Umatilla","41059","FALSE","FALSE","America/Los_Angeles"
"97876","45.52237","-118.02811","Summerville","OR","Oregon","TRUE","","996","6.6","41061","Union","{""41061"": 100}","Union","41061","FALSE","FALSE","America/Los_Angeles"
"97877","44.80662","-118.38766","Sumpter","OR","Oregon","TRUE","","287","0.6","41023","Grant","{""41023"": 65.85, ""41001"": 34.15}","Grant|Baker","41023|41001","FALSE","FALSE","America/Los_Angeles"
"97880","45.08631","-118.89269","Ukiah","OR","Oregon","TRUE","","358","0.4","41059","Umatilla","{""41059"": 84.71, ""41023"": 15.29}","Umatilla|Grant","41059|41023","FALSE","FALSE","America/Los_Angeles"
"97882","45.90741","-119.34944","Umatilla","OR","Oregon","TRUE","","7879","161.5","41059","Umatilla","{""41059"": 100}","Umatilla","41059","FALSE","FALSE","America/Los_Angeles"
"97883","45.14264","-117.64047","Union","OR","Oregon","TRUE","","2395","2.9","41061","Union","{""41061"": 100}","Union","41061","FALSE","FALSE","America/Los_Angeles"
"97884","44.44975","-118.21895","Unity","OR","Oregon","TRUE","","127","0.5","41001","Baker","{""41001"": 100}","Baker","41001","FALSE","FALSE","America/Los_Angeles"
"97885","45.65073","-117.50972","Wallowa","OR","Oregon","TRUE","","1404","1.7","41063","Wallowa","{""41063"": 100}","Wallowa","41063","FALSE","FALSE","America/Los_Angeles"
"97886","45.79604","-118.24924","Weston","OR","Oregon","TRUE","","963","2.6","41059","Umatilla","{""41059"": 100}","Umatilla","41059","FALSE","FALSE","America/Los_Angeles"
"97901","43.5996","-117.09602","Adrian","OR","Oregon","TRUE","","768","2.1","41045","Malheur","{""41045"": 100}","Malheur","41045","FALSE","FALSE","America/Boise"
"97902","42.91332","-117.49412","Arock","OR","Oregon","TRUE","","23","0.6","41045","Malheur","{""41045"": 100}","Malheur","41045","FALSE","FALSE","America/Boise"
"97903","44.27772","-117.59775","Brogan","OR","Oregon","TRUE","","41","0.1","41045","Malheur","{""41045"": 100}","Malheur","41045","FALSE","FALSE","America/Boise"
"97904","43.89136","-118.50581","Drewsey","OR","Oregon","TRUE","","243","0.2","41025","Harney","{""41025"": 100}","Harney","41025","FALSE","FALSE","America/Los_Angeles"
"97905","44.58183","-117.4654","Durkee","OR","Oregon","TRUE","","131","0.3","41001","Baker","{""41001"": 100}","Baker","41001","FALSE","FALSE","America/Los_Angeles"
"97906","43.46049","-117.81783","Harper","OR","Oregon","TRUE","","270","0.1","41045","Malheur","{""41045"": 100}","Malheur","41045","FALSE","FALSE","America/Boise"
"97907","44.41893","-117.35568","Huntington","OR","Oregon","TRUE","","699","0.7","41001","Baker","{""41001"": 73.77, ""41045"": 26.23}","Baker|Malheur","41001|41045","FALSE","FALSE","America/Los_Angeles"
"97908","44.25679","-117.94828","Ironside","OR","Oregon","TRUE","","19","0.0","41045","Malheur","{""41045"": 100}","Malheur","41045","FALSE","FALSE","America/Boise"
"97909","44.21096","-117.37909","Jamieson","OR","Oregon","TRUE","","16","0.1","41045","Malheur","{""41045"": 100}","Malheur","41045","FALSE","FALSE","America/Boise"
"97910","42.85733","-117.50909","Jordan Valley","OR","Oregon","TRUE","","609","0.1","41045","Malheur","{""41045"": 92.39, ""16073"": 7.61}","Malheur|Owyhee","41045|16073","FALSE","FALSE","America/Boise"
"97911","43.85547","-118.02605","Juntura","OR","Oregon","TRUE","","57","0.0","41045","Malheur","{""41045"": 100}","Malheur","41045","FALSE","FALSE","America/Boise"
"97913","43.64688","-117.28131","Nyssa","OR","Oregon","TRUE","","5139","5.1","41045","Malheur","{""41045"": 99.86, ""16075"": 0.14}","Malheur|Payette","41045|16075","FALSE","FALSE","America/Boise"
"97914","44.11085","-117.07383","Ontario","OR","Oregon","TRUE","","19500","28.9","41045","Malheur","{""41045"": 100}","Malheur","41045","FALSE","FALSE","America/Boise"
"97917","43.5415","-118.11651","Riverside","OR","Oregon","TRUE","","41","0.1","41045","Malheur","{""41045"": 100}","Malheur","41045","FALSE","FALSE","America/Boise"
"97918","43.96255","-117.38073","Vale","OR","Oregon","TRUE","","4763","3.1","41045","Malheur","{""41045"": 100}","Malheur","41045","FALSE","FALSE","America/Boise"
"97920","44.06595","-117.75997","Westfall","OR","Oregon","TRUE","","29","0.1","41045","Malheur","{""41045"": 100}","Malheur","41045","FALSE","FALSE","America/Boise"
"98001","47.30919","-122.26426","Auburn","WA","Washington","TRUE","","35297","731.3","53033","King","{""53033"": 100}","King","53033","FALSE","FALSE","America/Los_Angeles"
"98002","47.3082","-122.21567","Auburn","WA","Washington","TRUE","","35915","1935.7","53033","King","{""53033"": 100}","King","53033","FALSE","FALSE","America/Los_Angeles"
"98003","47.30596","-122.31465","Federal Way","WA","Washington","TRUE","","50501","1695.4","53033","King","{""53033"": 100}","King","53033","FALSE","FALSE","America/Los_Angeles"
"98004","47.61865","-122.20548","Bellevue","WA","Washington","TRUE","","38632","2051.7","53033","King","{""53033"": 100}","King","53033","FALSE","FALSE","America/Los_Angeles"
"98005","47.61494","-122.16814","Bellevue","WA","Washington","TRUE","","21603","1136.7","53033","King","{""53033"": 100}","King","53033","FALSE","FALSE","America/Los_Angeles"
"98006","47.55772","-122.14957","Bellevue","WA","Washington","TRUE","","39595","1360.2","53033","King","{""53033"": 100}","King","53033","FALSE","FALSE","America/Los_Angeles"
"98007","47.61392","-122.14378","Bellevue","WA","Washington","TRUE","","28576","2554.0","53033","King","{""53033"": 100}","King","53033","FALSE","FALSE","America/Los_Angeles"
"98008","47.60551","-122.11219","Bellevue","WA","Washington","TRUE","","26091","1812.2","53033","King","{""53033"": 100}","King","53033","FALSE","FALSE","America/Los_Angeles"
"98010","47.31173","-122.00326","Black Diamond","WA","Washington","TRUE","","5963","154.9","53033","King","{""53033"": 100}","King","53033","FALSE","FALSE","America/Los_Angeles"
"98011","47.75736","-122.19871","Bothell","WA","Washington","TRUE","","27396","1499.4","53033","King","{""53033"": 100}","King","53033","FALSE","FALSE","America/Los_Angeles"
"98012","47.84205","-122.19813","Bothell","WA","Washington","TRUE","","75045","1850.4","53061","Snohomish","{""53061"": 100}","Snohomish","53061","FALSE","FALSE","America/Los_Angeles"
"98014","47.69664","-121.84024","Carnation","WA","Washington","TRUE","","7736","34.2","53033","King","{""53033"": 100}","King","53033","FALSE","FALSE","America/Los_Angeles"
"98019","47.74083","-121.93494","Duvall","WA","Washington","TRUE","","11290","122.2","53033","King","{""53033"": 100}","King","53033","FALSE","FALSE","America/Los_Angeles"
"98020","47.80015","-122.37267","Edmonds","WA","Washington","TRUE","","18594","1387.3","53061","Snohomish","{""53061"": 100}","Snohomish","53061","FALSE","FALSE","America/Los_Angeles"
"98021","47.79257","-122.20846","Bothell","WA","Washington","TRUE","","34359","1307.6","53061","Snohomish","{""53061"": 100}","Snohomish","53061","FALSE","FALSE","America/Los_Angeles"
"98022","47.1714","-121.67958","Enumclaw","WA","Washington","TRUE","","22007","11.7","53033","King","{""53033"": 61.65, ""53053"": 38.35}","King|Pierce","53033|53053","FALSE","FALSE","America/Los_Angeles"
"98023","47.30881","-122.36198","Federal Way","WA","Washington","TRUE","","51811","1948.8","53033","King","{""53033"": 100}","King","53033","FALSE","FALSE","America/Los_Angeles"
"98024","47.57301","-121.90219","Fall City","WA","Washington","TRUE","","5503","96.2","53033","King","{""53033"": 100}","King","53033","FALSE","FALSE","America/Los_Angeles"
"98025","47.43441","-121.9524","Hobart","WA","Washington","TRUE","","0","0.0","53033","King","{""53033"": 100}","King","53033","FALSE","FALSE","America/Los_Angeles"
"98026","47.83555","-122.3316","Edmonds","WA","Washington","TRUE","","39340","1619.0","53061","Snohomish","{""53061"": 100}","Snohomish","53061","FALSE","FALSE","America/Los_Angeles"
"98027","47.50387","-122.00176","Issaquah","WA","Washington","TRUE","","27808","187.8","53033","King","{""53033"": 100}","King","53033","FALSE","FALSE","America/Los_Angeles"
"98028","47.75162","-122.24892","Kenmore","WA","Washington","TRUE","","23556","1479.5","53033","King","{""53033"": 100}","King","53033","FALSE","FALSE","America/Los_Angeles"
"98029","47.5576","-122.0091","Issaquah","WA","Washington","TRUE","","31480","1194.7","53033","King","{""53033"": 100}","King","53033","FALSE","FALSE","America/Los_Angeles"
"98030","47.36817","-122.19749","Kent","WA","Washington","TRUE","","39526","2122.6","53033","King","{""53033"": 100}","King","53033","FALSE","FALSE","America/Los_Angeles"
"98031","47.4055","-122.1943","Kent","WA","Washington","TRUE","","41464","2070.2","53033","King","{""53033"": 100}","King","53033","FALSE","FALSE","America/Los_Angeles"
"98032","47.3922","-122.25819","Kent","WA","Washington","TRUE","","38985","887.4","53033","King","{""53033"": 100}","King","53033","FALSE","FALSE","America/Los_Angeles"
"98033","47.67616","-122.19267","Kirkland","WA","Washington","TRUE","","39726","1666.6","53033","King","{""53033"": 100}","King","53033","FALSE","FALSE","America/Los_Angeles"
"98034","47.71612","-122.21332","Kirkland","WA","Washington","TRUE","","52841","2079.1","53033","King","{""53033"": 100}","King","53033","FALSE","FALSE","America/Los_Angeles"
"98036","47.81094","-122.28155","Lynnwood","WA","Washington","TRUE","","41132","1655.9","53061","Snohomish","{""53061"": 100}","Snohomish","53061","FALSE","FALSE","America/Los_Angeles"
"98037","47.83873","-122.28463","Lynnwood","WA","Washington","TRUE","","28938","1932.4","53061","Snohomish","{""53061"": 100}","Snohomish","53061","FALSE","FALSE","America/Los_Angeles"
"98038","47.41861","-121.95589","Maple Valley","WA","Washington","TRUE","","37624","220.7","53033","King","{""53033"": 100}","King","53033","FALSE","FALSE","America/Los_Angeles"
"98039","47.63308","-122.23963","Medina","WA","Washington","TRUE","","2928","787.6","53033","King","{""53033"": 100}","King","53033","FALSE","FALSE","America/Los_Angeles"
"98040","47.56611","-122.232","Mercer Island","WA","Washington","TRUE","","25506","1542.9","53033","King","{""53033"": 100}","King","53033","FALSE","FALSE","America/Los_Angeles"
"98042","47.36508","-122.11623","Kent","WA","Washington","TRUE","","48639","675.9","53033","King","{""53033"": 100}","King","53033","FALSE","FALSE","America/Los_Angeles"
"98043","47.7921","-122.30758","Mountlake Terrace","WA","Washington","TRUE","","21265","2027.0","53061","Snohomish","{""53061"": 100}","Snohomish","53061","FALSE","FALSE","America/Los_Angeles"
"98045","47.48276","-121.65678","North Bend","WA","Washington","TRUE","","15611","35.0","53033","King","{""53033"": 100}","King","53033","FALSE","FALSE","America/Los_Angeles"
"98047","47.26079","-122.24822","Pacific","WA","Washington","TRUE","","7024","1267.3","53033","King","{""53033"": 70.68, ""53053"": 29.32}","King|Pierce","53033|53053","FALSE","FALSE","America/Los_Angeles"
"98050","47.54764","-121.93663","Preston","WA","Washington","TRUE","","0","0.0","53033","King","{""53033"": 100}","King","53033","FALSE","FALSE","America/Los_Angeles"
"98051","47.3396","-121.89049","Ravensdale","WA","Washington","TRUE","","4272","30.6","53033","King","{""53033"": 100}","King","53033","FALSE","FALSE","America/Los_Angeles"
"98052","47.68148","-122.1203","Redmond","WA","Washington","TRUE","","75765","1443.9","53033","King","{""53033"": 100}","King","53033","FALSE","FALSE","America/Los_Angeles"
"98053","47.66491","-122.02071","Redmond","WA","Washington","TRUE","","22857","319.2","53033","King","{""53033"": 100}","King","53033","FALSE","FALSE","America/Los_Angeles"
"98055","47.44775","-122.20205","Renton","WA","Washington","TRUE","","24668","2135.2","53033","King","{""53033"": 100}","King","53033","FALSE","FALSE","America/Los_Angeles"
"98056","47.51281","-122.18923","Renton","WA","Washington","TRUE","","36950","1883.3","53033","King","{""53033"": 100}","King","53033","FALSE","FALSE","America/Los_Angeles"
"98057","47.47188","-122.21961","Renton","WA","Washington","TRUE","","12351","774.2","53033","King","{""53033"": 100}","King","53033","FALSE","FALSE","America/Los_Angeles"
"98058","47.44082","-122.12503","Renton","WA","Washington","TRUE","","42366","869.1","53033","King","{""53033"": 100}","King","53033","FALSE","FALSE","America/Los_Angeles"
"98059","47.49563","-122.12474","Renton","WA","Washington","TRUE","","41076","980.9","53033","King","{""53033"": 100}","King","53033","FALSE","FALSE","America/Los_Angeles"
"98065","47.59234","-121.78931","Snoqualmie","WA","Washington","TRUE","","15779","86.6","53033","King","{""53033"": 100}","King","53033","FALSE","FALSE","America/Los_Angeles"
"98068","47.45154","-121.35795","Snoqualmie Pass","WA","Washington","TRUE","","551","0.9","53037","Kittitas","{""53037"": 54.94, ""53033"": 45.06}","Kittitas|King","53037|53033","FALSE","FALSE","America/Los_Angeles"
"98070","47.41219","-122.4726","Vashon","WA","Washington","TRUE","","10886","113.8","53033","King","{""53033"": 100}","King","53033","FALSE","FALSE","America/Los_Angeles"
"98072","47.76151","-122.13153","Woodinville","WA","Washington","TRUE","","24931","535.1","53033","King","{""53033"": 72.29, ""53061"": 27.71}","King|Snohomish","53033|53061","FALSE","FALSE","America/Los_Angeles"
"98074","47.62206","-122.04437","Sammamish","WA","Washington","TRUE","","30370","1118.0","53033","King","{""53033"": 100}","King","53033","FALSE","FALSE","America/Los_Angeles"
"98075","47.58683","-122.03796","Sammamish","WA","Washington","TRUE","","25762","1032.4","53033","King","{""53033"": 100}","King","53033","FALSE","FALSE","America/Los_Angeles"
"98077","47.75263","-122.05754","Woodinville","WA","Washington","TRUE","","13862","309.6","53033","King","{""53033"": 85.05, ""53061"": 14.95}","King|Snohomish","53033|53061","FALSE","FALSE","America/Los_Angeles"
"98087","47.8624","-122.2664","Lynnwood","WA","Washington","TRUE","","41958","2818.5","53061","Snohomish","{""53061"": 100}","Snohomish","53061","FALSE","FALSE","America/Los_Angeles"
"98092","47.28851","-122.13123","Auburn","WA","Washington","TRUE","","50845","457.6","53033","King","{""53033"": 96.62, ""53053"": 3.38}","King|Pierce","53033|53053","FALSE","FALSE","America/Los_Angeles"
"98101","47.61119","-122.33454","Seattle","WA","Washington","TRUE","","14528","10617.2","53033","King","{""53033"": 100}","King","53033","FALSE","FALSE","America/Los_Angeles"
"98102","47.63627","-122.32337","Seattle","WA","Washington","TRUE","","25396","7702.9","53033","King","{""53033"": 100}","King","53033","FALSE","FALSE","America/Los_Angeles"
"98103","47.6732","-122.34258","Seattle","WA","Washington","TRUE","","52210","4397.0","53033","King","{""53033"": 100}","King","53033","FALSE","FALSE","America/Los_Angeles"
"98104","47.60044","-122.33004","Seattle","WA","Washington","TRUE","","14469","5909.6","53033","King","{""53033"": 100}","King","53033","FALSE","FALSE","America/Los_Angeles"
"98105","47.66094","-122.28321","Seattle","WA","Washington","TRUE","","49448","4975.6","53033","King","{""53033"": 100}","King","53033","FALSE","FALSE","America/Los_Angeles"
"98106","47.54339","-122.35366","Seattle","WA","Washington","TRUE","","27489","1932.4","53033","King","{""53033"": 100}","King","53033","FALSE","FALSE","America/Los_Angeles"
"98107","47.66757","-122.37789","Seattle","WA","Washington","TRUE","","27116","4818.8","53033","King","{""53033"": 100}","King","53033","FALSE","FALSE","America/Los_Angeles"
"98108","47.54113","-122.3126","Seattle","WA","Washington","TRUE","","23759","1243.4","53033","King","{""53033"": 100}","King","53033","FALSE","FALSE","America/Los_Angeles"
"98109","47.63128","-122.34486","Seattle","WA","Washington","TRUE","","29376","5862.7","53033","King","{""53033"": 100}","King","53033","FALSE","FALSE","America/Los_Angeles"
"98110","47.64389","-122.54335","Bainbridge Island","WA","Washington","TRUE","","24557","343.4","53035","Kitsap","{""53035"": 100}","Kitsap","53035","FALSE","FALSE","America/Los_Angeles"
"98112","47.63242","-122.28732","Seattle","WA","Washington","TRUE","","24412","2941.8","53033","King","{""53033"": 100}","King","53033","FALSE","FALSE","America/Los_Angeles"
"98115","47.68547","-122.28234","Seattle","WA","Washington","TRUE","","53729","3164.2","53033","King","{""53033"": 100}","King","53033","FALSE","FALSE","America/Los_Angeles"
"98116","47.57399","-122.39503","Seattle","WA","Washington","TRUE","","27190","3497.3","53033","King","{""53033"": 100}","King","53033","FALSE","FALSE","America/Los_Angeles"
"98117","47.6882","-122.38157","Seattle","WA","Washington","TRUE","","36365","3625.3","53033","King","{""53033"": 100}","King","53033","FALSE","FALSE","America/Los_Angeles"
"98118","47.54235","-122.26872","Seattle","WA","Washington","TRUE","","48937","3027.6","53033","King","{""53033"": 100}","King","53033","FALSE","FALSE","America/Los_Angeles"
"98119","47.63943","-122.36932","Seattle","WA","Washington","TRUE","","26094","4186.5","53033","King","{""53033"": 100}","King","53033","FALSE","FALSE","America/Los_Angeles"
"98121","47.61548","-122.34668","Seattle","WA","Washington","TRUE","","21010","18290.9","53033","King","{""53033"": 100}","King","53033","FALSE","FALSE","America/Los_Angeles"
"98122","47.60985","-122.29569","Seattle","WA","Washington","TRUE","","41541","6865.8","53033","King","{""53033"": 100}","King","53033","FALSE","FALSE","America/Los_Angeles"
"98125","47.71706","-122.29969","Seattle","WA","Washington","TRUE","","43386","3087.7","53033","King","{""53033"": 100}","King","53033","FALSE","FALSE","America/Los_Angeles"
"98126","47.54732","-122.37454","Seattle","WA","Washington","TRUE","","22030","2745.8","53033","King","{""53033"": 100}","King","53033","FALSE","FALSE","America/Los_Angeles"
"98133","47.7399","-122.34432","Seattle","WA","Washington","TRUE","","50153","2716.6","53033","King","{""53033"": 100}","King","53033","FALSE","FALSE","America/Los_Angeles"
"98134","47.57691","-122.33686","Seattle","WA","Washington","TRUE","","808","94.1","53033","King","{""53033"": 100}","King","53033","FALSE","FALSE","America/Los_Angeles"
"98136","47.53686","-122.38992","Seattle","WA","Washington","TRUE","","17245","2901.7","53033","King","{""53033"": 100}","King","53033","FALSE","FALSE","America/Los_Angeles"
"98144","47.58582","-122.29205","Seattle","WA","Washington","TRUE","","31648","3624.1","53033","King","{""53033"": 100}","King","53033","FALSE","FALSE","America/Los_Angeles"
"98146","47.50008","-122.35768","Seattle","WA","Washington","TRUE","","27879","2329.3","53033","King","{""53033"": 100}","King","53033","FALSE","FALSE","America/Los_Angeles"
"98148","47.44494","-122.32587","Seattle","WA","Washington","TRUE","","11068","1576.4","53033","King","{""53033"": 100}","King","53033","FALSE","FALSE","America/Los_Angeles"
"98154","47.60621","-122.33379","Seattle","WA","Washington","TRUE","","0","0.0","53033","King","{""53033"": 100}","King","53033","FALSE","FALSE","America/Los_Angeles"
"98155","47.75609","-122.30039","Seattle","WA","Washington","TRUE","","36081","1846.6","53033","King","{""53033"": 100}","King","53033","FALSE","FALSE","America/Los_Angeles"
"98158","47.45043","-122.30805","Seattle","WA","Washington","TRUE","","0","0.0","53033","King","{""53033"": 100}","King","53033","FALSE","FALSE","America/Los_Angeles"
"98164","47.60596","-122.33203","Seattle","WA","Washington","TRUE","","250","27277.7","53033","King","{""53033"": 100}","King","53033","FALSE","FALSE","America/Los_Angeles"
"98166","47.45256","-122.34978","Seattle","WA","Washington","TRUE","","22599","1510.6","53033","King","{""53033"": 100}","King","53033","FALSE","FALSE","America/Los_Angeles"
"98168","47.48898","-122.30175","Seattle","WA","Washington","TRUE","","34614","1526.4","53033","King","{""53033"": 100}","King","53033","FALSE","FALSE","America/Los_Angeles"
"98174","47.60477","-122.33528","Seattle","WA","Washington","TRUE","","0","0.0","53033","King","{""53033"": 100}","King","53033","FALSE","FALSE","America/Los_Angeles"
"98177","47.74237","-122.37085","Seattle","WA","Washington","TRUE","","20561","1407.8","53033","King","{""53033"": 100}","King","53033","FALSE","FALSE","America/Los_Angeles"
"98178","47.49921","-122.24735","Seattle","WA","Washington","TRUE","","26282","2070.4","53033","King","{""53033"": 100}","King","53033","FALSE","FALSE","America/Los_Angeles"
"98188","47.44754","-122.27398","Seattle","WA","Washington","TRUE","","27524","1317.4","53033","King","{""53033"": 100}","King","53033","FALSE","FALSE","America/Los_Angeles"
"98195","47.65466","-122.30752","Seattle","WA","Washington","TRUE","","2259","2210.5","53033","King","{""53033"": 100}","King","53033","FALSE","FALSE","America/Los_Angeles"
"98198","47.39469","-122.31111","Seattle","WA","Washington","TRUE","","38919","1945.2","53033","King","{""53033"": 100}","King","53033","FALSE","FALSE","America/Los_Angeles"
"98199","47.65139","-122.40223","Seattle","WA","Washington","TRUE","","22890","2086.8","53033","King","{""53033"": 100}","King","53033","FALSE","FALSE","America/Los_Angeles"
"98201","47.99373","-122.18563","Everett","WA","Washington","TRUE","","30669","631.5","53061","Snohomish","{""53061"": 100}","Snohomish","53061","FALSE","FALSE","America/Los_Angeles"
"98203","47.94236","-122.23651","Everett","WA","Washington","TRUE","","36164","1180.8","53061","Snohomish","{""53061"": 100}","Snohomish","53061","FALSE","FALSE","America/Los_Angeles"
"98204","47.90105","-122.2586","Everett","WA","Washington","TRUE","","42496","2284.2","53061","Snohomish","{""53061"": 100}","Snohomish","53061","FALSE","FALSE","America/Los_Angeles"
"98207","47.98793","-122.2229","Everett","WA","Washington","TRUE","","1376","2107.0","53061","Snohomish","{""53061"": 100}","Snohomish","53061","FALSE","FALSE","America/Los_Angeles"
"98208","47.90072","-122.18852","Everett","WA","Washington","TRUE","","60087","1522.6","53061","Snohomish","{""53061"": 100}","Snohomish","53061","FALSE","FALSE","America/Los_Angeles"
"98220","48.68526","-122.19678","Acme","WA","Washington","TRUE","","578","11.0","53073","Whatcom","{""53073"": 100}","Whatcom","53073","FALSE","FALSE","America/Los_Angeles"
"98221","48.50401","-122.65435","Anacortes","WA","Washington","TRUE","","22707","168.8","53057","Skagit","{""53057"": 89.32, ""53055"": 10.68}","Skagit|San Juan","53057|53055","FALSE","FALSE","America/Los_Angeles"
"98222","48.56085","-122.80263","Blakely Island","WA","Washington","TRUE","","108","6.3","53055","San Juan","{""53055"": 100}","San Juan","53055","FALSE","FALSE","America/Los_Angeles"
"98223","48.20994","-121.95081","Arlington","WA","Washington","TRUE","","45253","55.3","53061","Snohomish","{""53061"": 100}","Snohomish","53061","FALSE","FALSE","America/Los_Angeles"
"98224","47.7357","-121.56859","Baring","WA","Washington","TRUE","","203","1.3","53033","King","{""53033"": 100}","King","53033","FALSE","FALSE","America/Los_Angeles"
"98225","48.75461","-122.50307","Bellingham","WA","Washington","TRUE","","50046","1537.2","53073","Whatcom","{""53073"": 100}","Whatcom","53073","FALSE","FALSE","America/Los_Angeles"
"98226","48.80064","-122.42299","Bellingham","WA","Washington","TRUE","","45373","165.6","53073","Whatcom","{""53073"": 100}","Whatcom","53073","FALSE","FALSE","America/Los_Angeles"
"98229","48.69615","-122.40979","Bellingham","WA","Washington","TRUE","","34182","263.1","53073","Whatcom","{""53073"": 95.34, ""53057"": 4.66}","Whatcom|Skagit","53073|53057","FALSE","FALSE","America/Los_Angeles"
"98230","48.95688","-122.7084","Blaine","WA","Washington","TRUE","","18413","167.2","53073","Whatcom","{""53073"": 100}","Whatcom","53073","FALSE","FALSE","America/Los_Angeles"
"98232","48.56531","-122.41498","Bow","WA","Washington","TRUE","","4030","28.8","53057","Skagit","{""53057"": 100}","Skagit","53057","FALSE","FALSE","America/Los_Angeles"
"98233","48.50309","-122.35102","Burlington","WA","Washington","TRUE","","16615","193.5","53057","Skagit","{""53057"": 100}","Skagit","53057","FALSE","FALSE","America/Los_Angeles"
"98235","48.4602","-122.22846","Clearlake","WA","Washington","TRUE","","368","413.8","53057","Skagit","{""53057"": 100}","Skagit","53057","FALSE","FALSE","America/Los_Angeles"
"98236","47.95804","-122.40468","Clinton","WA","Washington","TRUE","","6184","103.6","53029","Island","{""53029"": 100}","Island","53029","FALSE","FALSE","America/Los_Angeles"
"98237","48.53272","-121.69748","Concrete","WA","Washington","TRUE","","4474","4.1","53057","Skagit","{""53057"": 83.35, ""53073"": 16.65}","Skagit|Whatcom","53057|53073","FALSE","FALSE","America/Los_Angeles"
"98238","48.33563","-122.34444","Conway","WA","Washington","TRUE","","45","77.2","53057","Skagit","{""53057"": 100}","Skagit","53057","FALSE","FALSE","America/Los_Angeles"
"98239","48.18926","-122.65756","Coupeville","WA","Washington","TRUE","","7409","92.2","53029","Island","{""53029"": 100}","Island","53029","FALSE","FALSE","America/Los_Angeles"
"98240","48.94711","-122.62061","Custer","WA","Washington","TRUE","","3328","57.7","53073","Whatcom","{""53073"": 100}","Whatcom","53073","FALSE","FALSE","America/Los_Angeles"
"98241","48.21425","-121.33219","Darrington","WA","Washington","TRUE","","1854","1.7","53061","Snohomish","{""53061"": 91.93, ""53057"": 8.07}","Snohomish|Skagit","53061|53057","FALSE","FALSE","America/Los_Angeles"
"98243","48.61512","-122.99882","Deer Harbor","WA","Washington","TRUE","","270","34.4","53055","San Juan","{""53055"": 100}","San Juan","53055","FALSE","FALSE","America/Los_Angeles"
"98244","48.79423","-121.93557","Deming","WA","Washington","TRUE","","3244","2.7","53073","Whatcom","{""53073"": 100}","Whatcom","53073","FALSE","FALSE","America/Los_Angeles"
"98245","48.66241","-122.91616","Eastsound","WA","Washington","TRUE","","4122","44.9","53055","San Juan","{""53055"": 100}","San Juan","53055","FALSE","FALSE","America/Los_Angeles"
"98247","48.90459","-122.31732","Everson","WA","Washington","TRUE","","8068","46.7","53073","Whatcom","{""53073"": 100}","Whatcom","53073","FALSE","FALSE","America/Los_Angeles"
"98248","48.86494","-122.62211","Ferndale","WA","Washington","TRUE","","26404","142.0","53073","Whatcom","{""53073"": 100}","Whatcom","53073","FALSE","FALSE","America/Los_Angeles"
"98249","48.01888","-122.53947","Freeland","WA","Washington","TRUE","","4229","102.6","53029","Island","{""53029"": 100}","Island","53029","FALSE","FALSE","America/Los_Angeles"
"98250","48.55264","-123.09631","Friday Harbor","WA","Washington","TRUE","","8568","54.1","53055","San Juan","{""53055"": 100}","San Juan","53055","FALSE","FALSE","America/Los_Angeles"
"98251","47.89812","-121.55752","Gold Bar","WA","Washington","TRUE","","4706","11.3","53061","Snohomish","{""53061"": 100}","Snohomish","53061","FALSE","FALSE","America/Los_Angeles"
"98252","48.06173","-121.70939","Granite Falls","WA","Washington","TRUE","","10246","16.6","53061","Snohomish","{""53061"": 100}","Snohomish","53061","FALSE","FALSE","America/Los_Angeles"
"98253","48.079","-122.57568","Greenbank","WA","Washington","TRUE","","2275","80.3","53029","Island","{""53029"": 100}","Island","53029","FALSE","FALSE","America/Los_Angeles"
"98255","48.52353","-121.99203","Hamilton","WA","Washington","TRUE","","262","152.5","53057","Skagit","{""53057"": 100}","Skagit","53057","FALSE","FALSE","America/Los_Angeles"
"98256","47.82883","-121.41464","Index","WA","Washington","TRUE","","328","1.7","53061","Snohomish","{""53061"": 100}","Snohomish","53061","FALSE","FALSE","America/Los_Angeles"
"98257","48.415","-122.50879","La Conner","WA","Washington","TRUE","","4513","94.3","53057","Skagit","{""53057"": 100}","Skagit","53057","FALSE","FALSE","America/Los_Angeles"
"98258","48.03252","-122.07762","Lake Stevens","WA","Washington","TRUE","","51374","535.3","53061","Snohomish","{""53061"": 100}","Snohomish","53061","FALSE","FALSE","America/Los_Angeles"
"98260","48.03074","-122.45106","Langley","WA","Washington","TRUE","","5979","87.9","53029","Island","{""53029"": 100}","Island","53029","FALSE","FALSE","America/Los_Angeles"
"98261","48.48381","-122.88302","Lopez Island","WA","Washington","TRUE","","3034","39.3","53055","San Juan","{""53055"": 100}","San Juan","53055","FALSE","FALSE","America/Los_Angeles"
"98262","48.69317","-122.66406","Lummi Island","WA","Washington","TRUE","","887","37.0","53073","Whatcom","{""53073"": 100}","Whatcom","53073","FALSE","FALSE","America/Los_Angeles"
"98263","48.52281","-122.0657","Lyman","WA","Washington","TRUE","","196","309.7","53057","Skagit","{""53057"": 100}","Skagit","53057","FALSE","FALSE","America/Los_Angeles"
"98264","48.94972","-122.45672","Lynden","WA","Washington","TRUE","","22005","148.7","53073","Whatcom","{""53073"": 100}","Whatcom","53073","FALSE","FALSE","America/Los_Angeles"
"98266","48.9576","-122.06189","Maple Falls","WA","Washington","TRUE","","4373","33.4","53073","Whatcom","{""53073"": 100}","Whatcom","53073","FALSE","FALSE","America/Los_Angeles"
"98267","48.43756","-121.30841","Marblemount","WA","Washington","TRUE","","250","0.3","53057","Skagit","{""53057"": 100}","Skagit","53057","FALSE","FALSE","America/Los_Angeles"
"98270","48.05952","-122.1443","Marysville","WA","Washington","TRUE","","52756","1428.4","53061","Snohomish","{""53061"": 100}","Snohomish","53061","FALSE","FALSE","America/Los_Angeles"
"98271","48.09373","-122.23559","Marysville","WA","Washington","TRUE","","29120","248.2","53061","Snohomish","{""53061"": 100}","Snohomish","53061","FALSE","FALSE","America/Los_Angeles"
"98272","47.85834","-121.88457","Monroe","WA","Washington","TRUE","","31517","114.5","53061","Snohomish","{""53061"": 100}","Snohomish","53061","FALSE","FALSE","America/Los_Angeles"
"98273","48.40522","-122.36841","Mount Vernon","WA","Washington","TRUE","","30924","142.2","53057","Skagit","{""53057"": 100}","Skagit","53057","FALSE","FALSE","America/Los_Angeles"
"98274","48.36013","-122.14346","Mount Vernon","WA","Washington","TRUE","","18052","48.7","53057","Skagit","{""53057"": 100}","Skagit","53057","FALSE","FALSE","America/Los_Angeles"
"98275","47.90994","-122.30113","Mukilteo","WA","Washington","TRUE","","21409","1130.6","53061","Snohomish","{""53061"": 100}","Snohomish","53061","FALSE","FALSE","America/Los_Angeles"
"98276","48.92765","-122.32096","Nooksack","WA","Washington","TRUE","","1397","762.5","53073","Whatcom","{""53073"": 100}","Whatcom","53073","FALSE","FALSE","America/Los_Angeles"
"98277","48.31688","-122.63152","Oak Harbor","WA","Washington","TRUE","","40112","270.5","53029","Island","{""53029"": 100}","Island","53029","FALSE","FALSE","America/Los_Angeles"
"98278","48.34388","-122.66491","Oak Harbor","WA","Washington","TRUE","","2515","230.0","53029","Island","{""53029"": 100}","Island","53029","FALSE","FALSE","America/Los_Angeles"
"98279","48.64474","-122.80602","Olga","WA","Washington","TRUE","","689","19.5","53055","San Juan","{""53055"": 100}","San Juan","53055","FALSE","FALSE","America/Los_Angeles"
"98280","48.60866","-122.90554","Orcas","WA","Washington","TRUE","","394","24.6","53055","San Juan","{""53055"": 100}","San Juan","53055","FALSE","FALSE","America/Los_Angeles"
"98281","48.98817","-123.05767","Point Roberts","WA","Washington","TRUE","","1210","95.6","53073","Whatcom","{""53073"": 100}","Whatcom","53073","FALSE","FALSE","America/Los_Angeles"
"98282","48.18719","-122.46966","Camano Island","WA","Washington","TRUE","","17235","164.9","53029","Island","{""53029"": 98.66, ""53061"": 1.34}","Island|Snohomish","53029|53061","FALSE","FALSE","America/Los_Angeles"
"98283","48.80137","-121.29997","Rockport","WA","Washington","TRUE","","499","0.4","53073","Whatcom","{""53073"": 95.75, ""53057"": 4.25}","Whatcom|Skagit","53073|53057","FALSE","FALSE","America/Los_Angeles"
"98284","48.55211","-122.11763","Sedro Woolley","WA","Washington","TRUE","","27159","37.3","53057","Skagit","{""53057"": 91.87, ""53073"": 8.13}","Skagit|Whatcom","53057|53073","FALSE","FALSE","America/Los_Angeles"
"98286","48.57262","-122.95712","Shaw Island","WA","Washington","TRUE","","188","9.4","53055","San Juan","{""53055"": 100}","San Juan","53055","FALSE","FALSE","America/Los_Angeles"
"98288","47.65204","-121.3574","Skykomish","WA","Washington","TRUE","","254","0.3","53033","King","{""53033"": 100}","King","53033","FALSE","FALSE","America/Los_Angeles"
"98290","47.95141","-121.98421","Snohomish","WA","Washington","TRUE","","38516","126.6","53061","Snohomish","{""53061"": 100}","Snohomish","53061","FALSE","FALSE","America/Los_Angeles"
"98292","48.22455","-122.3032","Stanwood","WA","Washington","TRUE","","24141","121.4","53061","Snohomish","{""53061"": 98.97, ""53057"": 1.03}","Snohomish|Skagit","53061|53057","FALSE","FALSE","America/Los_Angeles"
"98294","47.84431","-121.75822","Sultan","WA","Washington","TRUE","","6936","49.5","53061","Snohomish","{""53061"": 100}","Snohomish","53061","FALSE","FALSE","America/Los_Angeles"
"98295","48.97163","-122.2213","Sumas","WA","Washington","TRUE","","2927","36.1","53073","Whatcom","{""53073"": 100}","Whatcom","53073","FALSE","FALSE","America/Los_Angeles"
"98296","47.84266","-122.10199","Snohomish","WA","Washington","TRUE","","27032","302.3","53061","Snohomish","{""53061"": 100}","Snohomish","53061","FALSE","FALSE","America/Los_Angeles"
"98297","48.7005","-123.02834","Waldron","WA","Washington","TRUE","","59","5.0","53055","San Juan","{""53055"": 100}","San Juan","53055","FALSE","FALSE","America/Los_Angeles"
"98303","47.15783","-122.70387","Anderson Island","WA","Washington","TRUE","","1564","76.1","53053","Pierce","{""53053"": 100}","Pierce","53053","FALSE","FALSE","America/Los_Angeles"
"98304","46.87036","-121.73985","Ashford","WA","Washington","TRUE","","1114","1.3","53053","Pierce","{""53053"": 98.34, ""53041"": 1.66}","Pierce|Lewis","53053|53041","FALSE","FALSE","America/Los_Angeles"
"98305","48.03148","-124.22934","Beaver","WA","Washington","TRUE","","298","0.5","53009","Clallam","{""53009"": 100}","Clallam","53009","FALSE","FALSE","America/Los_Angeles"
"98310","47.58939","-122.6175","Bremerton","WA","Washington","TRUE","","21635","1517.9","53035","Kitsap","{""53035"": 100}","Kitsap","53035","FALSE","FALSE","America/Los_Angeles"
"98311","47.62829","-122.63793","Bremerton","WA","Washington","TRUE","","27170","936.9","53035","Kitsap","{""53035"": 100}","Kitsap","53035","FALSE","FALSE","America/Los_Angeles"
"98312","47.56435","-122.75706","Bremerton","WA","Washington","TRUE","","31762","186.5","53035","Kitsap","{""53035"": 99.84, ""53045"": 0.16}","Kitsap|Mason","53035|53045","FALSE","FALSE","America/Los_Angeles"
"98314","47.56243","-122.63893","Bremerton","WA","Washington","TRUE","","1773","5865.2","53035","Kitsap","{""53035"": 100}","Kitsap","53035","FALSE","FALSE","America/Los_Angeles"
"98315","47.72263","-122.71444","Silverdale","WA","Washington","TRUE","","6407","223.1","53035","Kitsap","{""53035"": 100}","Kitsap","53035","FALSE","FALSE","America/Los_Angeles"
"98320","47.69861","-123.01742","Brinnon","WA","Washington","TRUE","","1456","4.1","53031","Jefferson","{""53031"": 100}","Jefferson","53031","FALSE","FALSE","America/Los_Angeles"
"98321","47.15564","-122.06576","Buckley","WA","Washington","TRUE","","16749","182.1","53053","Pierce","{""53053"": 100}","Pierce","53053","FALSE","FALSE","America/Los_Angeles"
"98323","46.98059","-122.006","Carbonado","WA","Washington","TRUE","","644","2.5","53053","Pierce","{""53053"": 100}","Pierce","53053","FALSE","FALSE","America/Los_Angeles"
"98325","47.96093","-122.77911","Chimacum","WA","Washington","TRUE","","1737","24.2","53031","Jefferson","{""53031"": 100}","Jefferson","53031","FALSE","FALSE","America/Los_Angeles"
"98326","48.17364","-124.45278","Clallam Bay","WA","Washington","TRUE","","931","1.2","53009","Clallam","{""53009"": 100}","Clallam","53009","FALSE","FALSE","America/Los_Angeles"
"98327","47.10203","-122.66061","Dupont","WA","Washington","TRUE","","9974","563.4","53053","Pierce","{""53053"": 100}","Pierce","53053","FALSE","FALSE","America/Los_Angeles"
"98328","46.86055","-122.17227","Eatonville","WA","Washington","TRUE","","10505","17.7","53053","Pierce","{""53053"": 100}","Pierce","53053","FALSE","FALSE","America/Los_Angeles"
"98329","47.37731","-122.72523","Gig Harbor","WA","Washington","TRUE","","11175","166.0","53053","Pierce","{""53053"": 99.02, ""53035"": 0.98}","Pierce|Kitsap","53053|53035","FALSE","FALSE","America/Los_Angeles"
"98330","46.75874","-122.15894","Elbe","WA","Washington","TRUE","","22","6.4","53053","Pierce","{""53053"": 100}","Pierce","53053","FALSE","FALSE","America/Los_Angeles"
"98331","47.77292","-124.1273","Forks","WA","Washington","TRUE","","5951","2.5","53031","Jefferson","{""53031"": 79.34, ""53009"": 20.66}","Jefferson|Clallam","53031|53009","FALSE","FALSE","America/Los_Angeles"
"98332","47.36514","-122.59858","Gig Harbor","WA","Washington","TRUE","","19722","368.5","53053","Pierce","{""53053"": 100}","Pierce","53053","FALSE","FALSE","America/Los_Angeles"
"98333","47.24771","-122.62561","Fox Island","WA","Washington","TRUE","","3534","262.7","53053","Pierce","{""53053"": 100}","Pierce","53053","FALSE","FALSE","America/Los_Angeles"
"98335","47.29909","-122.61911","Gig Harbor","WA","Washington","TRUE","","28128","490.4","53053","Pierce","{""53053"": 100}","Pierce","53053","FALSE","FALSE","America/Los_Angeles"
"98336","46.56382","-122.10939","Glenoma","WA","Washington","TRUE","","693","4.0","53041","Lewis","{""53041"": 100}","Lewis","53041","FALSE","FALSE","America/Los_Angeles"
"98337","47.56345","-122.63405","Bremerton","WA","Washington","TRUE","","8582","2239.0","53035","Kitsap","{""53035"": 100}","Kitsap","53035","FALSE","FALSE","America/Los_Angeles"
"98338","47.01927","-122.28347","Graham","WA","Washington","TRUE","","31996","229.0","53053","Pierce","{""53053"": 100}","Pierce","53053","FALSE","FALSE","America/Los_Angeles"
"98339","48.02991","-122.74364","Port Hadlock","WA","Washington","TRUE","","3304","105.2","53031","Jefferson","{""53031"": 100}","Jefferson","53031","FALSE","FALSE","America/Los_Angeles"
"98340","47.90622","-122.56406","Hansville","WA","Washington","TRUE","","3017","155.7","53035","Kitsap","{""53035"": 100}","Kitsap","53035","FALSE","FALSE","America/Los_Angeles"
"98342","47.75475","-122.51952","Indianola","WA","Washington","TRUE","","1331","189.3","53035","Kitsap","{""53035"": 100}","Kitsap","53035","FALSE","FALSE","America/Los_Angeles"
"98345","47.69972","-122.62366","Keyport","WA","Washington","TRUE","","270","208.5","53035","Kitsap","{""53035"": 100}","Kitsap","53035","FALSE","FALSE","America/Los_Angeles"
"98346","47.82005","-122.53399","Kingston","WA","Washington","TRUE","","9371","124.3","53035","Kitsap","{""53035"": 100}","Kitsap","53035","FALSE","FALSE","America/Los_Angeles"
"98349","47.26583","-122.77366","Lakebay","WA","Washington","TRUE","","5272","98.5","53053","Pierce","{""53053"": 100}","Pierce","53053","FALSE","FALSE","America/Los_Angeles"
"98350","47.90683","-124.62509","La Push","WA","Washington","TRUE","","336","85.5","53009","Clallam","{""53009"": 100}","Clallam","53009","FALSE","FALSE","America/Los_Angeles"
"98351","47.20353","-122.76773","Longbranch","WA","Washington","TRUE","","1375","58.7","53053","Pierce","{""53053"": 100}","Pierce","53053","FALSE","FALSE","America/Los_Angeles"
"98353","47.53885","-122.49294","Manchester","WA","Washington","TRUE","","17","8.2","53035","Kitsap","{""53035"": 100}","Kitsap","53035","FALSE","FALSE","America/Los_Angeles"
"98354","47.25113","-122.31557","Milton","WA","Washington","TRUE","","8185","1115.4","53053","Pierce","{""53053"": 80.02, ""53033"": 19.98}","Pierce|King","53053|53033","FALSE","FALSE","America/Los_Angeles"
"98355","46.69179","-122.03978","Mineral","WA","Washington","TRUE","","792","1.8","53041","Lewis","{""53041"": 100}","Lewis","53041","FALSE","FALSE","America/Los_Angeles"
"98356","46.57943","-122.26913","Morton","WA","Washington","TRUE","","2350","7.2","53041","Lewis","{""53041"": 100}","Lewis","53041","FALSE","FALSE","America/Los_Angeles"
"98357","48.33188","-124.62816","Neah Bay","WA","Washington","TRUE","","1547","14.1","53009","Clallam","{""53009"": 100}","Clallam","53009","FALSE","FALSE","America/Los_Angeles"
"98358","48.05796","-122.70008","Nordland","WA","Washington","TRUE","","924","56.4","53031","Jefferson","{""53031"": 100}","Jefferson","53031","FALSE","FALSE","America/Los_Angeles"
"98359","47.43047","-122.57631","Olalla","WA","Washington","TRUE","","4991","138.8","53035","Kitsap","{""53035"": 100}","Kitsap","53035","FALSE","FALSE","America/Los_Angeles"
"98360","47.03246","-122.1575","Orting","WA","Washington","TRUE","","14591","83.2","53053","Pierce","{""53053"": 100}","Pierce","53053","FALSE","FALSE","America/Los_Angeles"
"98361","46.62786","-121.56385","Packwood","WA","Washington","TRUE","","469","0.5","53041","Lewis","{""53041"": 100}","Lewis","53041","FALSE","FALSE","America/Los_Angeles"
"98362","48.01639","-123.31951","Port Angeles","WA","Washington","TRUE","","24462","76.8","53009","Clallam","{""53009"": 100}","Clallam","53009","FALSE","FALSE","America/Los_Angeles"
"98363","48.03477","-123.76952","Port Angeles","WA","Washington","TRUE","","14245","11.5","53009","Clallam","{""53009"": 100}","Clallam","53009","FALSE","FALSE","America/Los_Angeles"
"98364","47.85455","-122.58638","Port Gamble","WA","Washington","TRUE","","67","736.9","53035","Kitsap","{""53035"": 100}","Kitsap","53035","FALSE","FALSE","America/Los_Angeles"
"98365","47.89545","-122.70271","Port Ludlow","WA","Washington","TRUE","","4779","49.6","53031","Jefferson","{""53031"": 100}","Jefferson","53031","FALSE","FALSE","America/Los_Angeles"
"98366","47.53732","-122.58647","Port Orchard","WA","Washington","TRUE","","36620","604.0","53035","Kitsap","{""53035"": 100}","Kitsap","53035","FALSE","FALSE","America/Los_Angeles"
"98367","47.46141","-122.67662","Port Orchard","WA","Washington","TRUE","","30710","161.3","53035","Kitsap","{""53035"": 100}","Kitsap","53035","FALSE","FALSE","America/Los_Angeles"
"98368","48.03879","-122.84406","Port Townsend","WA","Washington","TRUE","","16702","123.2","53031","Jefferson","{""53031"": 100}","Jefferson","53031","FALSE","FALSE","America/Los_Angeles"
"98370","47.75114","-122.62373","Poulsbo","WA","Washington","TRUE","","33071","226.7","53035","Kitsap","{""53035"": 100}","Kitsap","53035","FALSE","FALSE","America/Los_Angeles"
"98371","47.19957","-122.32191","Puyallup","WA","Washington","TRUE","","22741","741.8","53053","Pierce","{""53053"": 100}","Pierce","53053","FALSE","FALSE","America/Los_Angeles"
"98372","47.2064","-122.26689","Puyallup","WA","Washington","TRUE","","27127","785.3","53053","Pierce","{""53053"": 100}","Pierce","53053","FALSE","FALSE","America/Los_Angeles"
"98373","47.14761","-122.32506","Puyallup","WA","Washington","TRUE","","29283","1205.0","53053","Pierce","{""53053"": 100}","Pierce","53053","FALSE","FALSE","America/Los_Angeles"
"98374","47.12904","-122.26156","Puyallup","WA","Washington","TRUE","","42974","1013.0","53053","Pierce","{""53053"": 100}","Pierce","53053","FALSE","FALSE","America/Los_Angeles"
"98375","47.10394","-122.32383","Puyallup","WA","Washington","TRUE","","31973","1275.8","53053","Pierce","{""53053"": 100}","Pierce","53053","FALSE","FALSE","America/Los_Angeles"
"98376","47.8455","-122.85916","Quilcene","WA","Washington","TRUE","","2044","7.1","53031","Jefferson","{""53031"": 100}","Jefferson","53031","FALSE","FALSE","America/Los_Angeles"
"98377","46.50586","-121.81912","Randle","WA","Washington","TRUE","","2057","2.4","53041","Lewis","{""53041"": 100}","Lewis","53041","FALSE","FALSE","America/Los_Angeles"
"98380","47.5743","-122.90287","Seabeck","WA","Washington","TRUE","","5753","46.0","53035","Kitsap","{""53035"": 93.68, ""53045"": 6.32}","Kitsap|Mason","53035|53045","FALSE","FALSE","America/Los_Angeles"
"98381","48.28863","-124.45681","Sekiu","WA","Washington","TRUE","","235","2.2","53009","Clallam","{""53009"": 100}","Clallam","53009","FALSE","FALSE","America/Los_Angeles"
"98382","48.0131","-123.07437","Sequim","WA","Washington","TRUE","","30366","56.7","53009","Clallam","{""53009"": 93.34, ""53031"": 6.66}","Clallam|Jefferson","53009|53031","FALSE","FALSE","America/Los_Angeles"
"98383","47.66212","-122.71652","Silverdale","WA","Washington","TRUE","","22541","501.6","53035","Kitsap","{""53035"": 100}","Kitsap","53035","FALSE","FALSE","America/Los_Angeles"
"98385","47.13791","-122.09469","South Prairie","WA","Washington","TRUE","","462","241.7","53053","Pierce","{""53053"": 100}","Pierce","53053","FALSE","FALSE","America/Los_Angeles"
"98387","47.0562","-122.39111","Spanaway","WA","Washington","TRUE","","52017","754.8","53053","Pierce","{""53053"": 100}","Pierce","53053","FALSE","FALSE","America/Los_Angeles"
"98388","47.19892","-122.66268","Steilacoom","WA","Washington","TRUE","","6975","304.8","53053","Pierce","{""53053"": 100}","Pierce","53053","FALSE","FALSE","America/Los_Angeles"
"98390","47.21195","-122.22894","Sumner","WA","Washington","TRUE","","11413","479.4","53053","Pierce","{""53053"": 100}","Pierce","53053","FALSE","FALSE","America/Los_Angeles"
"98391","47.17654","-122.17362","Bonney Lake","WA","Washington","TRUE","","55662","560.2","53053","Pierce","{""53053"": 100}","Pierce","53053","FALSE","FALSE","America/Los_Angeles"
"98392","47.73425","-122.5631","Suquamish","WA","Washington","TRUE","","3231","698.6","53035","Kitsap","{""53035"": 100}","Kitsap","53035","FALSE","FALSE","America/Los_Angeles"
"98394","47.32011","-122.77791","Vaughn","WA","Washington","TRUE","","1186","84.1","53053","Pierce","{""53053"": 100}","Pierce","53053","FALSE","FALSE","America/Los_Angeles"
"98396","47.10669","-122.01052","Wilkeson","WA","Washington","TRUE","","620","22.6","53053","Pierce","{""53053"": 100}","Pierce","53053","FALSE","FALSE","America/Los_Angeles"
"98402","47.25021","-122.44056","Tacoma","WA","Washington","TRUE","","6805","2227.2","53053","Pierce","{""53053"": 100}","Pierce","53053","FALSE","FALSE","America/Los_Angeles"
"98403","47.26581","-122.45921","Tacoma","WA","Washington","TRUE","","8441","3258.2","53053","Pierce","{""53053"": 100}","Pierce","53053","FALSE","FALSE","America/Los_Angeles"
"98404","47.20927","-122.41139","Tacoma","WA","Washington","TRUE","","35357","1933.9","53053","Pierce","{""53053"": 100}","Pierce","53053","FALSE","FALSE","America/Los_Angeles"
"98405","47.24599","-122.47222","Tacoma","WA","Washington","TRUE","","24053","2265.8","53053","Pierce","{""53053"": 100}","Pierce","53053","FALSE","FALSE","America/Los_Angeles"
"98406","47.26283","-122.50857","Tacoma","WA","Washington","TRUE","","22708","2097.2","53053","Pierce","{""53053"": 100}","Pierce","53053","FALSE","FALSE","America/Los_Angeles"
"98407","47.28889","-122.5111","Tacoma","WA","Washington","TRUE","","20993","1503.8","53053","Pierce","{""53053"": 100}","Pierce","53053","FALSE","FALSE","America/Los_Angeles"
"98408","47.19811","-122.44638","Tacoma","WA","Washington","TRUE","","22016","2491.8","53053","Pierce","{""53053"": 100}","Pierce","53053","FALSE","FALSE","America/Los_Angeles"
"98409","47.21084","-122.48197","Tacoma","WA","Washington","TRUE","","28403","1535.7","53053","Pierce","{""53053"": 100}","Pierce","53053","FALSE","FALSE","America/Los_Angeles"
"98416","47.26271","-122.48196","Tacoma","WA","Washington","TRUE","","1057","4622.7","53053","Pierce","{""53053"": 100}","Pierce","53053","FALSE","FALSE","America/Los_Angeles"
"98418","47.22325","-122.44642","Tacoma","WA","Washington","TRUE","","9813","2246.4","53053","Pierce","{""53053"": 100}","Pierce","53053","FALSE","FALSE","America/Los_Angeles"
"98421","47.25819","-122.40107","Tacoma","WA","Washington","TRUE","","950","56.4","53053","Pierce","{""53053"": 100}","Pierce","53053","FALSE","FALSE","America/Los_Angeles"
"98422","47.28907","-122.39123","Tacoma","WA","Washington","TRUE","","22002","1212.7","53053","Pierce","{""53053"": 97.78, ""53033"": 2.22}","Pierce|King","53053|53033","FALSE","FALSE","America/Los_Angeles"
"98424","47.2343","-122.3523","Fife","WA","Washington","TRUE","","12019","737.0","53053","Pierce","{""53053"": 100}","Pierce","53053","FALSE","FALSE","America/Los_Angeles"
"98430","47.11733","-122.56896","Camp Murray","WA","Washington","TRUE","","0","0.0","53053","Pierce","{""53053"": 100}","Pierce","53053","FALSE","FALSE","America/Los_Angeles"
"98433","47.09121","-122.60772","Tacoma","WA","Washington","TRUE","","19771","227.9","53053","Pierce","{""53053"": 100}","Pierce","53053","FALSE","FALSE","America/Los_Angeles"
"98438","47.13514","-122.49211","Mcchord Afb","WA","Washington","TRUE","","576","231.2","53053","Pierce","{""53053"": 100}","Pierce","53053","FALSE","FALSE","America/Los_Angeles"
"98439","47.13164","-122.49603","Lakewood","WA","Washington","TRUE","","6095","432.4","53053","Pierce","{""53053"": 100}","Pierce","53053","FALSE","FALSE","America/Los_Angeles"
"98443","47.20522","-122.37592","Tacoma","WA","Washington","TRUE","","5688","405.7","53053","Pierce","{""53053"": 100}","Pierce","53053","FALSE","FALSE","America/Los_Angeles"
"98444","47.15228","-122.44887","Tacoma","WA","Washington","TRUE","","35083","1950.2","53053","Pierce","{""53053"": 100}","Pierce","53053","FALSE","FALSE","America/Los_Angeles"
"98445","47.13985","-122.40965","Tacoma","WA","Washington","TRUE","","32304","1193.7","53053","Pierce","{""53053"": 100}","Pierce","53053","FALSE","FALSE","America/Los_Angeles"
"98446","47.12935","-122.37424","Tacoma","WA","Washington","TRUE","","13068","463.4","53053","Pierce","{""53053"": 100}","Pierce","53053","FALSE","FALSE","America/Los_Angeles"
"98447","47.14531","-122.44392","Tacoma","WA","Washington","TRUE","","1303","4425.6","53053","Pierce","{""53053"": 100}","Pierce","53053","FALSE","FALSE","America/Los_Angeles"
"98465","47.24868","-122.53043","Tacoma","WA","Washington","TRUE","","7092","1691.8","53053","Pierce","{""53053"": 100}","Pierce","53053","FALSE","FALSE","America/Los_Angeles"
"98466","47.22842","-122.53479","Tacoma","WA","Washington","TRUE","","29989","1861.8","53053","Pierce","{""53053"": 100}","Pierce","53053","FALSE","FALSE","America/Los_Angeles"
"98467","47.2038","-122.5447","University Place","WA","Washington","TRUE","","15382","1243.7","53053","Pierce","{""53053"": 100}","Pierce","53053","FALSE","FALSE","America/Los_Angeles"
"98498","47.16001","-122.55971","Lakewood","WA","Washington","TRUE","","29062","1128.4","53053","Pierce","{""53053"": 100}","Pierce","53053","FALSE","FALSE","America/Los_Angeles"
"98499","47.16662","-122.50624","Lakewood","WA","Washington","TRUE","","33589","1466.4","53053","Pierce","{""53053"": 100}","Pierce","53053","FALSE","FALSE","America/Los_Angeles"
"98501","46.9783","-122.86989","Olympia","WA","Washington","TRUE","","46170","510.7","53067","Thurston","{""53067"": 100}","Thurston","53067","FALSE","FALSE","America/Los_Angeles"
"98502","47.08466","-123.02958","Olympia","WA","Washington","TRUE","","35954","218.9","53067","Thurston","{""53067"": 99.54, ""53045"": 0.46}","Thurston|Mason","53067|53045","FALSE","FALSE","America/Los_Angeles"
"98503","47.02528","-122.799","Lacey","WA","Washington","TRUE","","42023","1464.6","53067","Thurston","{""53067"": 100}","Thurston","53067","FALSE","FALSE","America/Los_Angeles"
"98505","47.07321","-122.97358","Olympia","WA","Washington","TRUE","","145","194.3","53067","Thurston","{""53067"": 100}","Thurston","53067","FALSE","FALSE","America/Los_Angeles"
"98506","47.10286","-122.87307","Olympia","WA","Washington","TRUE","","18232","313.7","53067","Thurston","{""53067"": 100}","Thurston","53067","FALSE","FALSE","America/Los_Angeles"
"98512","46.95326","-123.04259","Olympia","WA","Washington","TRUE","","30251","84.2","53067","Thurston","{""53067"": 100}","Thurston","53067","FALSE","FALSE","America/Los_Angeles"
"98513","46.99074","-122.73298","Olympia","WA","Washington","TRUE","","36117","279.6","53067","Thurston","{""53067"": 100}","Thurston","53067","FALSE","FALSE","America/Los_Angeles"
"98516","47.09647","-122.78265","Olympia","WA","Washington","TRUE","","26336","352.8","53067","Thurston","{""53067"": 100}","Thurston","53067","FALSE","FALSE","America/Los_Angeles"
"98520","46.99478","-123.81054","Aberdeen","WA","Washington","TRUE","","25064","44.5","53027","Grays Harbor","{""53027"": 100}","Grays Harbor","53027","FALSE","FALSE","America/Los_Angeles"
"98524","47.36703","-122.84548","Allyn","WA","Washington","TRUE","","4326","203.8","53045","Mason","{""53045"": 100}","Mason","53045","FALSE","FALSE","America/Los_Angeles"
"98526","47.47749","-123.99227","Amanda Park","WA","Washington","TRUE","","206","1.0","53027","Grays Harbor","{""53027"": 100}","Grays Harbor","53027","FALSE","FALSE","America/Los_Angeles"
"98527","46.58917","-123.90939","Bay Center","WA","Washington","TRUE","","237","9.4","53049","Pacific","{""53049"": 100}","Pacific","53049","FALSE","FALSE","America/Los_Angeles"
"98528","47.44605","-122.89618","Belfair","WA","Washington","TRUE","","13082","69.9","53045","Mason","{""53045"": 100}","Mason","53045","FALSE","FALSE","America/Los_Angeles"
"98530","46.80519","-122.86804","Bucoda","WA","Washington","TRUE","","551","79.1","53067","Thurston","{""53067"": 100}","Thurston","53067","FALSE","FALSE","America/Los_Angeles"
"98531","46.73646","-122.91364","Centralia","WA","Washington","TRUE","","26501","79.2","53041","Lewis","{""53041"": 78.96, ""53067"": 21.04}","Lewis|Thurston","53041|53067","FALSE","FALSE","America/Los_Angeles"
"98532","46.63628","-123.03444","Chehalis","WA","Washington","TRUE","","26100","32.3","53041","Lewis","{""53041"": 100}","Lewis","53041","FALSE","FALSE","America/Los_Angeles"
"98533","46.67304","-122.43115","Cinebar","WA","Washington","TRUE","","524","1.7","53041","Lewis","{""53041"": 100}","Lewis","53041","FALSE","FALSE","America/Los_Angeles"
"98535","47.0994","-124.11973","Copalis Beach","WA","Washington","TRUE","","598","11.5","53027","Grays Harbor","{""53027"": 100}","Grays Harbor","53027","FALSE","FALSE","America/Los_Angeles"
"98536","47.18939","-124.111","Copalis Crossing","WA","Washington","TRUE","","0","0.0","53027","Grays Harbor","{""53027"": 100}","Grays Harbor","53027","FALSE","FALSE","America/Los_Angeles"
"98537","46.81719","-123.59768","Cosmopolis","WA","Washington","TRUE","","2688","6.4","53027","Grays Harbor","{""53027"": 66.86, ""53049"": 33.14}","Grays Harbor|Pacific","53027|53049","FALSE","FALSE","America/Los_Angeles"
"98538","46.47422","-123.15884","Curtis","WA","Washington","TRUE","","417","1.4","53041","Lewis","{""53041"": 100}","Lewis","53041","FALSE","FALSE","America/Los_Angeles"
"98539","46.63772","-123.27315","Doty","WA","Washington","TRUE","","136","108.0","53041","Lewis","{""53041"": 100}","Lewis","53041","FALSE","FALSE","America/Los_Angeles"
"98541","47.06877","-123.40459","Elma","WA","Washington","TRUE","","10343","20.4","53027","Grays Harbor","{""53027"": 59.59, ""53045"": 40.41}","Grays Harbor|Mason","53027|53045","FALSE","FALSE","America/Los_Angeles"
"98542","46.5293","-122.73155","Ethel","WA","Washington","TRUE","","669","23.7","53041","Lewis","{""53041"": 100}","Lewis","53041","FALSE","FALSE","America/Los_Angeles"
"98544","46.73912","-123.02712","Galvin","WA","Washington","TRUE","","55","211.4","53041","Lewis","{""53041"": 100}","Lewis","53041","FALSE","FALSE","America/Los_Angeles"
"98546","47.32439","-122.92362","Grapeview","WA","Washington","TRUE","","2920","32.9","53045","Mason","{""53045"": 100}","Mason","53045","FALSE","FALSE","America/Los_Angeles"
"98547","46.78622","-124.01956","Grayland","WA","Washington","TRUE","","1317","8.3","53049","Pacific","{""53049"": 59.6, ""53027"": 40.4}","Pacific|Grays Harbor","53049|53027","FALSE","FALSE","America/Los_Angeles"
"98548","47.47064","-123.29273","Hoodsport","WA","Washington","TRUE","","2197","4.4","53045","Mason","{""53045"": 99.88, ""53027"": 0.12}","Mason|Grays Harbor","53045|53027","FALSE","FALSE","America/Los_Angeles"
"98550","47.14081","-123.90122","Hoquiam","WA","Washington","TRUE","","11691","17.0","53027","Grays Harbor","{""53027"": 100}","Grays Harbor","53027","FALSE","FALSE","America/Los_Angeles"
"98552","47.3136","-123.9444","Humptulips","WA","Washington","TRUE","","240","1.2","53027","Grays Harbor","{""53027"": 100}","Grays Harbor","53027","FALSE","FALSE","America/Los_Angeles"
"98555","47.54634","-123.06369","Lilliwaup","WA","Washington","TRUE","","350","5.1","53045","Mason","{""53045"": 100}","Mason","53045","FALSE","FALSE","America/Los_Angeles"
"98556","46.88565","-123.1409","Littlerock","WA","Washington","TRUE","","592","1914.4","53067","Thurston","{""53067"": 100}","Thurston","53067","FALSE","FALSE","America/Los_Angeles"
"98557","47.04332","-123.2681","Mccleary","WA","Washington","TRUE","","3650","39.7","53027","Grays Harbor","{""53027"": 97.89, ""53045"": 2.11}","Grays Harbor|Mason","53027|53045","FALSE","FALSE","America/Los_Angeles"
"98558","46.93579","-122.55998","Mckenna","WA","Washington","TRUE","","51","304.3","53053","Pierce","{""53053"": 98.83, ""53067"": 1.17}","Pierce|Thurston","53053|53067","FALSE","FALSE","America/Los_Angeles"
"98559","46.95884","-123.32749","Malone","WA","Washington","TRUE","","0","0.0","53027","Grays Harbor","{""53027"": 100}","Grays Harbor","53027","FALSE","FALSE","America/Los_Angeles"
"98560","47.30577","-123.43948","Matlock","WA","Washington","TRUE","","98","0.9","53045","Mason","{""53045"": 100}","Mason","53045","FALSE","FALSE","America/Los_Angeles"
"98562","47.23877","-124.20336","Moclips","WA","Washington","TRUE","","43","17.0","53027","Grays Harbor","{""53027"": 100}","Grays Harbor","53027","FALSE","FALSE","America/Los_Angeles"
"98563","47.2064","-123.60824","Montesano","WA","Washington","TRUE","","7636","7.1","53027","Grays Harbor","{""53027"": 99.9, ""53045"": 0.1}","Grays Harbor|Mason","53027|53045","FALSE","FALSE","America/Los_Angeles"
"98564","46.45666","-122.43627","Mossyrock","WA","Washington","TRUE","","2684","7.2","53041","Lewis","{""53041"": 100}","Lewis","53041","FALSE","FALSE","America/Los_Angeles"
"98565","46.57838","-122.90693","Napavine","WA","Washington","TRUE","","303","504.3","53041","Lewis","{""53041"": 100}","Lewis","53041","FALSE","FALSE","America/Los_Angeles"
"98566","47.39616","-123.95976","Neilton","WA","Washington","TRUE","","302","4.2","53027","Grays Harbor","{""53027"": 100}","Grays Harbor","53027","FALSE","FALSE","America/Los_Angeles"
"98568","46.86467","-123.30235","Oakville","WA","Washington","TRUE","","2549","5.8","53027","Grays Harbor","{""53027"": 91.04, ""53041"": 8.96}","Grays Harbor|Lewis","53027|53041","FALSE","FALSE","America/Los_Angeles"
"98569","47.00206","-124.15479","Ocean Shores","WA","Washington","TRUE","","6826","198.9","53027","Grays Harbor","{""53027"": 100}","Grays Harbor","53027","FALSE","FALSE","America/Los_Angeles"
"98570","46.63556","-122.63534","Onalaska","WA","Washington","TRUE","","4674","14.3","53041","Lewis","{""53041"": 100}","Lewis","53041","FALSE","FALSE","America/Los_Angeles"
"98571","47.20356","-124.19532","Pacific Beach","WA","Washington","TRUE","","77","7.7","53027","Grays Harbor","{""53027"": 100}","Grays Harbor","53027","FALSE","FALSE","America/Los_Angeles"
"98572","46.55256","-123.32429","Pe Ell","WA","Washington","TRUE","","884","9.8","53041","Lewis","{""53041"": 100}","Lewis","53041","FALSE","FALSE","America/Los_Angeles"
"98575","47.43607","-123.79848","Quinault","WA","Washington","TRUE","","117","0.7","53027","Grays Harbor","{""53027"": 100}","Grays Harbor","53027","FALSE","FALSE","America/Los_Angeles"
"98576","46.84417","-122.64687","Rainier","WA","Washington","TRUE","","5277","24.1","53067","Thurston","{""53067"": 100}","Thurston","53067","FALSE","FALSE","America/Los_Angeles"
"98577","46.6418","-123.60031","Raymond","WA","Washington","TRUE","","7121","7.6","53049","Pacific","{""53049"": 100}","Pacific","53049","FALSE","FALSE","America/Los_Angeles"
"98579","46.79406","-123.11952","Rochester","WA","Washington","TRUE","","13440","55.1","53067","Thurston","{""53067"": 59.23, ""53041"": 40.3, ""53027"": 0.47}","Thurston|Lewis|Grays Harbor","53067|53041|53027","FALSE","FALSE","America/Los_Angeles"
"98580","46.9918","-122.50101","Roy","WA","Washington","TRUE","","11358","33.7","53053","Pierce","{""53053"": 100}","Pierce","53053","FALSE","FALSE","America/Los_Angeles"
"98581","46.35875","-123.06865","Ryderwood","WA","Washington","TRUE","","402","5.3","53015","Cowlitz","{""53015"": 100}","Cowlitz","53015","FALSE","FALSE","America/Los_Angeles"
"98582","46.51686","-122.62693","Salkum","WA","Washington","TRUE","","177","11.7","53041","Lewis","{""53041"": 100}","Lewis","53041","FALSE","FALSE","America/Los_Angeles"
"98583","47.00122","-123.4875","Satsop","WA","Washington","TRUE","","120","447.1","53027","Grays Harbor","{""53027"": 100}","Grays Harbor","53027","FALSE","FALSE","America/Los_Angeles"
"98584","47.24608","-123.16209","Shelton","WA","Washington","TRUE","","37360","40.1","53045","Mason","{""53045"": 100}","Mason","53045","FALSE","FALSE","America/Los_Angeles"
"98585","46.55436","-122.5022","Silver Creek","WA","Washington","TRUE","","610","10.5","53041","Lewis","{""53041"": 100}","Lewis","53041","FALSE","FALSE","America/Los_Angeles"
"98586","46.55909","-123.8391","South Bend","WA","Washington","TRUE","","1863","5.6","53049","Pacific","{""53049"": 100}","Pacific","53049","FALSE","FALSE","America/Los_Angeles"
"98587","47.32039","-124.1562","Taholah","WA","Washington","TRUE","","810","5.4","53027","Grays Harbor","{""53027"": 100}","Grays Harbor","53027","FALSE","FALSE","America/Los_Angeles"
"98588","47.43555","-123.02261","Tahuya","WA","Washington","TRUE","","1490","12.8","53045","Mason","{""53045"": 100}","Mason","53045","FALSE","FALSE","America/Los_Angeles"
"98589","46.84133","-122.82087","Tenino","WA","Washington","TRUE","","7699","32.1","53067","Thurston","{""53067"": 100}","Thurston","53067","FALSE","FALSE","America/Los_Angeles"
"98590","46.71882","-124.00272","Tokeland","WA","Washington","TRUE","","539","68.8","53049","Pacific","{""53049"": 100}","Pacific","53049","FALSE","FALSE","America/Los_Angeles"
"98591","46.44224","-122.74671","Toledo","WA","Washington","TRUE","","3582","12.1","53041","Lewis","{""53041"": 100}","Lewis","53041","FALSE","FALSE","America/Los_Angeles"
"98592","47.32895","-123.07907","Union","WA","Washington","TRUE","","1543","33.7","53045","Mason","{""53045"": 100}","Mason","53045","FALSE","FALSE","America/Los_Angeles"
"98593","46.40767","-123.00807","Vader","WA","Washington","TRUE","","1247","33.6","53041","Lewis","{""53041"": 99.73, ""53015"": 0.27}","Lewis|Cowlitz","53041|53015","FALSE","FALSE","America/Los_Angeles"
"98595","46.88302","-124.1088","Westport","WA","Washington","TRUE","","2698","196.1","53027","Grays Harbor","{""53027"": 100}","Grays Harbor","53027","FALSE","FALSE","America/Los_Angeles"
"98596","46.49556","-122.95364","Winlock","WA","Washington","TRUE","","7856","34.2","53041","Lewis","{""53041"": 100}","Lewis","53041","FALSE","FALSE","America/Los_Angeles"
"98597","46.85241","-122.49212","Yelm","WA","Washington","TRUE","","26222","91.2","53067","Thurston","{""53067"": 100}","Thurston","53067","FALSE","FALSE","America/Los_Angeles"
"98601","45.93439","-122.43857","Amboy","WA","Washington","TRUE","","3237","40.2","53011","Clark","{""53011"": 91.1, ""53015"": 8.9}","Clark|Cowlitz","53011|53015","FALSE","FALSE","America/Los_Angeles"
"98602","45.8693","-121.27966","Appleton","WA","Washington","TRUE","","126","0.8","53039","Klickitat","{""53039"": 100}","Klickitat","53039","FALSE","FALSE","America/Los_Angeles"
"98603","46.04223","-122.42001","Ariel","WA","Washington","TRUE","","1307","4.4","53015","Cowlitz","{""53015"": 100}","Cowlitz","53015","FALSE","FALSE","America/Los_Angeles"
"98604","45.80013","-122.5054","Battle Ground","WA","Washington","TRUE","","37041","198.5","53011","Clark","{""53011"": 100}","Clark","53011","FALSE","FALSE","America/Los_Angeles"
"98605","45.77846","-121.6393","Bingen","WA","Washington","TRUE","","1245","12.1","53059","Skamania","{""53059"": 92.31, ""53039"": 7.69}","Skamania|Klickitat","53059|53039","FALSE","FALSE","America/Los_Angeles"
"98606","45.72921","-122.45615","Brush Prairie","WA","Washington","TRUE","","9551","97.1","53011","Clark","{""53011"": 100}","Clark","53011","FALSE","FALSE","America/Los_Angeles"
"98607","45.64395","-122.38242","Camas","WA","Washington","TRUE","","34674","281.1","53011","Clark","{""53011"": 100}","Clark","53011","FALSE","FALSE","America/Los_Angeles"
"98609","46.0717","-122.86569","Carrolls","WA","Washington","TRUE","","0","0.0","53015","Cowlitz","{""53015"": 100}","Cowlitz","53015","FALSE","FALSE","America/Los_Angeles"
"98610","45.77765","-122.01401","Carson","WA","Washington","TRUE","","2932","8.0","53059","Skamania","{""53059"": 100}","Skamania","53059","FALSE","FALSE","America/Los_Angeles"
"98611","46.30642","-122.90479","Castle Rock","WA","Washington","TRUE","","9478","26.9","53015","Cowlitz","{""53015"": 100}","Cowlitz","53015","FALSE","FALSE","America/Los_Angeles"
"98612","46.23462","-123.31194","Cathlamet","WA","Washington","TRUE","","3209","12.3","53069","Wahkiakum","{""53069"": 100}","Wahkiakum","53069","FALSE","FALSE","America/Los_Angeles"
"98613","45.7542","-120.97235","Centerville","WA","Washington","TRUE","","560","2.4","53039","Klickitat","{""53039"": 100}","Klickitat","53039","FALSE","FALSE","America/Los_Angeles"
"98614","46.29459","-123.9034","Chinook","WA","Washington","TRUE","","364","4.5","53049","Pacific","{""53049"": 100}","Pacific","53049","FALSE","FALSE","America/Los_Angeles"
"98616","46.06227","-122.14599","Cougar","WA","Washington","TRUE","","117","0.4","53059","Skamania","{""53059"": 95.73, ""53015"": 4.12, ""53011"": 0.15}","Skamania|Cowlitz|Clark","53059|53015|53011","FALSE","FALSE","America/Los_Angeles"
"98617","45.64283","-121.14229","Dallesport","WA","Washington","TRUE","","1100","24.6","53039","Klickitat","{""53039"": 100}","Klickitat","53039","FALSE","FALSE","America/Los_Angeles"
"98619","45.97693","-121.26568","Glenwood","WA","Washington","TRUE","","609","1.5","53039","Klickitat","{""53039"": 100}","Klickitat","53039","FALSE","FALSE","America/Los_Angeles"
"98620","45.87096","-120.77846","Goldendale","WA","Washington","TRUE","","7711","6.4","53039","Klickitat","{""53039"": 100}","Klickitat","53039","FALSE","FALSE","America/Los_Angeles"
"98621","46.4006","-123.54428","Grays River","WA","Washington","TRUE","","228","1.8","53049","Pacific","{""53049"": 58.05, ""53069"": 41.95}","Pacific|Wahkiakum","53049|53069","FALSE","FALSE","America/Los_Angeles"
"98623","45.79956","-121.49347","Husum","WA","Washington","TRUE","","42","42.1","53039","Klickitat","{""53039"": 100}","Klickitat","53039","FALSE","FALSE","America/Los_Angeles"
"98624","46.3578","-123.94094","Ilwaco","WA","Washington","TRUE","","1994","22.1","53049","Pacific","{""53049"": 100}","Pacific","53049","FALSE","FALSE","America/Los_Angeles"
"98625","46.10871","-122.56093","Kalama","WA","Washington","TRUE","","6397","12.7","53015","Cowlitz","{""53015"": 100}","Cowlitz","53015","FALSE","FALSE","America/Los_Angeles"
"98626","46.15317","-122.78564","Kelso","WA","Washington","TRUE","","26579","76.2","53015","Cowlitz","{""53015"": 100}","Cowlitz","53015","FALSE","FALSE","America/Los_Angeles"
"98628","45.85015","-121.09887","Klickitat","WA","Washington","TRUE","","306","11.1","53039","Klickitat","{""53039"": 100}","Klickitat","53039","FALSE","FALSE","America/Los_Angeles"
"98629","45.88109","-122.6148","La Center","WA","Washington","TRUE","","8872","90.6","53011","Clark","{""53011"": 100}","Clark","53011","FALSE","FALSE","America/Los_Angeles"
"98631","46.37988","-124.02241","Long Beach","WA","Washington","TRUE","","3458","58.8","53049","Pacific","{""53049"": 100}","Pacific","53049","FALSE","FALSE","America/Los_Angeles"
"98632","46.21223","-123.06855","Longview","WA","Washington","TRUE","","50944","162.0","53015","Cowlitz","{""53015"": 99.76, ""53069"": 0.24}","Cowlitz|Wahkiakum","53015|53069","FALSE","FALSE","America/Los_Angeles"
"98635","45.74364","-121.20915","Lyle","WA","Washington","TRUE","","1877","5.5","53039","Klickitat","{""53039"": 100}","Klickitat","53039","FALSE","FALSE","America/Los_Angeles"
"98638","46.4047","-123.73588","Naselle","WA","Washington","TRUE","","1560","3.5","53049","Pacific","{""53049"": 91.18, ""53069"": 8.82}","Pacific|Wahkiakum","53049|53069","FALSE","FALSE","America/Los_Angeles"
"98639","45.64364","-121.96288","North Bonneville","WA","Washington","TRUE","","1177","160.6","53059","Skamania","{""53059"": 100}","Skamania","53059","FALSE","FALSE","America/Los_Angeles"
"98640","46.5429","-124.04938","Ocean Park","WA","Washington","TRUE","","4694","128.7","53049","Pacific","{""53049"": 100}","Pacific","53049","FALSE","FALSE","America/Los_Angeles"
"98641","46.56484","-124.03932","Oysterville","WA","Washington","TRUE","","114","7.2","53049","Pacific","{""53049"": 100}","Pacific","53049","FALSE","FALSE","America/Los_Angeles"
"98642","45.80262","-122.7019","Ridgefield","WA","Washington","TRUE","","22934","155.8","53011","Clark","{""53011"": 100}","Clark","53011","FALSE","FALSE","America/Los_Angeles"
"98643","46.30326","-123.62117","Rosburg","WA","Washington","TRUE","","414","4.7","53069","Wahkiakum","{""53069"": 100}","Wahkiakum","53069","FALSE","FALSE","America/Los_Angeles"
"98644","46.32861","-124.04009","Seaview","WA","Washington","TRUE","","628","77.5","53049","Pacific","{""53049"": 100}","Pacific","53049","FALSE","FALSE","America/Los_Angeles"
"98645","46.32509","-122.77993","Silverlake","WA","Washington","TRUE","","2137","54.3","53015","Cowlitz","{""53015"": 100}","Cowlitz","53015","FALSE","FALSE","America/Los_Angeles"
"98647","46.32137","-123.4354","Skamokawa","WA","Washington","TRUE","","236","1.3","53069","Wahkiakum","{""53069"": 100}","Wahkiakum","53069","FALSE","FALSE","America/Los_Angeles"
"98648","45.70563","-121.9489","Stevenson","WA","Washington","TRUE","","3283","8.8","53059","Skamania","{""53059"": 100}","Skamania","53059","FALSE","FALSE","America/Los_Angeles"
"98649","46.31504","-122.53415","Toutle","WA","Washington","TRUE","","726","1.4","53015","Cowlitz","{""53015"": 100}","Cowlitz","53015","FALSE","FALSE","America/Los_Angeles"
"98650","45.97117","-121.52732","Trout Lake","WA","Washington","TRUE","","1133","5.2","53039","Klickitat","{""53039"": 100}","Klickitat","53039","FALSE","FALSE","America/Los_Angeles"
"98651","45.73419","-121.58718","Underwood","WA","Washington","TRUE","","1035","30.1","53059","Skamania","{""53059"": 100}","Skamania","53059","FALSE","FALSE","America/Los_Angeles"
"98660","45.6866","-122.73152","Vancouver","WA","Washington","TRUE","","12917","326.8","53011","Clark","{""53011"": 100}","Clark","53011","FALSE","FALSE","America/Los_Angeles"
"98661","45.63935","-122.62586","Vancouver","WA","Washington","TRUE","","49822","1764.7","53011","Clark","{""53011"": 100}","Clark","53011","FALSE","FALSE","America/Los_Angeles"
"98662","45.68911","-122.57742","Vancouver","WA","Washington","TRUE","","36573","1088.8","53011","Clark","{""53011"": 100}","Clark","53011","FALSE","FALSE","America/Los_Angeles"
"98663","45.65449","-122.66228","Vancouver","WA","Washington","TRUE","","15263","1431.1","53011","Clark","{""53011"": 100}","Clark","53011","FALSE","FALSE","America/Los_Angeles"
"98664","45.61966","-122.57738","Vancouver","WA","Washington","TRUE","","23141","1725.3","53011","Clark","{""53011"": 100}","Clark","53011","FALSE","FALSE","America/Los_Angeles"
"98665","45.68155","-122.65417","Vancouver","WA","Washington","TRUE","","27175","1422.5","53011","Clark","{""53011"": 100}","Clark","53011","FALSE","FALSE","America/Los_Angeles"
"98670","45.86372","-121.14599","Wahkiacus","WA","Washington","TRUE","","48","0.8","53039","Klickitat","{""53039"": 100}","Klickitat","53039","FALSE","FALSE","America/Los_Angeles"
"98671","45.61143","-122.24955","Washougal","WA","Washington","TRUE","","23782","113.2","53011","Clark","{""53011"": 50.26, ""53059"": 49.74}","Clark|Skamania","53011|53059","FALSE","FALSE","America/Los_Angeles"
"98672","45.81269","-121.47393","White Salmon","WA","Washington","TRUE","","7062","19.6","53039","Klickitat","{""53039"": 95.7, ""53059"": 4.3}","Klickitat|Skamania","53039|53059","FALSE","FALSE","America/Los_Angeles"
"98673","45.67367","-120.98129","Wishram","WA","Washington","TRUE","","489","11.1","53039","Klickitat","{""53039"": 100}","Klickitat","53039","FALSE","FALSE","America/Los_Angeles"
"98674","45.94672","-122.65568","Woodland","WA","Washington","TRUE","","15426","68.9","53015","Cowlitz","{""53015"": 62.61, ""53011"": 37.39}","Cowlitz|Clark","53015|53011","FALSE","FALSE","America/Los_Angeles"
"98675","45.86349","-122.33104","Yacolt","WA","Washington","TRUE","","7083","17.6","53011","Clark","{""53011"": 100}","Clark","53011","FALSE","FALSE","America/Los_Angeles"
"98682","45.67296","-122.48327","Vancouver","WA","Washington","TRUE","","66229","896.8","53011","Clark","{""53011"": 100}","Clark","53011","FALSE","FALSE","America/Los_Angeles"
"98683","45.6027","-122.50984","Vancouver","WA","Washington","TRUE","","31969","1701.0","53011","Clark","{""53011"": 100}","Clark","53011","FALSE","FALSE","America/Los_Angeles"
"98684","45.6308","-122.51615","Vancouver","WA","Washington","TRUE","","34394","1874.6","53011","Clark","{""53011"": 100}","Clark","53011","FALSE","FALSE","America/Los_Angeles"
"98685","45.71596","-122.69105","Vancouver","WA","Washington","TRUE","","30199","1139.8","53011","Clark","{""53011"": 100}","Clark","53011","FALSE","FALSE","America/Los_Angeles"
"98686","45.7239","-122.62305","Vancouver","WA","Washington","TRUE","","20547","680.8","53011","Clark","{""53011"": 100}","Clark","53011","FALSE","FALSE","America/Los_Angeles"
"98801","47.43183","-120.34356","Wenatchee","WA","Washington","TRUE","","44861","112.8","53007","Chelan","{""53007"": 100}","Chelan","53007","FALSE","FALSE","America/Los_Angeles"
"98802","47.49308","-120.16493","East Wenatchee","WA","Washington","TRUE","","31480","67.4","53017","Douglas","{""53017"": 100}","Douglas","53017","FALSE","FALSE","America/Los_Angeles"
"98811","47.73425","-120.37379","Ardenvoir","WA","Washington","TRUE","","120","91.6","53007","Chelan","{""53007"": 100}","Chelan","53007","FALSE","FALSE","America/Los_Angeles"
"98812","48.13119","-119.80687","Brewster","WA","Washington","TRUE","","5403","10.8","53047","Okanogan","{""53047"": 74.94, ""53017"": 25.06}","Okanogan|Douglas","53047|53017","FALSE","FALSE","America/Los_Angeles"
"98813","48.01107","-119.61063","Bridgeport","WA","Washington","TRUE","","2642","10.2","53017","Douglas","{""53017"": 76.94, ""53047"": 23.06}","Douglas|Okanogan","53017|53047","FALSE","FALSE","America/Los_Angeles"
"98814","48.21001","-120.22884","Carlton","WA","Washington","TRUE","","690","1.8","53047","Okanogan","{""53047"": 100}","Okanogan","53047","FALSE","FALSE","America/Los_Angeles"
"98815","47.52893","-120.48459","Cashmere","WA","Washington","TRUE","","7451","29.6","53007","Chelan","{""53007"": 100}","Chelan","53007","FALSE","FALSE","America/Los_Angeles"
"98816","48.0229","-120.34361","Chelan","WA","Washington","TRUE","","6219","4.9","53007","Chelan","{""53007"": 98.63, ""53047"": 1.37}","Chelan|Okanogan","53007|53047","FALSE","FALSE","America/Los_Angeles"
"98817","47.79049","-119.99588","Chelan Falls","WA","Washington","TRUE","","131","54.7","53007","Chelan","{""53007"": 100}","Chelan","53007","FALSE","FALSE","America/Los_Angeles"
"98819","48.59797","-119.82327","Conconully","WA","Washington","TRUE","","190","0.5","53047","Okanogan","{""53047"": 100}","Okanogan","53047","FALSE","FALSE","America/Los_Angeles"
"98821","47.55199","-120.56155","Dryden","WA","Washington","TRUE","","1131","330.7","53007","Chelan","{""53007"": 100}","Chelan","53007","FALSE","FALSE","America/Los_Angeles"
"98822","47.86509","-120.47694","Entiat","WA","Washington","TRUE","","1831","1.6","53007","Chelan","{""53007"": 100}","Chelan","53007","FALSE","FALSE","America/Los_Angeles"
"98823","47.33853","-119.63536","Ephrata","WA","Washington","TRUE","","12514","16.2","53025","Grant","{""53025"": 73.22, ""53017"": 26.78}","Grant|Douglas","53025|53017","FALSE","FALSE","America/Los_Angeles"
"98824","47.06857","-119.86653","George","WA","Washington","TRUE","","161","65.1","53025","Grant","{""53025"": 100}","Grant","53025","FALSE","FALSE","America/Los_Angeles"
"98826","47.78772","-120.85454","Leavenworth","WA","Washington","TRUE","","7505","2.9","53007","Chelan","{""53007"": 100}","Chelan","53007","FALSE","FALSE","America/Los_Angeles"
"98827","48.86359","-119.76726","Loomis","WA","Washington","TRUE","","339","0.4","53047","Okanogan","{""53047"": 100}","Okanogan","53047","FALSE","FALSE","America/Los_Angeles"
"98828","47.30741","-120.1833","Malaga","WA","Washington","TRUE","","2002","12.6","53007","Chelan","{""53007"": 91.37, ""53037"": 8.63}","Chelan|Kittitas","53007|53037","FALSE","FALSE","America/Los_Angeles"
"98829","48.31103","-119.80822","Malott","WA","Washington","TRUE","","647","3.5","53047","Okanogan","{""53047"": 100}","Okanogan","53047","FALSE","FALSE","America/Los_Angeles"
"98830","47.88702","-119.52278","Mansfield","WA","Washington","TRUE","","482","0.5","53017","Douglas","{""53017"": 100}","Douglas","53017","FALSE","FALSE","America/Los_Angeles"
"98831","47.93451","-120.12998","Manson","WA","Washington","TRUE","","3691","30.3","53007","Chelan","{""53007"": 100}","Chelan","53007","FALSE","FALSE","America/Los_Angeles"
"98832","47.34669","-119.02033","Marlin","WA","Washington","TRUE","","155","0.3","53025","Grant","{""53025"": 69.47, ""53043"": 29.5, ""53001"": 1.03}","Grant|Lincoln|Adams","53025|53043|53001","FALSE","FALSE","America/Los_Angeles"
"98833","48.77199","-120.49447","Mazama","WA","Washington","TRUE","","149","0.1","53047","Okanogan","{""53047"": 100}","Okanogan","53047","FALSE","FALSE","America/Los_Angeles"
"98834","48.11712","-120.08935","Methow","WA","Washington","TRUE","","278","1.4","53047","Okanogan","{""53047"": 100}","Okanogan","53047","FALSE","FALSE","America/Los_Angeles"
"98836","47.47615","-120.42909","Monitor","WA","Washington","TRUE","","796","42.9","53007","Chelan","{""53007"": 100}","Chelan","53007","FALSE","FALSE","America/Los_Angeles"
"98837","47.14809","-119.3163","Moses Lake","WA","Washington","TRUE","","45729","36.3","53025","Grant","{""53025"": 100}","Grant","53025","FALSE","FALSE","America/Los_Angeles"
"98840","48.27395","-119.51838","Okanogan","WA","Washington","TRUE","","4895","3.5","53047","Okanogan","{""53047"": 100}","Okanogan","53047","FALSE","FALSE","America/Los_Angeles"
"98841","48.37602","-119.29817","Omak","WA","Washington","TRUE","","9135","11.9","53047","Okanogan","{""53047"": 100}","Okanogan","53047","FALSE","FALSE","America/Los_Angeles"
"98843","47.73688","-120.08618","Orondo","WA","Washington","TRUE","","2066","11.9","53017","Douglas","{""53017"": 100}","Douglas","53017","FALSE","FALSE","America/Los_Angeles"
"98844","48.91618","-119.24767","Oroville","WA","Washington","TRUE","","4736","5.5","53047","Okanogan","{""53047"": 100}","Okanogan","53047","FALSE","FALSE","America/Los_Angeles"
"98845","47.43039","-119.90923","Palisades","WA","Washington","TRUE","","270","1.7","53017","Douglas","{""53017"": 100}","Douglas","53017","FALSE","FALSE","America/Los_Angeles"
"98846","48.03481","-119.97528","Pateros","WA","Washington","TRUE","","1277","5.8","53047","Okanogan","{""53047"": 95.43, ""53007"": 4.57}","Okanogan|Chelan","53047|53007","FALSE","FALSE","America/Los_Angeles"
"98847","47.42236","-120.62152","Peshastin","WA","Washington","TRUE","","2780","5.8","53007","Chelan","{""53007"": 100}","Chelan","53007","FALSE","FALSE","America/Los_Angeles"
"98848","47.17182","-119.84109","Quincy","WA","Washington","TRUE","","12782","10.8","53025","Grant","{""53025"": 97.72, ""53017"": 2.28}","Grant|Douglas","53025|53017","FALSE","FALSE","America/Los_Angeles"
"98849","48.54821","-119.40789","Riverside","WA","Washington","TRUE","","1164","2.6","53047","Okanogan","{""53047"": 100}","Okanogan","53047","FALSE","FALSE","America/Los_Angeles"
"98850","47.40048","-120.03459","Rock Island","WA","Washington","TRUE","","1924","9.7","53017","Douglas","{""53017"": 100}","Douglas","53017","FALSE","FALSE","America/Los_Angeles"
"98851","47.42002","-119.43462","Soap Lake","WA","Washington","TRUE","","5212","13.8","53025","Grant","{""53025"": 100}","Grant","53025","FALSE","FALSE","America/Los_Angeles"
"98852","48.32169","-120.63881","Stehekin","WA","Washington","TRUE","","20","0.1","53007","Chelan","{""53007"": 100}","Chelan","53007","FALSE","FALSE","America/Los_Angeles"
"98853","47.44655","-119.28061","Stratford","WA","Washington","TRUE","","116","2.2","53025","Grant","{""53025"": 100}","Grant","53025","FALSE","FALSE","America/Los_Angeles"
"98855","48.67641","-119.25634","Tonasket","WA","Washington","TRUE","","5870","3.6","53047","Okanogan","{""53047"": 100}","Okanogan","53047","FALSE","FALSE","America/Los_Angeles"
"98856","48.37065","-120.22762","Twisp","WA","Washington","TRUE","","2595","2.3","53047","Okanogan","{""53047"": 100}","Okanogan","53047","FALSE","FALSE","America/Los_Angeles"
"98857","46.98656","-119.03698","Warden","WA","Washington","TRUE","","3431","7.9","53025","Grant","{""53025"": 68.99, ""53001"": 31.01}","Grant|Adams","53025|53001","FALSE","FALSE","America/Los_Angeles"
"98858","47.67938","-119.87974","Waterville","WA","Washington","TRUE","","1747","1.8","53017","Douglas","{""53017"": 100}","Douglas","53017","FALSE","FALSE","America/Los_Angeles"
"98859","48.81181","-118.90871","Wauconda","WA","Washington","TRUE","","78","0.2","53047","Okanogan","{""53047"": 100}","Okanogan","53047","FALSE","FALSE","America/Los_Angeles"
"98860","47.46899","-119.12391","Wilson Creek","WA","Washington","TRUE","","257","1.0","53025","Grant","{""53025"": 100}","Grant","53025","FALSE","FALSE","America/Los_Angeles"
"98862","48.58491","-120.22792","Winthrop","WA","Washington","TRUE","","2546","2.1","53047","Okanogan","{""53047"": 100}","Okanogan","53047","FALSE","FALSE","America/Los_Angeles"
"98901","46.66935","-120.33816","Yakima","WA","Washington","TRUE","","31873","66.7","53077","Yakima","{""53077"": 91.24, ""53037"": 8.76}","Yakima|Kittitas","53077|53037","FALSE","FALSE","America/Los_Angeles"
"98902","46.59778","-120.53393","Yakima","WA","Washington","TRUE","","45913","1904.9","53077","Yakima","{""53077"": 100}","Yakima","53077","FALSE","FALSE","America/Los_Angeles"
"98903","46.54807","-120.90226","Yakima","WA","Washington","TRUE","","17577","35.3","53077","Yakima","{""53077"": 100}","Yakima","53077","FALSE","FALSE","America/Los_Angeles"
