"zip","lat","lng","city","state_id","state_name","zcta","parent_zcta","population","density","county_fips","county_name","county_weights","county_names_all","county_fips_all","imprecise","military","timezone"
"75058","33.4473","-96.73546","Gunter","TX","Texas","TRUE","","3369","24.2","48181","Grayson","{""48181"": 100}","Grayson","48181","FALSE","FALSE","America/Chicago"
"75060","32.79774","-96.95295","Irving","TX","Texas","TRUE","","49473","1580.4","48113","Dallas","{""48113"": 100}","Dallas","48113","FALSE","FALSE","America/Chicago"
"75061","32.82607","-96.96563","Irving","TX","Texas","TRUE","","56959","1893.9","48113","Dallas","{""48113"": 100}","Dallas","48113","FALSE","FALSE","America/Chicago"
"75062","32.847","-96.95813","Irving","TX","Texas","TRUE","","51846","1890.0","48113","Dallas","{""48113"": 100}","Dallas","48113","FALSE","FALSE","America/Chicago"
"75063","32.90797","-96.9961","Irving","TX","Texas","TRUE","","43705","834.2","48113","Dallas","{""48113"": 100}","Dallas","48113","FALSE","FALSE","America/Chicago"
"75065","33.11108","-97.01277","Lake Dallas","TX","Texas","TRUE","","12549","585.9","48121","Denton","{""48121"": 100}","Denton","48121","FALSE","FALSE","America/Chicago"
"75067","33.01416","-97.00268","Lewisville","TX","Texas","TRUE","","67837","1941.5","48121","Denton","{""48121"": 96.18, ""48113"": 3.82}","Denton|Dallas","48121|48113","FALSE","FALSE","America/Chicago"
"75068","33.17713","-96.95228","Little Elm","TX","Texas","TRUE","","65880","912.8","48121","Denton","{""48121"": 100}","Denton","48121","FALSE","FALSE","America/Chicago"
"75069","33.16805","-96.59671","Mckinney","TX","Texas","TRUE","","37479","429.7","48085","Collin","{""48085"": 100}","Collin","48085","FALSE","FALSE","America/Chicago"
"75070","33.15587","-96.69742","Mckinney","TX","Texas","TRUE","","54444","1863.1","48085","Collin","{""48085"": 100}","Collin","48085","FALSE","FALSE","America/Chicago"
"75071","33.24558","-96.62951","Mckinney","TX","Texas","TRUE","","63828","332.4","48085","Collin","{""48085"": 100}","Collin","48085","FALSE","FALSE","America/Chicago"
"75072","33.1875","-96.70099","Mckinney","TX","Texas","TRUE","","54446","1743.3","48085","Collin","{""48085"": 100}","Collin","48085","FALSE","FALSE","America/Chicago"
"75074","33.03298","-96.67304","Plano","TX","Texas","TRUE","","51820","1252.6","48085","Collin","{""48085"": 100}","Collin","48085","FALSE","FALSE","America/Chicago"
"75075","33.02163","-96.74043","Plano","TX","Texas","TRUE","","36221","1441.7","48085","Collin","{""48085"": 100}","Collin","48085","FALSE","FALSE","America/Chicago"
"75076","33.79608","-96.71913","Pottsboro","TX","Texas","TRUE","","8592","65.9","48181","Grayson","{""48181"": 100}","Grayson","48181","FALSE","FALSE","America/Chicago"
"75077","33.07921","-97.06401","Lewisville","TX","Texas","TRUE","","39125","1071.7","48121","Denton","{""48121"": 100}","Denton","48121","FALSE","FALSE","America/Chicago"
"75078","33.24526","-96.80791","Prosper","TX","Texas","TRUE","","35939","439.5","48085","Collin","{""48085"": 70.28, ""48121"": 29.72}","Collin|Denton","48085|48121","FALSE","FALSE","America/Chicago"
"75080","32.97382","-96.7416","Richardson","TX","Texas","TRUE","","52420","1789.2","48113","Dallas","{""48113"": 70.89, ""48085"": 29.11}","Dallas|Collin","48113|48085","FALSE","FALSE","America/Chicago"
"75081","32.94969","-96.70899","Richardson","TX","Texas","TRUE","","36683","1571.4","48113","Dallas","{""48113"": 100}","Dallas","48113","FALSE","FALSE","America/Chicago"
"75082","32.99208","-96.66536","Richardson","TX","Texas","TRUE","","26801","1262.1","48085","Collin","{""48085"": 84.56, ""48113"": 15.44}","Collin|Dallas","48085|48113","FALSE","FALSE","America/Chicago"
"75087","32.94581","-96.44136","Rockwall","TX","Texas","TRUE","","39202","514.0","48397","Rockwall","{""48397"": 94.57, ""48085"": 5.43}","Rockwall|Collin","48397|48085","FALSE","FALSE","America/Chicago"
"75088","32.89368","-96.53929","Rowlett","TX","Texas","TRUE","","26363","1097.3","48113","Dallas","{""48113"": 72.14, ""48397"": 27.86}","Dallas|Rockwall","48113|48397","FALSE","FALSE","America/Chicago"
"75089","32.93195","-96.54435","Rowlett","TX","Texas","TRUE","","35203","1123.1","48113","Dallas","{""48113"": 86.17, ""48397"": 13.83}","Dallas|Rockwall","48113|48397","FALSE","FALSE","America/Chicago"
"75090","33.6054","-96.54657","Sherman","TX","Texas","TRUE","","24866","122.2","48181","Grayson","{""48181"": 100}","Grayson","48181","FALSE","FALSE","America/Chicago"
"75092","33.64869","-96.70011","Sherman","TX","Texas","TRUE","","26794","90.8","48181","Grayson","{""48181"": 100}","Grayson","48181","FALSE","FALSE","America/Chicago"
"75093","33.03521","-96.80943","Plano","TX","Texas","TRUE","","46868","1267.0","48085","Collin","{""48085"": 90.27, ""48121"": 9.73}","Collin|Denton","48085|48121","FALSE","FALSE","America/Chicago"
"75094","33.01871","-96.61481","Plano","TX","Texas","TRUE","","23345","1257.6","48085","Collin","{""48085"": 100}","Collin","48085","FALSE","FALSE","America/Chicago"
"75098","33.01432","-96.53531","Wylie","TX","Texas","TRUE","","64326","775.9","48085","Collin","{""48085"": 82.66, ""48397"": 8.8, ""48113"": 8.54}","Collin|Rockwall|Dallas","48085|48397|48113","FALSE","FALSE","America/Chicago"
"75101","32.27003","-96.70239","Bardwell","TX","Texas","TRUE","","679","317.2","48139","Ellis","{""48139"": 100}","Ellis","48139","FALSE","FALSE","America/Chicago"
"75102","32.08274","-96.63999","Barry","TX","Texas","TRUE","","1795","10.0","48349","Navarro","{""48349"": 100}","Navarro","48349","FALSE","FALSE","America/Chicago"
"75103","32.51201","-95.88363","Canton","TX","Texas","TRUE","","15900","31.2","48467","Van Zandt","{""48467"": 100}","Van Zandt","48467","FALSE","FALSE","America/Chicago"
"75104","32.58295","-96.96712","Cedar Hill","TX","Texas","TRUE","","49566","518.6","48113","Dallas","{""48113"": 94.22, ""48139"": 5.78}","Dallas|Ellis","48113|48139","FALSE","FALSE","America/Chicago"
"75105","32.26717","-96.36682","Chatfield","TX","Texas","TRUE","","207","2.0","48349","Navarro","{""48349"": 100}","Navarro","48349","FALSE","FALSE","America/Chicago"
"75109","32.04246","-96.35622","Corsicana","TX","Texas","TRUE","","4288","13.8","48349","Navarro","{""48349"": 100}","Navarro","48349","FALSE","FALSE","America/Chicago"
"75110","32.08071","-96.52344","Corsicana","TX","Texas","TRUE","","30555","85.8","48349","Navarro","{""48349"": 100}","Navarro","48349","FALSE","FALSE","America/Chicago"
"75114","32.60769","-96.44322","Crandall","TX","Texas","TRUE","","6438","57.8","48257","Kaufman","{""48257"": 100}","Kaufman","48257","FALSE","FALSE","America/Chicago"
"75115","32.59831","-96.86433","Desoto","TX","Texas","TRUE","","55879","1025.0","48113","Dallas","{""48113"": 100}","Dallas","48113","FALSE","FALSE","America/Chicago"
"75116","32.66013","-96.91402","Duncanville","TX","Texas","TRUE","","21105","1597.2","48113","Dallas","{""48113"": 100}","Dallas","48113","FALSE","FALSE","America/Chicago"
"75117","32.71005","-95.85268","Edgewood","TX","Texas","TRUE","","4753","37.1","48467","Van Zandt","{""48467"": 100}","Van Zandt","48467","FALSE","FALSE","America/Chicago"
"75119","32.32293","-96.59107","Ennis","TX","Texas","TRUE","","28765","42.0","48139","Ellis","{""48139"": 94.48, ""48349"": 5.52}","Ellis|Navarro","48139|48349","FALSE","FALSE","America/Chicago"
"75124","32.32579","-95.96932","Eustace","TX","Texas","TRUE","","5205","22.5","48213","Henderson","{""48213"": 73.19, ""48467"": 26.81}","Henderson|Van Zandt","48213|48467","FALSE","FALSE","America/Chicago"
"75125","32.52983","-96.61563","Ferris","TX","Texas","TRUE","","7198","36.9","48139","Ellis","{""48139"": 71.42, ""48113"": 28.58}","Ellis|Dallas","48139|48113","FALSE","FALSE","America/Chicago"
"75126","32.74361","-96.45289","Forney","TX","Texas","TRUE","","60232","284.9","48257","Kaufman","{""48257"": 97.32, ""48397"": 2.68}","Kaufman|Rockwall","48257|48397","FALSE","FALSE","America/Chicago"
"75127","32.6926","-95.79262","Fruitvale","TX","Texas","TRUE","","1854","26.8","48467","Van Zandt","{""48467"": 100}","Van Zandt","48467","FALSE","FALSE","America/Chicago"
"75132","32.93865","-96.38046","Fate","TX","Texas","TRUE","","0","0.0","48397","Rockwall","{""48397"": 100}","Rockwall","48397","FALSE","FALSE","America/Chicago"
"75134","32.62308","-96.78007","Lancaster","TX","Texas","TRUE","","19341","704.6","48113","Dallas","{""48113"": 100}","Dallas","48113","FALSE","FALSE","America/Chicago"
"75135","33.06666","-96.22567","Caddo Mills","TX","Texas","TRUE","","8075","47.4","48231","Hunt","{""48231"": 100}","Hunt","48231","FALSE","FALSE","America/Chicago"
"75137","32.63421","-96.91224","Duncanville","TX","Texas","TRUE","","19352","1244.1","48113","Dallas","{""48113"": 100}","Dallas","48113","FALSE","FALSE","America/Chicago"
"75140","32.64485","-95.68854","Grand Saline","TX","Texas","TRUE","","7365","24.5","48467","Van Zandt","{""48467"": 98.16, ""48423"": 1.84}","Van Zandt|Smith","48467|48423","FALSE","FALSE","America/Chicago"
"75141","32.63984","-96.69257","Hutchins","TX","Texas","TRUE","","3868","127.8","48113","Dallas","{""48113"": 100}","Dallas","48113","FALSE","FALSE","America/Chicago"
"75142","32.57004","-96.24637","Kaufman","TX","Texas","TRUE","","22870","48.7","48257","Kaufman","{""48257"": 100}","Kaufman","48257","FALSE","FALSE","America/Chicago"
"75143","32.36334","-96.24929","Kemp","TX","Texas","TRUE","","15270","32.4","48257","Kaufman","{""48257"": 54.15, ""48213"": 45.85}","Kaufman|Henderson","48257|48213","FALSE","FALSE","America/Chicago"
"75144","32.11157","-96.20954","Kerens","TX","Texas","TRUE","","4030","9.0","48349","Navarro","{""48349"": 100}","Navarro","48349","FALSE","FALSE","America/Chicago"
"75146","32.57608","-96.75137","Lancaster","TX","Texas","TRUE","","24873","276.8","48113","Dallas","{""48113"": 99.42, ""48139"": 0.58}","Dallas|Ellis","48113|48139","FALSE","FALSE","America/Chicago"
"75147","32.42256","-96.06517","Mabank","TX","Texas","TRUE","","6922","31.0","48467","Van Zandt","{""48467"": 53.96, ""48257"": 41.84, ""48213"": 4.2}","Van Zandt|Kaufman|Henderson","48467|48257|48213","FALSE","FALSE","America/Chicago"
"75148","32.12491","-96.01173","Malakoff","TX","Texas","TRUE","","6237","27.1","48213","Henderson","{""48213"": 100}","Henderson","48213","FALSE","FALSE","America/Chicago"
"75149","32.76994","-96.6151","Mesquite","TX","Texas","TRUE","","59225","1427.0","48113","Dallas","{""48113"": 100}","Dallas","48113","FALSE","FALSE","America/Chicago"
"75150","32.81545","-96.6308","Mesquite","TX","Texas","TRUE","","64817","1992.5","48113","Dallas","{""48113"": 100}","Dallas","48113","FALSE","FALSE","America/Chicago"
"75152","32.43598","-96.67444","Palmer","TX","Texas","TRUE","","5686","53.4","48139","Ellis","{""48139"": 100}","Ellis","48139","FALSE","FALSE","America/Chicago"
"75153","32.17149","-96.35331","Powell","TX","Texas","TRUE","","515","8.1","48349","Navarro","{""48349"": 100}","Navarro","48349","FALSE","FALSE","America/Chicago"
"75154","32.52319","-96.80885","Red Oak","TX","Texas","TRUE","","47111","380.4","48139","Ellis","{""48139"": 87.53, ""48113"": 12.47}","Ellis|Dallas","48139|48113","FALSE","FALSE","America/Chicago"
"75155","32.2232","-96.46906","Rice","TX","Texas","TRUE","","3167","29.6","48349","Navarro","{""48349"": 100}","Navarro","48349","FALSE","FALSE","America/Chicago"
"75156","32.28759","-96.09999","Mabank","TX","Texas","TRUE","","16500","198.6","48213","Henderson","{""48213"": 100}","Henderson","48213","FALSE","FALSE","America/Chicago"
"75157","32.46168","-96.44914","Rosser","TX","Texas","TRUE","","209","60.0","48257","Kaufman","{""48257"": 100}","Kaufman","48257","FALSE","FALSE","America/Chicago"
"75158","32.46694","-96.39315","Scurry","TX","Texas","TRUE","","5496","24.6","48257","Kaufman","{""48257"": 100}","Kaufman","48257","FALSE","FALSE","America/Chicago"
"75159","32.60652","-96.53939","Seagoville","TX","Texas","TRUE","","22514","146.6","48113","Dallas","{""48113"": 63.46, ""48257"": 36.54}","Dallas|Kaufman","48113|48257","FALSE","FALSE","America/Chicago"
"75160","32.76466","-96.29835","Terrell","TX","Texas","TRUE","","24465","79.9","48257","Kaufman","{""48257"": 82.87, ""48231"": 17.13}","Kaufman|Hunt","48257|48231","FALSE","FALSE","America/Chicago"
"75161","32.73609","-96.17129","Terrell","TX","Texas","TRUE","","8040","27.6","48257","Kaufman","{""48257"": 100}","Kaufman","48257","FALSE","FALSE","America/Chicago"
"75163","32.1672","-96.10999","Trinidad","TX","Texas","TRUE","","2450","27.9","48213","Henderson","{""48213"": 100}","Henderson","48213","FALSE","FALSE","America/Chicago"
"75164","33.06963","-96.3041","Josephine","TX","Texas","TRUE","","281","108.8","48085","Collin","{""48085"": 100}","Collin","48085","FALSE","FALSE","America/Chicago"
"75165","32.36687","-96.79677","Waxahachie","TX","Texas","TRUE","","47183","154.4","48139","Ellis","{""48139"": 100}","Ellis","48139","FALSE","FALSE","America/Chicago"
"75166","33.01671","-96.4495","Lavon","TX","Texas","TRUE","","5589","166.9","48085","Collin","{""48085"": 100}","Collin","48085","FALSE","FALSE","America/Chicago"
"75167","32.36123","-96.91547","Waxahachie","TX","Texas","TRUE","","12332","49.7","48139","Ellis","{""48139"": 100}","Ellis","48139","FALSE","FALSE","America/Chicago"
"75169","32.70335","-95.99754","Wills Point","TX","Texas","TRUE","","14496","26.1","48467","Van Zandt","{""48467"": 86.32, ""48257"": 8.7, ""48231"": 4.98}","Van Zandt|Kaufman|Hunt","48467|48257|48231","FALSE","FALSE","America/Chicago"
"75172","32.60369","-96.67458","Wilmer","TX","Texas","TRUE","","5248","179.2","48113","Dallas","{""48113"": 100}","Dallas","48113","FALSE","FALSE","America/Chicago"
"75173","33.05986","-96.38673","Nevada","TX","Texas","TRUE","","8298","98.0","48085","Collin","{""48085"": 100}","Collin","48085","FALSE","FALSE","America/Chicago"
"75180","32.71937","-96.61841","Balch Springs","TX","Texas","TRUE","","26560","1319.0","48113","Dallas","{""48113"": 100}","Dallas","48113","FALSE","FALSE","America/Chicago"
"75181","32.72696","-96.555","Mesquite","TX","Texas","TRUE","","27336","609.0","48113","Dallas","{""48113"": 100}","Dallas","48113","FALSE","FALSE","America/Chicago"
"75182","32.80033","-96.55425","Sunnyvale","TX","Texas","TRUE","","7647","166.1","48113","Dallas","{""48113"": 100}","Dallas","48113","FALSE","FALSE","America/Chicago"
"75189","32.94821","-96.30941","Royse City","TX","Texas","TRUE","","35243","123.9","48397","Rockwall","{""48397"": 42.33, ""48231"": 38.22, ""48085"": 19.45}","Rockwall|Hunt|Collin","48397|48231|48085","FALSE","FALSE","America/Chicago"
"75201","32.78826","-96.79953","Dallas","TX","Texas","TRUE","","17491","4907.2","48113","Dallas","{""48113"": 100}","Dallas","48113","FALSE","FALSE","America/Chicago"
"75202","32.77843","-96.8037","Dallas","TX","Texas","TRUE","","2212","1277.7","48113","Dallas","{""48113"": 100}","Dallas","48113","FALSE","FALSE","America/Chicago"
"75203","32.74439","-96.80206","Dallas","TX","Texas","TRUE","","16455","1326.7","48113","Dallas","{""48113"": 100}","Dallas","48113","FALSE","FALSE","America/Chicago"
"75204","32.80216","-96.78885","Dallas","TX","Texas","TRUE","","31860","4806.7","48113","Dallas","{""48113"": 100}","Dallas","48113","FALSE","FALSE","America/Chicago"
"75205","32.83657","-96.79617","Dallas","TX","Texas","TRUE","","24804","2191.5","48113","Dallas","{""48113"": 100}","Dallas","48113","FALSE","FALSE","America/Chicago"
"75206","32.83161","-96.77032","Dallas","TX","Texas","TRUE","","38209","3483.4","48113","Dallas","{""48113"": 100}","Dallas","48113","FALSE","FALSE","America/Chicago"
"75207","32.78693","-96.82181","Dallas","TX","Texas","TRUE","","8163","816.7","48113","Dallas","{""48113"": 100}","Dallas","48113","FALSE","FALSE","America/Chicago"
"75208","32.75409","-96.83943","Dallas","TX","Texas","TRUE","","29941","1889.3","48113","Dallas","{""48113"": 100}","Dallas","48113","FALSE","FALSE","America/Chicago"
"75209","32.8487","-96.8257","Dallas","TX","Texas","TRUE","","14205","1567.0","48113","Dallas","{""48113"": 100}","Dallas","48113","FALSE","FALSE","America/Chicago"
"75210","32.77141","-96.74618","Dallas","TX","Texas","TRUE","","9270","1566.1","48113","Dallas","{""48113"": 100}","Dallas","48113","FALSE","FALSE","America/Chicago"
"75211","32.73649","-96.90214","Dallas","TX","Texas","TRUE","","75213","1689.5","48113","Dallas","{""48113"": 100}","Dallas","48113","FALSE","FALSE","America/Chicago"
"75212","32.78203","-96.87853","Dallas","TX","Texas","TRUE","","26673","1032.9","48113","Dallas","{""48113"": 100}","Dallas","48113","FALSE","FALSE","America/Chicago"
"75214","32.82899","-96.74348","Dallas","TX","Texas","TRUE","","33621","1776.6","48113","Dallas","{""48113"": 100}","Dallas","48113","FALSE","FALSE","America/Chicago"
"75215","32.75259","-96.76075","Dallas","TX","Texas","TRUE","","17960","906.0","48113","Dallas","{""48113"": 100}","Dallas","48113","FALSE","FALSE","America/Chicago"
"75216","32.71158","-96.78256","Dallas","TX","Texas","TRUE","","55108","1434.1","48113","Dallas","{""48113"": 100}","Dallas","48113","FALSE","FALSE","America/Chicago"
"75217","32.71291","-96.68243","Dallas","TX","Texas","TRUE","","87767","1220.8","48113","Dallas","{""48113"": 100}","Dallas","48113","FALSE","FALSE","America/Chicago"
"75218","32.84136","-96.70357","Dallas","TX","Texas","TRUE","","21355","1195.2","48113","Dallas","{""48113"": 100}","Dallas","48113","FALSE","FALSE","America/Chicago"
"75219","32.81087","-96.81315","Dallas","TX","Texas","TRUE","","24100","4064.8","48113","Dallas","{""48113"": 100}","Dallas","48113","FALSE","FALSE","America/Chicago"
"75220","32.86692","-96.87571","Dallas","TX","Texas","TRUE","","40671","1388.0","48113","Dallas","{""48113"": 100}","Dallas","48113","FALSE","FALSE","America/Chicago"
"75223","32.79255","-96.74556","Dallas","TX","Texas","TRUE","","14270","1777.6","48113","Dallas","{""48113"": 100}","Dallas","48113","FALSE","FALSE","America/Chicago"
"75224","32.71117","-96.83953","Dallas","TX","Texas","TRUE","","36373","2446.4","48113","Dallas","{""48113"": 100}","Dallas","48113","FALSE","FALSE","America/Chicago"
"75225","32.86511","-96.79109","Dallas","TX","Texas","TRUE","","21703","1795.8","48113","Dallas","{""48113"": 100}","Dallas","48113","FALSE","FALSE","America/Chicago"
"75226","32.78315","-96.77654","Dallas","TX","Texas","TRUE","","5133","1839.4","48113","Dallas","{""48113"": 100}","Dallas","48113","FALSE","FALSE","America/Chicago"
"75227","32.77044","-96.68831","Dallas","TX","Texas","TRUE","","58395","1950.4","48113","Dallas","{""48113"": 100}","Dallas","48113","FALSE","FALSE","America/Chicago"
"75228","32.82456","-96.6805","Dallas","TX","Texas","TRUE","","71450","2411.7","48113","Dallas","{""48113"": 100}","Dallas","48113","FALSE","FALSE","America/Chicago"
"75229","32.8939","-96.86517","Dallas","TX","Texas","TRUE","","32924","1021.4","48113","Dallas","{""48113"": 100}","Dallas","48113","FALSE","FALSE","America/Chicago"
"75230","32.90202","-96.79226","Dallas","TX","Texas","TRUE","","26335","1425.0","48113","Dallas","{""48113"": 100}","Dallas","48113","FALSE","FALSE","America/Chicago"
"75231","32.87695","-96.74967","Dallas","TX","Texas","TRUE","","38823","2718.8","48113","Dallas","{""48113"": 100}","Dallas","48113","FALSE","FALSE","America/Chicago"
"75232","32.65878","-96.83968","Dallas","TX","Texas","TRUE","","33561","1468.3","48113","Dallas","{""48113"": 100}","Dallas","48113","FALSE","FALSE","America/Chicago"
"75233","32.70444","-96.87271","Dallas","TX","Texas","TRUE","","16743","1810.7","48113","Dallas","{""48113"": 100}","Dallas","48113","FALSE","FALSE","America/Chicago"
"75234","32.92423","-96.88904","Dallas","TX","Texas","TRUE","","32728","1233.0","48113","Dallas","{""48113"": 100}","Dallas","48113","FALSE","FALSE","America/Chicago"
"75235","32.83219","-96.84798","Dallas","TX","Texas","TRUE","","19042","1104.2","48113","Dallas","{""48113"": 100}","Dallas","48113","FALSE","FALSE","America/Chicago"
"75236","32.6866","-96.93455","Dallas","TX","Texas","TRUE","","17545","507.5","48113","Dallas","{""48113"": 100}","Dallas","48113","FALSE","FALSE","America/Chicago"
"75237","32.66489","-96.87238","Dallas","TX","Texas","TRUE","","18823","1090.3","48113","Dallas","{""48113"": 100}","Dallas","48113","FALSE","FALSE","America/Chicago"
"75238","32.87855","-96.70785","Dallas","TX","Texas","TRUE","","31953","1874.4","48113","Dallas","{""48113"": 100}","Dallas","48113","FALSE","FALSE","America/Chicago"
"75240","32.93194","-96.78924","Dallas","TX","Texas","TRUE","","26442","2701.9","48113","Dallas","{""48113"": 100}","Dallas","48113","FALSE","FALSE","America/Chicago"
"75241","32.667","-96.75903","Dallas","TX","Texas","TRUE","","31749","485.2","48113","Dallas","{""48113"": 100}","Dallas","48113","FALSE","FALSE","America/Chicago"
"75243","32.91232","-96.73633","Dallas","TX","Texas","TRUE","","65118","2730.0","48113","Dallas","{""48113"": 100}","Dallas","48113","FALSE","FALSE","America/Chicago"
"75244","32.92544","-96.83671","Dallas","TX","Texas","TRUE","","12806","1070.2","48113","Dallas","{""48113"": 100}","Dallas","48113","FALSE","FALSE","America/Chicago"
"75246","32.79296","-96.77322","Dallas","TX","Texas","TRUE","","2307","1910.2","48113","Dallas","{""48113"": 100}","Dallas","48113","FALSE","FALSE","America/Chicago"
"75247","32.81417","-96.87803","Dallas","TX","Texas","TRUE","","870","50.7","48113","Dallas","{""48113"": 100}","Dallas","48113","FALSE","FALSE","America/Chicago"
"75248","32.96957","-96.79542","Dallas","TX","Texas","TRUE","","36317","1888.7","48113","Dallas","{""48113"": 99.41, ""48085"": 0.59}","Dallas|Collin","48113|48085","FALSE","FALSE","America/Chicago"
"75249","32.6449","-96.96257","Dallas","TX","Texas","TRUE","","17629","1239.0","48113","Dallas","{""48113"": 100}","Dallas","48113","FALSE","FALSE","America/Chicago"
"75251","32.91984","-96.77308","Dallas","TX","Texas","TRUE","","3804","2470.7","48113","Dallas","{""48113"": 100}","Dallas","48113","FALSE","FALSE","America/Chicago"
"75252","32.99696","-96.78983","Dallas","TX","Texas","TRUE","","27310","2054.9","48085","Collin","{""48085"": 92.3, ""48113"": 7.7}","Collin|Dallas","48085|48113","FALSE","FALSE","America/Chicago"
"75253","32.67278","-96.61171","Dallas","TX","Texas","TRUE","","24090","622.5","48113","Dallas","{""48113"": 100}","Dallas","48113","FALSE","FALSE","America/Chicago"
"75254","32.94571","-96.80127","Dallas","TX","Texas","TRUE","","24047","2861.3","48113","Dallas","{""48113"": 100}","Dallas","48113","FALSE","FALSE","America/Chicago"
"75261","32.88568","-97.05419","Dallas","TX","Texas","TRUE","","0","0.0","48439","Tarrant","{""48439"": 100}","Tarrant","48439","FALSE","FALSE","America/Chicago"
"75270","32.78126","-96.80192","Dallas","TX","Texas","TRUE","","0","0.0","48113","Dallas","{""48113"": 100}","Dallas","48113","FALSE","FALSE","America/Chicago"
"75287","33.00015","-96.84075","Dallas","TX","Texas","TRUE","","51855","3615.6","48085","Collin","{""48085"": 58.42, ""48121"": 41.3, ""48113"": 0.28}","Collin|Denton|Dallas","48085|48121|48113","FALSE","FALSE","America/Chicago"
"75390","32.814","-96.84283","Dallas","TX","Texas","TRUE","","0","0.0","48113","Dallas","{""48113"": 100}","Dallas","48113","FALSE","FALSE","America/Chicago"
"75401","33.18506","-96.11556","Greenville","TX","Texas","TRUE","","21087","75.3","48231","Hunt","{""48231"": 100}","Hunt","48231","FALSE","FALSE","America/Chicago"
"75402","33.06724","-96.08576","Greenville","TX","Texas","TRUE","","18412","78.3","48231","Hunt","{""48231"": 100}","Hunt","48231","FALSE","FALSE","America/Chicago"
"75407","33.1512","-96.48808","Princeton","TX","Texas","TRUE","","24864","192.2","48085","Collin","{""48085"": 100}","Collin","48085","FALSE","FALSE","America/Chicago"
"75409","33.35223","-96.52808","Anna","TX","Texas","TRUE","","20437","100.8","48085","Collin","{""48085"": 100}","Collin","48085","FALSE","FALSE","America/Chicago"
"75410","32.7921","-95.63705","Alba","TX","Texas","TRUE","","4470","20.1","48499","Wood","{""48499"": 55.98, ""48379"": 44.02}","Wood|Rains","48499|48379","FALSE","FALSE","America/Chicago"
"75411","33.86275","-95.63955","Arthur City","TX","Texas","TRUE","","832","4.0","48277","Lamar","{""48277"": 100}","Lamar","48277","FALSE","FALSE","America/Chicago"
"75412","33.80295","-95.14232","Bagwell","TX","Texas","TRUE","","562","1.7","48387","Red River","{""48387"": 100}","Red River","48387","FALSE","FALSE","America/Chicago"
"75413","33.43596","-96.16477","Bailey","TX","Texas","TRUE","","188","287.4","48147","Fannin","{""48147"": 100}","Fannin","48147","FALSE","FALSE","America/Chicago"
"75414","33.62504","-96.43193","Bells","TX","Texas","TRUE","","2989","23.3","48181","Grayson","{""48181"": 99.88, ""48147"": 0.12}","Grayson|Fannin","48181|48147","FALSE","FALSE","America/Chicago"
"75415","33.4645","-95.74603","Ben Franklin","TX","Texas","TRUE","","317","6.7","48119","Delta","{""48119"": 100}","Delta","48119","FALSE","FALSE","America/Chicago"
"75416","33.67255","-95.35431","Blossom","TX","Texas","TRUE","","2890","14.6","48277","Lamar","{""48277"": 98.83, ""48387"": 1.17}","Lamar|Red River","48277|48387","FALSE","FALSE","America/Chicago"
"75417","33.43827","-95.13114","Bogata","TX","Texas","TRUE","","2479","5.9","48387","Red River","{""48387"": 100}","Red River","48387","FALSE","FALSE","America/Chicago"
"75418","33.57235","-96.1773","Bonham","TX","Texas","TRUE","","14726","40.4","48147","Fannin","{""48147"": 100}","Fannin","48147","FALSE","FALSE","America/Chicago"
"75420","33.05782","-95.72503","Brashear","TX","Texas","TRUE","","1384","15.2","48223","Hopkins","{""48223"": 99.1, ""48379"": 0.9}","Hopkins|Rains","48223|48379","FALSE","FALSE","America/Chicago"
"75421","33.6448","-95.71809","Brookston","TX","Texas","TRUE","","851","6.1","48277","Lamar","{""48277"": 100}","Lamar","48277","FALSE","FALSE","America/Chicago"
"75422","33.13889","-95.93059","Campbell","TX","Texas","TRUE","","2862","16.3","48231","Hunt","{""48231"": 100}","Hunt","48231","FALSE","FALSE","America/Chicago"
"75423","33.29279","-96.19918","Celeste","TX","Texas","TRUE","","3055","14.6","48231","Hunt","{""48231"": 94.22, ""48147"": 5.78}","Hunt|Fannin","48231|48147","FALSE","FALSE","America/Chicago"
"75424","33.30535","-96.39059","Blue Ridge","TX","Texas","TRUE","","3679","22.3","48085","Collin","{""48085"": 91.96, ""48147"": 8.04}","Collin|Fannin","48085|48147","FALSE","FALSE","America/Chicago"
"75426","33.65608","-95.01093","Clarksville","TX","Texas","TRUE","","3774","4.5","48387","Red River","{""48387"": 100}","Red River","48387","FALSE","FALSE","America/Chicago"
"75428","33.27132","-95.91799","Commerce","TX","Texas","TRUE","","11000","45.7","48231","Hunt","{""48231"": 83.26, ""48119"": 16.74}","Hunt|Delta","48231|48119","FALSE","FALSE","America/Chicago"
"75429","33.27847","-95.89231","Commerce","TX","Texas","TRUE","","0","0.0","48231","Hunt","{""48231"": 100}","Hunt","48231","FALSE","FALSE","America/Chicago"
"75431","33.0073","-95.4628","Como","TX","Texas","TRUE","","1745","10.5","48223","Hopkins","{""48223"": 76.47, ""48499"": 23.53}","Hopkins|Wood","48223|48499","FALSE","FALSE","America/Chicago"
"75432","33.38912","-95.66804","Cooper","TX","Texas","TRUE","","3055","11.4","48119","Delta","{""48119"": 100}","Delta","48119","FALSE","FALSE","America/Chicago"
"75433","33.10883","-95.80571","Cumby","TX","Texas","TRUE","","3145","12.4","48223","Hopkins","{""48223"": 98.08, ""48231"": 1.92}","Hopkins|Hunt","48223|48231","FALSE","FALSE","America/Chicago"
"75434","33.41258","-95.35171","Cunningham","TX","Texas","TRUE","","0","0.0","48277","Lamar","{""48277"": 100}","Lamar","48277","FALSE","FALSE","America/Chicago"
"75435","33.50175","-95.29522","Deport","TX","Texas","TRUE","","1137","7.5","48277","Lamar","{""48277"": 54.39, ""48387"": 45.61}","Lamar|Red River","48277|48387","FALSE","FALSE","America/Chicago"
"75436","33.73507","-95.24904","Detroit","TX","Texas","TRUE","","2155","4.5","48387","Red River","{""48387"": 93.63, ""48277"": 6.37}","Red River|Lamar","48387|48277","FALSE","FALSE","America/Chicago"
"75437","33.25605","-95.46567","Dike","TX","Texas","TRUE","","1094","7.0","48223","Hopkins","{""48223"": 100}","Hopkins","48223","FALSE","FALSE","America/Chicago"
"75438","33.60701","-96.07462","Dodd City","TX","Texas","TRUE","","953","9.7","48147","Fannin","{""48147"": 100}","Fannin","48147","FALSE","FALSE","America/Chicago"
"75439","33.55261","-96.27796","Ector","TX","Texas","TRUE","","1141","29.7","48147","Fannin","{""48147"": 100}","Fannin","48147","FALSE","FALSE","America/Chicago"
"75440","32.87507","-95.75262","Emory","TX","Texas","TRUE","","6665","25.2","48379","Rains","{""48379"": 97.7, ""48223"": 1.6, ""48499"": 0.7}","Rains|Hopkins|Wood","48379|48223|48499","FALSE","FALSE","America/Chicago"
"75441","33.4296","-95.65456","Enloe","TX","Texas","TRUE","","134","8.6","48119","Delta","{""48119"": 100}","Delta","48119","FALSE","FALSE","America/Chicago"
"75442","33.17717","-96.35035","Farmersville","TX","Texas","TRUE","","10453","37.5","48085","Collin","{""48085"": 84.75, ""48231"": 15.25}","Collin|Hunt","48085|48231","FALSE","FALSE","America/Chicago"
"75446","33.61385","-95.89177","Honey Grove","TX","Texas","TRUE","","3536","7.6","48147","Fannin","{""48147"": 75.26, ""48277"": 24.74}","Fannin|Lamar","48147|48277","FALSE","FALSE","America/Chicago"
"75447","33.765","-96.11966","Ivanhoe","TX","Texas","TRUE","","1067","7.8","48147","Fannin","{""48147"": 100}","Fannin","48147","FALSE","FALSE","America/Chicago"
"75448","33.31478","-95.79681","Klondike","TX","Texas","TRUE","","919","13.7","48119","Delta","{""48119"": 100}","Delta","48119","FALSE","FALSE","America/Chicago"
"75449","33.423","-95.9493","Ladonia","TX","Texas","TRUE","","1165","5.8","48147","Fannin","{""48147"": 69.38, ""48231"": 30.62}","Fannin|Hunt","48147|48231","FALSE","FALSE","America/Chicago"
"75450","33.40465","-95.47481","Lake Creek","TX","Texas","TRUE","","309","2.1","48119","Delta","{""48119"": 100}","Delta","48119","FALSE","FALSE","America/Chicago"
"75451","32.96247","-95.11835","Leesburg","TX","Texas","TRUE","","1475","14.5","48063","Camp","{""48063"": 88.35, ""48499"": 8.51, ""48459"": 3.14}","Camp|Wood|Upshur","48063|48499|48459","FALSE","FALSE","America/Chicago"
"75452","33.39284","-96.24469","Leonard","TX","Texas","TRUE","","4688","23.6","48147","Fannin","{""48147"": 79.65, ""48231"": 15.24, ""48085"": 5.11}","Fannin|Hunt|Collin","48147|48231|48085","FALSE","FALSE","America/Chicago"
"75453","33.00025","-95.92817","Lone Oak","TX","Texas","TRUE","","2757","13.6","48231","Hunt","{""48231"": 74.91, ""48379"": 15.35, ""48223"": 9.74}","Hunt|Rains|Hopkins","48231|48379|48223","FALSE","FALSE","America/Chicago"
"75454","33.283","-96.56073","Melissa","TX","Texas","TRUE","","15341","276.8","48085","Collin","{""48085"": 100}","Collin","48085","FALSE","FALSE","America/Chicago"
"75455","33.21725","-94.98022","Mount Pleasant","TX","Texas","TRUE","","26687","33.6","48449","Titus","{""48449"": 96.32, ""48159"": 3.68}","Titus|Franklin","48449|48159","FALSE","FALSE","America/Chicago"
"75457","33.1746","-95.21125","Mount Vernon","TX","Texas","TRUE","","6228","18.8","48159","Franklin","{""48159"": 100}","Franklin","48159","FALSE","FALSE","America/Chicago"
"75459","33.52988","-96.6831","Howe","TX","Texas","TRUE","","5709","26.9","48181","Grayson","{""48181"": 100}","Grayson","48181","FALSE","FALSE","America/Chicago"
"75460","33.6627","-95.60296","Paris","TX","Texas","TRUE","","24287","92.1","48277","Lamar","{""48277"": 100}","Lamar","48277","FALSE","FALSE","America/Chicago"
"75462","33.62166","-95.48362","Paris","TX","Texas","TRUE","","11232","22.5","48277","Lamar","{""48277"": 100}","Lamar","48277","FALSE","FALSE","America/Chicago"
"75468","33.51175","-95.40747","Pattonville","TX","Texas","TRUE","","1068","8.1","48277","Lamar","{""48277"": 100}","Lamar","48277","FALSE","FALSE","America/Chicago"
"75469","33.41269","-95.8248","Pecan Gap","TX","Texas","TRUE","","346","3.7","48119","Delta","{""48119"": 85.82, ""48231"": 14.18}","Delta|Hunt","48119|48231","FALSE","FALSE","America/Chicago"
"75470","33.58341","-95.79836","Petty","TX","Texas","TRUE","","202","5.3","48277","Lamar","{""48277"": 100}","Lamar","48277","FALSE","FALSE","America/Chicago"
"75471","33.04431","-95.38883","Pickton","TX","Texas","TRUE","","1932","14.9","48223","Hopkins","{""48223"": 94.6, ""48499"": 5.4}","Hopkins|Wood","48223|48499","FALSE","FALSE","America/Chicago"
"75472","32.89177","-95.87239","Point","TX","Texas","TRUE","","4405","22.6","48379","Rains","{""48379"": 99.06, ""48223"": 0.94}","Rains|Hopkins","48379|48223","FALSE","FALSE","America/Chicago"
"75473","33.81461","-95.48433","Powderly","TX","Texas","TRUE","","3773","21.1","48277","Lamar","{""48277"": 100}","Lamar","48277","FALSE","FALSE","America/Chicago"
"75474","32.91709","-96.10611","Quinlan","TX","Texas","TRUE","","16394","60.1","48231","Hunt","{""48231"": 96.28, ""48257"": 3.72}","Hunt|Kaufman","48231|48257","FALSE","FALSE","America/Chicago"
"75475","33.48593","-96.25757","Randolph","TX","Texas","TRUE","","31","26.5","48147","Fannin","{""48147"": 100}","Fannin","48147","FALSE","FALSE","America/Chicago"
"75476","33.70793","-96.24342","Ravenna","TX","Texas","TRUE","","1072","8.2","48147","Fannin","{""48147"": 100}","Fannin","48147","FALSE","FALSE","America/Chicago"
"75477","33.53118","-95.73429","Roxton","TX","Texas","TRUE","","1100","7.2","48277","Lamar","{""48277"": 100}","Lamar","48277","FALSE","FALSE","America/Chicago"
"75478","33.17276","-95.35226","Saltillo","TX","Texas","TRUE","","825","5.6","48223","Hopkins","{""48223"": 91.57, ""48159"": 8.43}","Hopkins|Franklin","48223|48159","FALSE","FALSE","America/Chicago"
"75479","33.63007","-96.3386","Savoy","TX","Texas","TRUE","","2122","17.5","48147","Fannin","{""48147"": 97.06, ""48181"": 2.94}","Fannin|Grayson","48147|48181","FALSE","FALSE","America/Chicago"
"75480","33.02129","-95.19159","Scroggins","TX","Texas","TRUE","","1786","23.2","48159","Franklin","{""48159"": 97.35, ""48499"": 2.65}","Franklin|Wood","48159|48499","FALSE","FALSE","America/Chicago"
"75481","33.31751","-95.37485","Sulphur Bluff","TX","Texas","TRUE","","401","2.2","48223","Hopkins","{""48223"": 92.61, ""48159"": 7.39}","Hopkins|Franklin","48223|48159","FALSE","FALSE","America/Chicago"
"75482","33.16929","-95.60946","Sulphur Springs","TX","Texas","TRUE","","25220","31.1","48223","Hopkins","{""48223"": 100}","Hopkins","48223","FALSE","FALSE","America/Chicago"
"75486","33.75757","-95.74663","Sumner","TX","Texas","TRUE","","2442","8.6","48277","Lamar","{""48277"": 100}","Lamar","48277","FALSE","FALSE","America/Chicago"
"75487","33.33584","-95.16567","Talco","TX","Texas","TRUE","","1534","6.0","48159","Franklin","{""48159"": 66.4, ""48449"": 33.6}","Franklin|Titus","48159|48449","FALSE","FALSE","America/Chicago"
"75488","33.77628","-95.98899","Telephone","TX","Texas","TRUE","","798","2.6","48147","Fannin","{""48147"": 100}","Fannin","48147","FALSE","FALSE","America/Chicago"
"75489","33.5204","-96.48467","Tom Bean","TX","Texas","TRUE","","939","150.7","48181","Grayson","{""48181"": 100}","Grayson","48181","FALSE","FALSE","America/Chicago"
"75490","33.4363","-96.30771","Trenton","TX","Texas","TRUE","","2891","34.0","48147","Fannin","{""48147"": 96.78, ""48181"": 3.22}","Fannin|Grayson","48147|48181","FALSE","FALSE","America/Chicago"
"75491","33.49741","-96.39485","Whitewright","TX","Texas","TRUE","","4914","19.2","48181","Grayson","{""48181"": 58.43, ""48147"": 40.95, ""48085"": 0.62}","Grayson|Fannin|Collin","48181|48147|48085","FALSE","FALSE","America/Chicago"
"75492","33.59139","-96.0004","Windom","TX","Texas","TRUE","","341","2.7","48147","Fannin","{""48147"": 100}","Fannin","48147","FALSE","FALSE","America/Chicago"
"75493","33.14073","-95.11316","Winfield","TX","Texas","TRUE","","720","70.5","48449","Titus","{""48449"": 100}","Titus","48449","FALSE","FALSE","America/Chicago"
"75494","32.90898","-95.26126","Winnsboro","TX","Texas","TRUE","","10785","18.1","48499","Wood","{""48499"": 69.33, ""48159"": 17.5, ""48223"": 10.12, ""48459"": 3.05}","Wood|Franklin|Hopkins|Upshur","48499|48159|48223|48459","FALSE","FALSE","America/Chicago"
"75495","33.43246","-96.55041","Van Alstyne","TX","Texas","TRUE","","9208","52.5","48181","Grayson","{""48181"": 94.46, ""48085"": 5.54}","Grayson|Collin","48181|48085","FALSE","FALSE","America/Chicago"
"75496","33.36276","-96.06616","Wolfe City","TX","Texas","TRUE","","3578","11.8","48231","Hunt","{""48231"": 59.08, ""48147"": 40.92}","Hunt|Fannin","48231|48147","FALSE","FALSE","America/Chicago"
"75497","32.92098","-95.5764","Yantis","TX","Texas","TRUE","","3623","22.3","48499","Wood","{""48499"": 80.43, ""48223"": 19.4, ""48379"": 0.17}","Wood|Hopkins|Rains","48499|48223|48379","FALSE","FALSE","America/Chicago"
"75501","33.37413","-94.13168","Texarkana","TX","Texas","TRUE","","35111","140.8","48037","Bowie","{""48037"": 100}","Bowie","48037","FALSE","FALSE","America/Chicago"
"75503","33.51345","-94.13038","Texarkana","TX","Texas","TRUE","","27361","134.6","48037","Bowie","{""48037"": 100}","Bowie","48037","FALSE","FALSE","America/Chicago"
"75550","33.49966","-94.88454","Annona","TX","Texas","TRUE","","876","3.7","48387","Red River","{""48387"": 100}","Red River","48387","FALSE","FALSE","America/Chicago"
"75551","33.11648","-94.20325","Atlanta","TX","Texas","TRUE","","11040","26.4","48067","Cass","{""48067"": 100}","Cass","48067","FALSE","FALSE","America/Chicago"
"75554","33.58534","-94.78563","Avery","TX","Texas","TRUE","","2078","5.5","48387","Red River","{""48387"": 81.06, ""48037"": 18.94}","Red River|Bowie","48387|48037","FALSE","FALSE","America/Chicago"
"75555","32.94564","-94.13696","Bivins","TX","Texas","TRUE","","1424","4.6","48067","Cass","{""48067"": 91.2, ""48315"": 8.8}","Cass|Marion","48067|48315","FALSE","FALSE","America/Chicago"
"75556","33.1512","-94.06263","Bloomburg","TX","Texas","TRUE","","1162","18.9","48067","Cass","{""48067"": 99.37, ""05091"": 0.63}","Cass|Miller","48067|05091","FALSE","FALSE","America/Chicago"
"75558","33.25017","-94.85564","Cookville","TX","Texas","TRUE","","1958","18.7","48449","Titus","{""48449"": 99.04, ""48343"": 0.96}","Titus|Morris","48449|48343","FALSE","FALSE","America/Chicago"
"75559","33.49929","-94.63931","De Kalb","TX","Texas","TRUE","","5392","7.1","48037","Bowie","{""48037"": 91.92, ""48387"": 8.08}","Bowie|Red River","48037|48387","FALSE","FALSE","America/Chicago"
"75560","33.1957","-94.36699","Douglassville","TX","Texas","TRUE","","1071","5.9","48067","Cass","{""48067"": 100}","Cass","48067","FALSE","FALSE","America/Chicago"
"75561","33.517","-94.27855","Hooks","TX","Texas","TRUE","","4626","38.5","48037","Bowie","{""48037"": 100}","Bowie","48037","FALSE","FALSE","America/Chicago"
"75562","32.93588","-94.25302","Kildare","TX","Texas","TRUE","","80","2.9","48067","Cass","{""48067"": 100}","Cass","48067","FALSE","FALSE","America/Chicago"
"75563","33.01835","-94.38871","Linden","TX","Texas","TRUE","","3816","9.2","48067","Cass","{""48067"": 100}","Cass","48067","FALSE","FALSE","America/Chicago"
"75564","32.88784","-94.24962","Lodi","TX","Texas","TRUE","","0","0.0","48067","Cass","{""48067"": 100}","Cass","48067","FALSE","FALSE","America/Chicago"
"75565","32.95202","-94.07527","McLeod","TX","Texas","TRUE","","207","68.0","48067","Cass","{""48067"": 100}","Cass","48067","FALSE","FALSE","America/Chicago"
"75566","33.15256","-94.49018","Marietta","TX","Texas","TRUE","","631","5.2","48067","Cass","{""48067"": 100}","Cass","48067","FALSE","FALSE","America/Chicago"
"75567","33.31688","-94.31935","Maud","TX","Texas","TRUE","","4087","21.2","48037","Bowie","{""48037"": 100}","Bowie","48037","FALSE","FALSE","America/Chicago"
"75568","33.19607","-94.59362","Naples","TX","Texas","TRUE","","2873","8.5","48067","Cass","{""48067"": 73.75, ""48343"": 26.25}","Cass|Morris","48067|48343","FALSE","FALSE","America/Chicago"
"75569","33.44127","-94.12292","Nash","TX","Texas","TRUE","","3478","574.8","48037","Bowie","{""48037"": 100}","Bowie","48037","FALSE","FALSE","America/Chicago"
"75570","33.4649","-94.4389","New Boston","TX","Texas","TRUE","","11162","32.4","48037","Bowie","{""48037"": 100}","Bowie","48037","FALSE","FALSE","America/Chicago"
"75571","33.20704","-94.76407","Omaha","TX","Texas","TRUE","","2367","8.0","48343","Morris","{""48343"": 92.33, ""48449"": 7.67}","Morris|Titus","48343|48449","FALSE","FALSE","America/Chicago"
"75572","33.23114","-94.12934","Queen City","TX","Texas","TRUE","","3474","18.1","48067","Cass","{""48067"": 100}","Cass","48067","FALSE","FALSE","America/Chicago"
"75573","33.34214","-94.22454","Redwater","TX","Texas","TRUE","","218","12.2","48037","Bowie","{""48037"": 100}","Bowie","48037","FALSE","FALSE","America/Chicago"
"75574","33.32892","-94.55229","Simms","TX","Texas","TRUE","","1157","4.4","48037","Bowie","{""48037"": 100}","Bowie","48037","FALSE","FALSE","America/Chicago"
"75601","32.5086","-94.72414","Longview","TX","Texas","TRUE","","15683","663.8","48183","Gregg","{""48183"": 77.9, ""48203"": 22.1}","Gregg|Harrison","48183|48203","FALSE","FALSE","America/Chicago"
"75602","32.45803","-94.65712","Longview","TX","Texas","TRUE","","21024","156.5","48203","Harrison","{""48203"": 81.47, ""48183"": 18.53}","Harrison|Gregg","48203|48183","FALSE","FALSE","America/Chicago"
"75603","32.40448","-94.71754","Longview","TX","Texas","TRUE","","6733","49.0","48183","Gregg","{""48183"": 87.47, ""48401"": 12.53}","Gregg|Rusk","48183|48401","FALSE","FALSE","America/Chicago"
"75604","32.51374","-94.82919","Longview","TX","Texas","TRUE","","30349","265.5","48183","Gregg","{""48183"": 97.93, ""48459"": 2.07}","Gregg|Upshur","48183|48459","FALSE","FALSE","America/Chicago"
"75605","32.58385","-94.71554","Longview","TX","Texas","TRUE","","33730","162.2","48183","Gregg","{""48183"": 58.32, ""48203"": 40.7, ""48459"": 0.98}","Gregg|Harrison|Upshur","48183|48203|48459","FALSE","FALSE","America/Chicago"
"75630","32.87588","-94.5572","Avinger","TX","Texas","TRUE","","2306","8.3","48067","Cass","{""48067"": 50.82, ""48315"": 49.18}","Cass|Marion","48067|48315","FALSE","FALSE","America/Chicago"
"75631","32.25343","-94.44957","Beckville","TX","Texas","TRUE","","2696","8.8","48365","Panola","{""48365"": 100}","Panola","48365","FALSE","FALSE","America/Chicago"
"75633","32.12788","-94.28109","Carthage","TX","Texas","TRUE","","12799","15.2","48365","Panola","{""48365"": 100}","Panola","48365","FALSE","FALSE","America/Chicago"
"75638","33.01869","-94.73173","Daingerfield","TX","Texas","TRUE","","5001","22.6","48343","Morris","{""48343"": 97.02, ""48067"": 2.98}","Morris|Cass","48343|48067","FALSE","FALSE","America/Chicago"
"75639","32.28441","-94.16897","De Berry","TX","Texas","TRUE","","2525","6.0","48365","Panola","{""48365"": 100}","Panola","48365","FALSE","FALSE","America/Chicago"
"75640","32.7152","-94.68133","Diana","TX","Texas","TRUE","","5791","25.7","48203","Harrison","{""48203"": 57.64, ""48459"": 36.35, ""48315"": 6.01}","Harrison|Upshur|Marion","48203|48459|48315","FALSE","FALSE","America/Chicago"
"75641","32.3846","-94.5757","Easton","TX","Texas","TRUE","","88","20.2","48401","Rusk","{""48401"": 79.02, ""48183"": 20.98}","Rusk|Gregg","48401|48183","FALSE","FALSE","America/Chicago"
"75642","32.35818","-94.17821","Elysian Fields","TX","Texas","TRUE","","53","5.0","48365","Panola","{""48365"": 65.65, ""48203"": 34.35}","Panola|Harrison","48365|48203","FALSE","FALSE","America/Chicago"
"75643","32.01041","-94.35518","Gary","TX","Texas","TRUE","","2138","11.2","48365","Panola","{""48365"": 87.09, ""48419"": 12.91}","Panola|Shelby","48365|48419","FALSE","FALSE","America/Chicago"
"75644","32.79171","-94.99498","Gilmer","TX","Texas","TRUE","","12594","26.1","48459","Upshur","{""48459"": 100}","Upshur","48459","FALSE","FALSE","America/Chicago"
"75645","32.68375","-94.87317","Gilmer","TX","Texas","TRUE","","10125","27.0","48459","Upshur","{""48459"": 97.84, ""48183"": 2.16}","Upshur|Gregg","48459|48183","FALSE","FALSE","America/Chicago"
"75647","32.5167","-94.96429","Gladewater","TX","Texas","TRUE","","12405","54.1","48183","Gregg","{""48183"": 42.7, ""48423"": 31.9, ""48459"": 25.39}","Gregg|Smith|Upshur","48183|48423|48459","FALSE","FALSE","America/Chicago"
"75650","32.51529","-94.55358","Hallsville","TX","Texas","TRUE","","9239","30.4","48203","Harrison","{""48203"": 100}","Harrison","48203","FALSE","FALSE","America/Chicago"
"75651","32.67061","-94.53064","Harleton","TX","Texas","TRUE","","2101","14.7","48203","Harrison","{""48203"": 90.9, ""48315"": 9.1}","Harrison|Marion","48203|48315","FALSE","FALSE","America/Chicago"
"75652","32.2301","-94.7281","Henderson","TX","Texas","TRUE","","14011","31.5","48401","Rusk","{""48401"": 98.38, ""48365"": 1.62}","Rusk|Panola","48401|48365","FALSE","FALSE","America/Chicago"
"75654","32.08299","-94.82961","Henderson","TX","Texas","TRUE","","12945","25.3","48401","Rusk","{""48401"": 98.93, ""48073"": 1.07}","Rusk|Cherokee","48401|48073","FALSE","FALSE","America/Chicago"
"75656","33.01471","-94.58686","Hughes Springs","TX","Texas","TRUE","","4768","18.5","48067","Cass","{""48067"": 91.66, ""48343"": 8.34}","Cass|Morris","48067|48343","FALSE","FALSE","America/Chicago"
"75657","32.79437","-94.30498","Jefferson","TX","Texas","TRUE","","7366","8.2","48315","Marion","{""48315"": 88.02, ""48067"": 7.17, ""48203"": 4.81}","Marion|Cass|Harrison","48315|48067|48203","FALSE","FALSE","America/Chicago"
"75658","32.17545","-94.90362","Joinerville","TX","Texas","TRUE","","8","2.6","48401","Rusk","{""48401"": 100}","Rusk","48401","FALSE","FALSE","America/Chicago"
"75659","32.50725","-94.09249","Jonesville","TX","Texas","TRUE","","0","0.0","48203","Harrison","{""48203"": 100}","Harrison","48203","FALSE","FALSE","America/Chicago"
"75661","32.63908","-94.15655","Karnack","TX","Texas","TRUE","","2482","7.5","48203","Harrison","{""48203"": 100}","Harrison","48203","FALSE","FALSE","America/Chicago"
"75662","32.38076","-94.87503","Kilgore","TX","Texas","TRUE","","25153","76.6","48183","Gregg","{""48183"": 52.8, ""48401"": 39.5, ""48423"": 7.7}","Gregg|Rusk|Smith","48183|48401|48423","FALSE","FALSE","America/Chicago"
"75667","31.988","-94.83729","Laneville","TX","Texas","TRUE","","1457","6.6","48401","Rusk","{""48401"": 100}","Rusk","48401","FALSE","FALSE","America/Chicago"
"75668","32.90846","-94.68485","Lone Star","TX","Texas","TRUE","","2272","41.8","48343","Morris","{""48343"": 78.69, ""48315"": 21.31}","Morris|Marion","48343|48315","FALSE","FALSE","America/Chicago"
"75669","32.03348","-94.55678","Long Branch","TX","Texas","TRUE","","1124","7.9","48365","Panola","{""48365"": 83.37, ""48401"": 16.63}","Panola|Rusk","48365|48401","FALSE","FALSE","America/Chicago"
"75670","32.56456","-94.42326","Marshall","TX","Texas","TRUE","","18855","57.0","48203","Harrison","{""48203"": 100}","Harrison","48203","FALSE","FALSE","America/Chicago"
"75671","32.48907","-94.31494","Marshall","TX","Texas","TRUE","","0","0.0","48203","Harrison","{""48203"": 100}","Harrison","48203","FALSE","FALSE","America/Chicago"
"75672","32.47076","-94.29353","Marshall","TX","Texas","TRUE","","16700","27.8","48203","Harrison","{""48203"": 99.74, ""48365"": 0.26}","Harrison|Panola","48203|48365","FALSE","FALSE","America/Chicago"
"75680","32.01035","-94.71824","Minden","TX","Texas","TRUE","","0","0.0","48401","Rusk","{""48401"": 100}","Rusk","48401","FALSE","FALSE","America/Chicago"
"75681","31.93597","-94.685","Mount Enterprise","TX","Texas","TRUE","","2563","7.4","48401","Rusk","{""48401"": 100}","Rusk","48401","FALSE","FALSE","America/Chicago"
"75682","32.25152","-94.94713","New London","TX","Texas","TRUE","","667","126.3","48401","Rusk","{""48401"": 100}","Rusk","48401","FALSE","FALSE","America/Chicago"
"75683","32.82182","-94.74035","Ore City","TX","Texas","TRUE","","3998","25.7","48459","Upshur","{""48459"": 80.68, ""48315"": 19.32}","Upshur|Marion","48459|48315","FALSE","FALSE","America/Chicago"
"75684","32.27085","-94.93147","Overton","TX","Texas","TRUE","","7558","31.8","48401","Rusk","{""48401"": 82.69, ""48423"": 17.31}","Rusk|Smith","48401|48423","FALSE","FALSE","America/Chicago"
"75686","32.96921","-94.94697","Pittsburg","TX","Texas","TRUE","","13396","22.3","48063","Camp","{""48063"": 68.14, ""48459"": 17.72, ""48449"": 12.87, ""48343"": 1.27}","Camp|Upshur|Titus|Morris","48063|48459|48449|48343","FALSE","FALSE","America/Chicago"
"75687","32.10575","-94.96352","Price","TX","Texas","TRUE","","0","0.0","48401","Rusk","{""48401"": 100}","Rusk","48401","FALSE","FALSE","America/Chicago"
"75689","32.18196","-94.95771","Selman City","TX","Texas","TRUE","","213","66.8","48401","Rusk","{""48401"": 100}","Rusk","48401","FALSE","FALSE","America/Chicago"
"75691","32.31108","-94.55725","Tatum","TX","Texas","TRUE","","4465","18.1","48401","Rusk","{""48401"": 79.53, ""48365"": 20.47}","Rusk|Panola","48401|48365","FALSE","FALSE","America/Chicago"
"75692","32.4718","-94.11936","Waskom","TX","Texas","TRUE","","4698","18.3","48203","Harrison","{""48203"": 93.86, ""48365"": 6.14}","Harrison|Panola","48203|48365","FALSE","FALSE","America/Chicago"
"75693","32.53364","-94.86083","White Oak","TX","Texas","TRUE","","6353","238.4","48183","Gregg","{""48183"": 100}","Gregg","48183","FALSE","FALSE","America/Chicago"
"75694","32.6383","-94.34442","Woodlawn","TX","Texas","TRUE","","0","0.0","48203","Harrison","{""48203"": 100}","Harrison","48203","FALSE","FALSE","America/Chicago"
"75701","32.32297","-95.29679","Tyler","TX","Texas","TRUE","","34296","941.3","48423","Smith","{""48423"": 100}","Smith","48423","FALSE","FALSE","America/Chicago"
"75702","32.36403","-95.31207","Tyler","TX","Texas","TRUE","","28236","773.2","48423","Smith","{""48423"": 100}","Smith","48423","FALSE","FALSE","America/Chicago"
"75703","32.23825","-95.31947","Tyler","TX","Texas","TRUE","","42414","297.4","48423","Smith","{""48423"": 100}","Smith","48423","FALSE","FALSE","America/Chicago"
"75704","32.40616","-95.4407","Tyler","TX","Texas","TRUE","","9575","55.4","48423","Smith","{""48423"": 100}","Smith","48423","FALSE","FALSE","America/Chicago"
"75705","32.35905","-95.10149","Tyler","TX","Texas","TRUE","","2722","40.9","48423","Smith","{""48423"": 100}","Smith","48423","FALSE","FALSE","America/Chicago"
"75706","32.46822","-95.30402","Tyler","TX","Texas","TRUE","","10142","51.8","48423","Smith","{""48423"": 100}","Smith","48423","FALSE","FALSE","America/Chicago"
"75707","32.30479","-95.171","Tyler","TX","Texas","TRUE","","14455","106.5","48423","Smith","{""48423"": 100}","Smith","48423","FALSE","FALSE","America/Chicago"
"75708","32.41436","-95.20717","Tyler","TX","Texas","TRUE","","10419","71.2","48423","Smith","{""48423"": 100}","Smith","48423","FALSE","FALSE","America/Chicago"
"75709","32.31323","-95.38904","Tyler","TX","Texas","TRUE","","4596","85.2","48423","Smith","{""48423"": 100}","Smith","48423","FALSE","FALSE","America/Chicago"
"75711","32.33698","-95.28382","Tyler","TX","Texas","TRUE","","219","4690.1","48423","Smith","{""48423"": 100}","Smith","48423","FALSE","FALSE","America/Chicago"
"75750","32.27222","-95.07124","Arp","TX","Texas","TRUE","","3644","28.8","48423","Smith","{""48423"": 100}","Smith","48423","FALSE","FALSE","America/Chicago"
"75751","32.07875","-95.91661","Athens","TX","Texas","TRUE","","17098","36.6","48213","Henderson","{""48213"": 68.01, ""48001"": 31.99}","Henderson|Anderson","48213|48001","FALSE","FALSE","America/Chicago"
"75752","32.24239","-95.80751","Athens","TX","Texas","TRUE","","7450","19.1","48213","Henderson","{""48213"": 89.66, ""48467"": 9.56, ""48001"": 0.78}","Henderson|Van Zandt|Anderson","48213|48467|48001","FALSE","FALSE","America/Chicago"
"75754","32.42431","-95.66462","Ben Wheeler","TX","Texas","TRUE","","7961","24.4","48467","Van Zandt","{""48467"": 100}","Van Zandt","48467","FALSE","FALSE","America/Chicago"
"75755","32.63236","-95.08662","Big Sandy","TX","Texas","TRUE","","4576","17.4","48459","Upshur","{""48459"": 95.29, ""48499"": 4.71}","Upshur|Wood","48459|48499","FALSE","FALSE","America/Chicago"
"75756","32.30031","-95.59771","Brownsboro","TX","Texas","TRUE","","4403","23.0","48213","Henderson","{""48213"": 96.84, ""48467"": 3.16}","Henderson|Van Zandt","48213|48467","FALSE","FALSE","America/Chicago"
"75757","32.11584","-95.34933","Bullard","TX","Texas","TRUE","","13699","61.4","48073","Cherokee","{""48073"": 68.31, ""48423"": 31.69}","Cherokee|Smith","48073|48423","FALSE","FALSE","America/Chicago"
"75758","32.27375","-95.50484","Chandler","TX","Texas","TRUE","","9726","85.0","48213","Henderson","{""48213"": 85.52, ""48467"": 14.48}","Henderson|Van Zandt","48213|48467","FALSE","FALSE","America/Chicago"
"75759","32.03617","-95.41573","Cuney","TX","Texas","TRUE","","110","11.6","48073","Cherokee","{""48073"": 100}","Cherokee","48073","FALSE","FALSE","America/Chicago"
"75760","31.80738","-94.85758","Cushing","TX","Texas","TRUE","","2481","7.2","48347","Nacogdoches","{""48347"": 67.97, ""48401"": 32.03}","Nacogdoches|Rusk","48347|48401","FALSE","FALSE","America/Chicago"
"75762","32.21926","-95.41218","Flint","TX","Texas","TRUE","","14609","126.1","48423","Smith","{""48423"": 100}","Smith","48423","FALSE","FALSE","America/Chicago"
"75763","32.04154","-95.52231","Frankston","TX","Texas","TRUE","","6507","23.2","48001","Anderson","{""48001"": 66.35, ""48213"": 33.65}","Anderson|Henderson","48001|48213","FALSE","FALSE","America/Chicago"
"75764","31.89522","-95.14369","Gallatin","TX","Texas","TRUE","","208","62.3","48073","Cherokee","{""48073"": 100}","Cherokee","48073","FALSE","FALSE","America/Chicago"
"75765","32.64119","-95.2359","Hawkins","TX","Texas","TRUE","","7705","28.7","48499","Wood","{""48499"": 98.96, ""48459"": 1.04}","Wood|Upshur","48499|48459","FALSE","FALSE","America/Chicago"
"75766","31.94592","-95.25181","Jacksonville","TX","Texas","TRUE","","25577","31.0","48073","Cherokee","{""48073"": 100}","Cherokee","48073","FALSE","FALSE","America/Chicago"
"75770","32.14058","-95.64694","Larue","TX","Texas","TRUE","","2517","8.2","48213","Henderson","{""48213"": 100}","Henderson","48213","FALSE","FALSE","America/Chicago"
"75771","32.53542","-95.43006","Lindale","TX","Texas","TRUE","","21260","56.2","48423","Smith","{""48423"": 100}","Smith","48423","FALSE","FALSE","America/Chicago"
"75773","32.67969","-95.44654","Mineola","TX","Texas","TRUE","","13478","29.4","48499","Wood","{""48499"": 82.52, ""48423"": 17.48}","Wood|Smith","48499|48423","FALSE","FALSE","America/Chicago"
"75778","32.30239","-95.71367","Murchison","TX","Texas","TRUE","","2443","17.9","48213","Henderson","{""48213"": 86.23, ""48467"": 13.77}","Henderson|Van Zandt","48213|48467","FALSE","FALSE","America/Chicago"
"75779","31.86434","-95.48486","Neches","TX","Texas","TRUE","","0","0.0","48001","Anderson","{""48001"": 100}","Anderson","48001","FALSE","FALSE","America/Chicago"
"75780","31.98905","-95.09122","New Summerfield","TX","Texas","TRUE","","362","104.1","48073","Cherokee","{""48073"": 100}","Cherokee","48073","FALSE","FALSE","America/Chicago"
"75782","32.0693","-95.58777","Poynor","TX","Texas","TRUE","","33","7.9","48213","Henderson","{""48213"": 100}","Henderson","48213","FALSE","FALSE","America/Chicago"
"75783","32.82227","-95.42386","Quitman","TX","Texas","TRUE","","8316","26.8","48499","Wood","{""48499"": 100}","Wood","48499","FALSE","FALSE","America/Chicago"
"75784","31.87344","-94.96234","Reklaw","TX","Texas","TRUE","","768","8.6","48401","Rusk","{""48401"": 61.64, ""48073"": 38.36}","Rusk|Cherokee","48401|48073","FALSE","FALSE","America/Chicago"
"75785","31.76641","-95.17446","Rusk","TX","Texas","TRUE","","10813","14.4","48073","Cherokee","{""48073"": 100}","Cherokee","48073","FALSE","FALSE","America/Chicago"
"75788","31.82252","-94.91617","Sacul","TX","Texas","TRUE","","28","7.7","48347","Nacogdoches","{""48347"": 100}","Nacogdoches","48347","FALSE","FALSE","America/Chicago"
"75789","32.1126","-95.09405","Troup","TX","Texas","TRUE","","8919","18.7","48073","Cherokee","{""48073"": 62.94, ""48423"": 36.55, ""48401"": 0.51}","Cherokee|Smith|Rusk","48073|48423|48401","FALSE","FALSE","America/Chicago"
"75790","32.52749","-95.64255","Van","TX","Texas","TRUE","","3383","35.8","48467","Van Zandt","{""48467"": 95.4, ""48423"": 4.6}","Van Zandt|Smith","48467|48423","FALSE","FALSE","America/Chicago"
"75791","32.22214","-95.22103","Whitehouse","TX","Texas","TRUE","","14093","138.1","48423","Smith","{""48423"": 100}","Smith","48423","FALSE","FALSE","America/Chicago"
"75792","32.4679","-95.10623","Winona","TX","Texas","TRUE","","3134","15.1","48423","Smith","{""48423"": 100}","Smith","48423","FALSE","FALSE","America/Chicago"
"75801","31.74004","-95.55116","Palestine","TX","Texas","TRUE","","15740","32.2","48001","Anderson","{""48001"": 100}","Anderson","48001","FALSE","FALSE","America/Chicago"
"75803","31.87513","-95.66704","Palestine","TX","Texas","TRUE","","21941","26.0","48001","Anderson","{""48001"": 99.65, ""48213"": 0.35}","Anderson|Henderson","48001|48213","FALSE","FALSE","America/Chicago"
"75831","31.45745","-96.02275","Buffalo","TX","Texas","TRUE","","4981","7.7","48289","Leon","{""48289"": 70.19, ""48161"": 29.81}","Leon|Freestone","48289|48161","FALSE","FALSE","America/Chicago"
"75833","31.26304","-95.83999","Centerville","TX","Texas","TRUE","","2223","3.4","48289","Leon","{""48289"": 100}","Leon","48289","FALSE","FALSE","America/Chicago"
"75835","31.29758","-95.48834","Crockett","TX","Texas","TRUE","","11597","9.5","48225","Houston","{""48225"": 100}","Houston","48225","FALSE","FALSE","America/Chicago"
"75838","31.47956","-96.22844","Donie","TX","Texas","TRUE","","457","3.2","48161","Freestone","{""48161"": 88.9, ""48293"": 11.1}","Freestone|Limestone","48161|48293","FALSE","FALSE","America/Chicago"
"75839","31.6181","-95.55738","Elkhart","TX","Texas","TRUE","","6001","13.6","48001","Anderson","{""48001"": 96.26, ""48225"": 3.74}","Anderson|Houston","48001|48225","FALSE","FALSE","America/Chicago"
"75840","31.78412","-96.08552","Fairfield","TX","Texas","TRUE","","6504","9.4","48161","Freestone","{""48161"": 100}","Freestone","48161","FALSE","FALSE","America/Chicago"
"75844","31.51921","-95.43481","Grapeland","TX","Texas","TRUE","","4622","5.1","48225","Houston","{""48225"": 82.23, ""48001"": 17.77}","Houston|Anderson","48225|48001","FALSE","FALSE","America/Chicago"
"75845","31.09488","-95.08707","Groveton","TX","Texas","TRUE","","2105","2.6","48455","Trinity","{""48455"": 100}","Trinity","48455","FALSE","FALSE","America/Chicago"
"75846","31.34683","-96.18118","Jewett","TX","Texas","TRUE","","2786","7.0","48289","Leon","{""48289"": 79.33, ""48293"": 20.67}","Leon|Limestone","48289|48293","FALSE","FALSE","America/Chicago"
"75847","31.35204","-95.13564","Kennard","TX","Texas","TRUE","","1635","2.6","48225","Houston","{""48225"": 86.91, ""48455"": 13.09}","Houston|Trinity","48225|48455","FALSE","FALSE","America/Chicago"
"75848","31.77281","-96.33408","Kirvin","TX","Texas","TRUE","","90","63.4","48161","Freestone","{""48161"": 100}","Freestone","48161","FALSE","FALSE","America/Chicago"
"75849","31.39624","-95.47618","Latexo","TX","Texas","TRUE","","106","116.4","48225","Houston","{""48225"": 100}","Houston","48225","FALSE","FALSE","America/Chicago"
"75850","31.13209","-95.91595","Leona","TX","Texas","TRUE","","1544","10.5","48289","Leon","{""48289"": 100}","Leon","48289","FALSE","FALSE","America/Chicago"
"75851","31.09458","-95.49555","Lovelady","TX","Texas","TRUE","","4956","7.2","48225","Houston","{""48225"": 88.17, ""48455"": 11.83}","Houston|Trinity","48225|48455","FALSE","FALSE","America/Chicago"
"75852","30.98723","-95.72023","Midway","TX","Texas","TRUE","","3306","8.6","48313","Madison","{""48313"": 77.6, ""48471"": 22.4}","Madison|Walker","48313|48471","FALSE","FALSE","America/Chicago"
"75853","31.93488","-95.80963","Montalba","TX","Texas","TRUE","","775","4.1","48001","Anderson","{""48001"": 97.8, ""48213"": 2.2}","Anderson|Henderson","48001|48213","FALSE","FALSE","America/Chicago"
"75855","31.5592","-95.85447","Oakwood","TX","Texas","TRUE","","2862","3.9","48289","Leon","{""48289"": 57.9, ""48161"": 42.1}","Leon|Freestone","48289|48161","FALSE","FALSE","America/Chicago"
"75856","31.20138","-95.2537","Pennington","TX","Texas","TRUE","","173","2.7","48225","Houston","{""48225"": 71.01, ""48455"": 28.99}","Houston|Trinity","48225|48455","FALSE","FALSE","America/Chicago"
"75858","31.38083","-95.13676","Ratcliff","TX","Texas","TRUE","","46","8.1","48225","Houston","{""48225"": 100}","Houston","48225","FALSE","FALSE","America/Chicago"
"75859","31.8842","-96.25512","Streetman","TX","Texas","TRUE","","2125","6.2","48161","Freestone","{""48161"": 68.61, ""48349"": 31.39}","Freestone|Navarro","48161|48349","FALSE","FALSE","America/Chicago"
"75860","31.62342","-96.24615","Teague","TX","Texas","TRUE","","6248","13.6","48161","Freestone","{""48161"": 100}","Freestone","48161","FALSE","FALSE","America/Chicago"
"75861","31.8524","-95.88771","Tennessee Colony","TX","Texas","TRUE","","1727","5.9","48001","Anderson","{""48001"": 100}","Anderson","48001","FALSE","FALSE","America/Chicago"
"75862","30.96193","-95.32951","Trinity","TX","Texas","TRUE","","10245","16.4","48455","Trinity","{""48455"": 79.94, ""48471"": 20.06}","Trinity|Walker","48455|48471","FALSE","FALSE","America/Chicago"
"75865","31.05808","-94.96228","Woodlake","TX","Texas","TRUE","","3","0.3","48455","Trinity","{""48455"": 100}","Trinity","48455","FALSE","FALSE","America/Chicago"
"75884","31.78928","-95.89263","Tennessee Colony","TX","Texas","TRUE","","3804","11008.9","48001","Anderson","{""48001"": 100}","Anderson","48001","FALSE","FALSE","America/Chicago"
"75886","31.78698","-95.91234","Tennessee Colony","TX","Texas","TRUE","","3193","250.8","48001","Anderson","{""48001"": 100}","Anderson","48001","FALSE","FALSE","America/Chicago"
"75901","31.30264","-94.65481","Lufkin","TX","Texas","TRUE","","28979","70.3","48005","Angelina","{""48005"": 100}","Angelina","48005","FALSE","FALSE","America/Chicago"
"75903","31.37428","-94.74796","Lufkin","TX","Texas","TRUE","","98","140.3","48005","Angelina","{""48005"": 100}","Angelina","48005","FALSE","FALSE","America/Chicago"
"75904","31.33872","-94.83467","Lufkin","TX","Texas","TRUE","","34663","83.4","48005","Angelina","{""48005"": 85.07, ""48455"": 14.93}","Angelina|Trinity","48005|48455","FALSE","FALSE","America/Chicago"
"75925","31.61018","-95.05327","Alto","TX","Texas","TRUE","","3446","6.4","48073","Cherokee","{""48073"": 100}","Cherokee","48073","FALSE","FALSE","America/Chicago"
"75926","31.23281","-94.96944","Apple Springs","TX","Texas","TRUE","","1220","5.3","48455","Trinity","{""48455"": 100}","Trinity","48455","FALSE","FALSE","America/Chicago"
"75928","30.67111","-93.7064","Bon Wier","TX","Texas","TRUE","","1070","4.9","48351","Newton","{""48351"": 100}","Newton","48351","FALSE","FALSE","America/Chicago"
"75929","31.23579","-94.19735","Broaddus","TX","Texas","TRUE","","1553","5.1","48405","San Augustine","{""48405"": 100}","San Augustine","48405","FALSE","FALSE","America/Chicago"
"75930","31.33641","-94.03522","Bronson","TX","Texas","TRUE","","1649","4.0","48405","San Augustine","{""48405"": 59.39, ""48403"": 40.61}","San Augustine|Sabine","48405|48403","FALSE","FALSE","America/Chicago"
"75931","31.09978","-93.98953","Brookeland","TX","Texas","TRUE","","1821","8.0","48241","Jasper","{""48241"": 78.55, ""48403"": 21.45}","Jasper|Sabine","48241|48403","FALSE","FALSE","America/Chicago"
"75932","31.0551","-93.61396","Burkeville","TX","Texas","TRUE","","1343","3.9","48351","Newton","{""48351"": 100}","Newton","48351","FALSE","FALSE","America/Chicago"
"75933","30.55314","-93.81608","Call","TX","Texas","TRUE","","1624","7.3","48351","Newton","{""48351"": 91.67, ""48241"": 8.33}","Newton|Jasper","48351|48241","FALSE","FALSE","America/Chicago"
"75934","30.89688","-94.75153","Camden","TX","Texas","TRUE","","195","11.0","48373","Polk","{""48373"": 100}","Polk","48373","FALSE","FALSE","America/Chicago"
"75935","31.72999","-94.20077","Center","TX","Texas","TRUE","","12426","13.4","48419","Shelby","{""48419"": 89.39, ""48405"": 10.61}","Shelby|San Augustine","48419|48405","FALSE","FALSE","America/Chicago"
"75936","30.95147","-94.58883","Chester","TX","Texas","TRUE","","967","3.2","48457","Tyler","{""48457"": 82.24, ""48373"": 17.76}","Tyler|Polk","48457|48373","FALSE","FALSE","America/Chicago"
"75937","31.47805","-94.38259","Chireno","TX","Texas","TRUE","","1298","7.3","48347","Nacogdoches","{""48347"": 100}","Nacogdoches","48347","FALSE","FALSE","America/Chicago"
"75938","30.93436","-94.35605","Colmesneil","TX","Texas","TRUE","","2217","4.5","48457","Tyler","{""48457"": 100}","Tyler","48457","FALSE","FALSE","America/Chicago"
"75939","31.01496","-94.80501","Corrigan","TX","Texas","TRUE","","5440","8.3","48373","Polk","{""48373"": 100}","Polk","48373","FALSE","FALSE","America/Chicago"
"75941","31.18078","-94.76219","Diboll","TX","Texas","TRUE","","8470","37.5","48005","Angelina","{""48005"": 100}","Angelina","48005","FALSE","FALSE","America/Chicago"
"75942","30.82567","-94.41657","Doucette","TX","Texas","TRUE","","171","31.5","48457","Tyler","{""48457"": 100}","Tyler","48457","FALSE","FALSE","America/Chicago"
"75943","31.65451","-94.88935","Douglass","TX","Texas","TRUE","","1171","7.1","48347","Nacogdoches","{""48347"": 100}","Nacogdoches","48347","FALSE","FALSE","America/Chicago"
"75944","31.34514","-94.38636","Etoile","TX","Texas","TRUE","","904","7.0","48347","Nacogdoches","{""48347"": 100}","Nacogdoches","48347","FALSE","FALSE","America/Chicago"
"75946","31.81372","-94.52392","Garrison","TX","Texas","TRUE","","3714","10.5","48347","Nacogdoches","{""48347"": 68.34, ""48401"": 31.66}","Nacogdoches|Rusk","48347|48401","FALSE","FALSE","America/Chicago"
"75948","31.29389","-93.77573","Hemphill","TX","Texas","TRUE","","5595","9.4","48403","Sabine","{""48403"": 96.85, ""48351"": 3.15}","Sabine|Newton","48403|48351","FALSE","FALSE","America/Chicago"
"75949","31.22907","-94.51782","Huntington","TX","Texas","TRUE","","8469","15.9","48005","Angelina","{""48005"": 100}","Angelina","48005","FALSE","FALSE","America/Chicago"
"75951","30.93098","-94.05762","Jasper","TX","Texas","TRUE","","15026","15.6","48241","Jasper","{""48241"": 99.49, ""48351"": 0.51}","Jasper|Newton","48241|48351","FALSE","FALSE","America/Chicago"
"75954","31.92169","-94.05523","Joaquin","TX","Texas","TRUE","","2550","9.2","48419","Shelby","{""48419"": 88.79, ""48365"": 11.21}","Shelby|Panola","48419|48365","FALSE","FALSE","America/Chicago"
"75956","30.6721","-93.96706","Kirbyville","TX","Texas","TRUE","","8275","13.1","48241","Jasper","{""48241"": 88.21, ""48351"": 11.79}","Jasper|Newton","48241|48351","FALSE","FALSE","America/Chicago"
"75959","31.51021","-93.83994","Milam","TX","Texas","TRUE","","742","5.5","48403","Sabine","{""48403"": 100}","Sabine","48403","FALSE","FALSE","America/Chicago"
"75960","30.90372","-94.8618","Moscow","TX","Texas","TRUE","","606","3.9","48373","Polk","{""48373"": 100}","Polk","48373","FALSE","FALSE","America/Chicago"
"75961","31.5576","-94.51098","Nacogdoches","TX","Texas","TRUE","","14909","20.6","48347","Nacogdoches","{""48347"": 100}","Nacogdoches","48347","FALSE","FALSE","America/Chicago"
"75962","31.61981","-94.6484","Nacogdoches","TX","Texas","TRUE","","3149","5957.1","48347","Nacogdoches","{""48347"": 100}","Nacogdoches","48347","FALSE","FALSE","America/Chicago"
"75964","31.63334","-94.75057","Nacogdoches","TX","Texas","TRUE","","19889","34.5","48347","Nacogdoches","{""48347"": 100}","Nacogdoches","48347","FALSE","FALSE","America/Chicago"
"75965","31.7284","-94.62629","Nacogdoches","TX","Texas","TRUE","","18231","91.3","48347","Nacogdoches","{""48347"": 100}","Nacogdoches","48347","FALSE","FALSE","America/Chicago"
"75966","30.83783","-93.72611","Newton","TX","Texas","TRUE","","4462","6.4","48351","Newton","{""48351"": 98.86, ""48241"": 1.14}","Newton|Jasper","48351|48241","FALSE","FALSE","America/Chicago"
"75968","31.25882","-93.95924","Pineland","TX","Texas","TRUE","","2235","12.0","48403","Sabine","{""48403"": 100}","Sabine","48403","FALSE","FALSE","America/Chicago"
"75969","31.44765","-94.89758","Pollok","TX","Texas","TRUE","","3719","17.3","48005","Angelina","{""48005"": 85.57, ""48073"": 14.43}","Angelina|Cherokee","48005|48073","FALSE","FALSE","America/Chicago"
"75972","31.49407","-94.12173","San Augustine","TX","Texas","TRUE","","6190","6.6","48405","San Augustine","{""48405"": 78.89, ""48403"": 17.31, ""48419"": 3.8}","San Augustine|Sabine|Shelby","48405|48403|48419","FALSE","FALSE","America/Chicago"
"75973","31.71977","-93.93259","Shelbyville","TX","Texas","TRUE","","2809","6.1","48419","Shelby","{""48419"": 100}","Shelby","48419","FALSE","FALSE","America/Chicago"
"75974","31.95674","-94.23713","Tenaha","TX","Texas","TRUE","","3296","12.6","48419","Shelby","{""48419"": 59.36, ""48365"": 40.64}","Shelby|Panola","48419|48365","FALSE","FALSE","America/Chicago"
"75975","31.89535","-94.4122","Timpson","TX","Texas","TRUE","","3868","10.7","48419","Shelby","{""48419"": 87.42, ""48365"": 6.76, ""48401"": 5.82}","Shelby|Panola|Rusk","48419|48365|48401","FALSE","FALSE","America/Chicago"
"75976","31.51546","-94.93863","Wells","TX","Texas","TRUE","","1239","17.5","48073","Cherokee","{""48073"": 100}","Cherokee","48073","FALSE","FALSE","America/Chicago"
"75977","31.05997","-93.78455","Wiergate","TX","Texas","TRUE","","378","0.9","48351","Newton","{""48351"": 100}","Newton","48351","FALSE","FALSE","America/Chicago"
"75979","30.77477","-94.4026","Woodville","TX","Texas","TRUE","","12023","15.1","48457","Tyler","{""48457"": 100}","Tyler","48457","FALSE","FALSE","America/Chicago"
"75980","31.12387","-94.34703","Zavalla","TX","Texas","TRUE","","2407","5.9","48005","Angelina","{""48005"": 90.63, ""48241"": 9.37}","Angelina|Jasper","48005|48241","FALSE","FALSE","America/Chicago"
"76001","32.63076","-97.15408","Arlington","TX","Texas","TRUE","","37134","1342.7","48439","Tarrant","{""48439"": 100}","Tarrant","48439","FALSE","FALSE","America/Chicago"
"76002","32.62233","-97.09265","Arlington","TX","Texas","TRUE","","34402","1862.6","48439","Tarrant","{""48439"": 100}","Tarrant","48439","FALSE","FALSE","America/Chicago"
"76005","32.80057","-97.08001","Arlington","TX","Texas","TRUE","","3967","457.8","48439","Tarrant","{""48439"": 100}","Tarrant","48439","FALSE","FALSE","America/Chicago"
"76006","32.78511","-97.10019","Arlington","TX","Texas","TRUE","","24547","1240.4","48439","Tarrant","{""48439"": 100}","Tarrant","48439","FALSE","FALSE","America/Chicago"
"76008","32.68182","-97.62738","Aledo","TX","Texas","TRUE","","22091","104.7","48367","Parker","{""48367"": 92.87, ""48439"": 7.13}","Parker|Tarrant","48367|48439","FALSE","FALSE","America/Chicago"
"76009","32.41635","-97.20115","Alvarado","TX","Texas","TRUE","","20751","81.7","48251","Johnson","{""48251"": 100}","Johnson","48251","FALSE","FALSE","America/Chicago"
"76010","32.72271","-97.08065","Arlington","TX","Texas","TRUE","","57448","2517.8","48439","Tarrant","{""48439"": 100}","Tarrant","48439","FALSE","FALSE","America/Chicago"
"76011","32.7543","-97.08223","Arlington","TX","Texas","TRUE","","21701","1030.3","48439","Tarrant","{""48439"": 100}","Tarrant","48439","FALSE","FALSE","America/Chicago"
"76012","32.75459","-97.13901","Arlington","TX","Texas","TRUE","","28750","1354.1","48439","Tarrant","{""48439"": 100}","Tarrant","48439","FALSE","FALSE","America/Chicago"
"76013","32.72027","-97.15652","Arlington","TX","Texas","TRUE","","34457","1482.2","48439","Tarrant","{""48439"": 100}","Tarrant","48439","FALSE","FALSE","America/Chicago"
"76014","32.69201","-97.08814","Arlington","TX","Texas","TRUE","","32460","2185.0","48439","Tarrant","{""48439"": 100}","Tarrant","48439","FALSE","FALSE","America/Chicago"
"76015","32.69204","-97.13341","Arlington","TX","Texas","TRUE","","17629","1595.7","48439","Tarrant","{""48439"": 100}","Tarrant","48439","FALSE","FALSE","America/Chicago"
"76016","32.68907","-97.18868","Arlington","TX","Texas","TRUE","","31008","1353.4","48439","Tarrant","{""48439"": 100}","Tarrant","48439","FALSE","FALSE","America/Chicago"
"76017","32.66223","-97.16237","Arlington","TX","Texas","TRUE","","45429","1718.5","48439","Tarrant","{""48439"": 100}","Tarrant","48439","FALSE","FALSE","America/Chicago"
"76018","32.66074","-97.08967","Arlington","TX","Texas","TRUE","","28553","1403.9","48439","Tarrant","{""48439"": 100}","Tarrant","48439","FALSE","FALSE","America/Chicago"
"76020","32.90102","-97.56483","Azle","TX","Texas","TRUE","","32443","193.0","48367","Parker","{""48367"": 62.48, ""48439"": 33.62, ""48497"": 3.9}","Parker|Tarrant|Wise","48367|48439|48497","FALSE","FALSE","America/Chicago"
"76021","32.8523","-97.13128","Bedford","TX","Texas","TRUE","","35401","1883.8","48439","Tarrant","{""48439"": 100}","Tarrant","48439","FALSE","FALSE","America/Chicago"
"76022","32.83063","-97.14506","Bedford","TX","Texas","TRUE","","14224","2036.0","48439","Tarrant","{""48439"": 100}","Tarrant","48439","FALSE","FALSE","America/Chicago"
"76023","33.04777","-97.60425","Boyd","TX","Texas","TRUE","","7203","51.7","48497","Wise","{""48497"": 97.17, ""48367"": 2.83}","Wise|Parker","48497|48367","FALSE","FALSE","America/Chicago"
"76028","32.52603","-97.30491","Burleson","TX","Texas","TRUE","","74217","369.9","48251","Johnson","{""48251"": 77.07, ""48439"": 22.93}","Johnson|Tarrant","48251|48439","FALSE","FALSE","America/Chicago"
"76031","32.34873","-97.33267","Cleburne","TX","Texas","TRUE","","18996","100.9","48251","Johnson","{""48251"": 100}","Johnson","48251","FALSE","FALSE","America/Chicago"
"76033","32.28663","-97.52075","Cleburne","TX","Texas","TRUE","","26174","57.4","48251","Johnson","{""48251"": 85.62, ""48221"": 7.23, ""48425"": 7.15}","Johnson|Hood|Somervell","48251|48221|48425","FALSE","FALSE","America/Chicago"
"76034","32.89121","-97.1488","Colleyville","TX","Texas","TRUE","","25717","759.8","48439","Tarrant","{""48439"": 100}","Tarrant","48439","FALSE","FALSE","America/Chicago"
"76035","32.56172","-97.64251","Cresson","TX","Texas","TRUE","","2844","20.2","48367","Parker","{""48367"": 59.1, ""48221"": 21.65, ""48251"": 19.25}","Parker|Hood|Johnson","48367|48221|48251","FALSE","FALSE","America/Chicago"
"76036","32.57366","-97.41434","Crowley","TX","Texas","TRUE","","29594","259.3","48439","Tarrant","{""48439"": 77.99, ""48251"": 22.01}","Tarrant|Johnson","48439|48251","FALSE","FALSE","America/Chicago"
"76039","32.8592","-97.08422","Euless","TX","Texas","TRUE","","40657","2451.8","48439","Tarrant","{""48439"": 100}","Tarrant","48439","FALSE","FALSE","America/Chicago"
"76040","32.82133","-97.10488","Euless","TX","Texas","TRUE","","30787","1515.8","48439","Tarrant","{""48439"": 100}","Tarrant","48439","FALSE","FALSE","America/Chicago"
"76041","32.23911","-96.85724","Forreston","TX","Texas","TRUE","","370","11.9","48139","Ellis","{""48139"": 100}","Ellis","48139","FALSE","FALSE","America/Chicago"
"76043","32.20039","-97.76129","Glen Rose","TX","Texas","TRUE","","7094","24.8","48425","Somervell","{""48425"": 81.82, ""48035"": 18.18}","Somervell|Bosque","48425|48035","FALSE","FALSE","America/Chicago"
"76044","32.42961","-97.54286","Godley","TX","Texas","TRUE","","6466","23.1","48251","Johnson","{""48251"": 100}","Johnson","48251","FALSE","FALSE","America/Chicago"
"76048","32.40791","-97.80117","Granbury","TX","Texas","TRUE","","25691","97.6","48221","Hood","{""48221"": 91.76, ""48425"": 8.24}","Hood|Somervell","48221|48425","FALSE","FALSE","America/Chicago"
"76049","32.46759","-97.70645","Granbury","TX","Texas","TRUE","","29154","105.1","48221","Hood","{""48221"": 98.05, ""48367"": 1.14, ""48251"": 0.81}","Hood|Parker|Johnson","48221|48367|48251","FALSE","FALSE","America/Chicago"
"76050","32.27262","-97.16326","Grandview","TX","Texas","TRUE","","6760","18.8","48251","Johnson","{""48251"": 63.66, ""48217"": 18.28, ""48139"": 18.06}","Johnson|Hill|Ellis","48251|48217|48139","FALSE","FALSE","America/Chicago"
"76051","32.94192","-97.07888","Grapevine","TX","Texas","TRUE","","50066","867.2","48439","Tarrant","{""48439"": 98.58, ""48113"": 1.42}","Tarrant|Dallas","48439|48113","FALSE","FALSE","America/Chicago"
"76052","32.98205","-97.38037","Haslet","TX","Texas","TRUE","","26240","244.4","48439","Tarrant","{""48439"": 57.29, ""48121"": 23.64, ""48497"": 19.07}","Tarrant|Denton|Wise","48439|48121|48497","FALSE","FALSE","America/Chicago"
"76053","32.81683","-97.17898","Hurst","TX","Texas","TRUE","","31513","1493.5","48439","Tarrant","{""48439"": 100}","Tarrant","48439","FALSE","FALSE","America/Chicago"
"76054","32.85904","-97.17789","Hurst","TX","Texas","TRUE","","11989","1216.6","48439","Tarrant","{""48439"": 100}","Tarrant","48439","FALSE","FALSE","America/Chicago"
"76055","32.1596","-97.14812","Itasca","TX","Texas","TRUE","","3255","15.2","48217","Hill","{""48217"": 100}","Hill","48217","FALSE","FALSE","America/Chicago"
"76058","32.47072","-97.4251","Joshua","TX","Texas","TRUE","","20702","153.9","48251","Johnson","{""48251"": 100}","Johnson","48251","FALSE","FALSE","America/Chicago"
"76059","32.3921","-97.32897","Keene","TX","Texas","TRUE","","4982","777.1","48251","Johnson","{""48251"": 100}","Johnson","48251","FALSE","FALSE","America/Chicago"
"76060","32.63987","-97.2161","Kennedale","TX","Texas","TRUE","","8183","422.7","48439","Tarrant","{""48439"": 100}","Tarrant","48439","FALSE","FALSE","America/Chicago"
"76061","32.5026","-97.19813","Lillian","TX","Texas","TRUE","","262","45.4","48251","Johnson","{""48251"": 100}","Johnson","48251","FALSE","FALSE","America/Chicago"
"76063","32.56913","-97.14376","Mansfield","TX","Texas","TRUE","","76867","593.2","48439","Tarrant","{""48439"": 74.42, ""48251"": 24.53, ""48139"": 1.05}","Tarrant|Johnson|Ellis","48439|48251|48139","FALSE","FALSE","America/Chicago"
"76064","32.30757","-97.03225","Maypearl","TX","Texas","TRUE","","1999","35.6","48139","Ellis","{""48139"": 100}","Ellis","48139","FALSE","FALSE","America/Chicago"
"76065","32.47042","-96.98861","Midlothian","TX","Texas","TRUE","","40814","156.2","48139","Ellis","{""48139"": 99.8, ""48113"": 0.2}","Ellis|Dallas","48139|48113","FALSE","FALSE","America/Chicago"
"76066","32.7058","-97.99913","Millsap","TX","Texas","TRUE","","5030","22.1","48367","Parker","{""48367"": 97.61, ""48363"": 2.39}","Parker|Palo Pinto","48367|48363","FALSE","FALSE","America/Chicago"
"76067","32.80303","-98.1449","Mineral Wells","TX","Texas","TRUE","","20420","39.9","48363","Palo Pinto","{""48363"": 90.78, ""48367"": 9.22}","Palo Pinto|Parker","48363|48367","FALSE","FALSE","America/Chicago"
"76070","32.24291","-97.64991","Nemo","TX","Texas","TRUE","","814","13.9","48425","Somervell","{""48425"": 90.9, ""48251"": 9.1}","Somervell|Johnson","48425|48251","FALSE","FALSE","America/Chicago"
"76071","33.00613","-97.47821","Newark","TX","Texas","TRUE","","4242","184.8","48497","Wise","{""48497"": 95.08, ""48439"": 4.92}","Wise|Tarrant","48497|48439","FALSE","FALSE","America/Chicago"
"76073","33.10416","-97.72571","Paradise","TX","Texas","TRUE","","6443","29.6","48497","Wise","{""48497"": 100}","Wise","48497","FALSE","FALSE","America/Chicago"
"76077","32.27886","-97.70891","Rainbow","TX","Texas","TRUE","","491","20.5","48425","Somervell","{""48425"": 100}","Somervell","48425","FALSE","FALSE","America/Chicago"
"76078","33.0896","-97.46647","Rhome","TX","Texas","TRUE","","8753","52.7","48497","Wise","{""48497"": 99.61, ""48121"": 0.39}","Wise|Denton","48497|48121","FALSE","FALSE","America/Chicago"
"76082","32.97098","-97.71783","Springtown","TX","Texas","TRUE","","22082","83.0","48367","Parker","{""48367"": 73.79, ""48497"": 26.21}","Parker|Wise","48367|48497","FALSE","FALSE","America/Chicago"
"76084","32.43258","-97.0888","Venus","TX","Texas","TRUE","","10375","77.3","48251","Johnson","{""48251"": 52.2, ""48139"": 47.8}","Johnson|Ellis","48251|48139","FALSE","FALSE","America/Chicago"
"76085","32.84907","-97.70051","Weatherford","TX","Texas","TRUE","","11143","65.8","48367","Parker","{""48367"": 100}","Parker","48367","FALSE","FALSE","America/Chicago"
"76086","32.75345","-97.78909","Weatherford","TX","Texas","TRUE","","21054","587.5","48367","Parker","{""48367"": 100}","Parker","48367","FALSE","FALSE","America/Chicago"
"76087","32.66995","-97.79065","Weatherford","TX","Texas","TRUE","","28779","59.9","48367","Parker","{""48367"": 95.19, ""48221"": 4.81}","Parker|Hood","48367|48221","FALSE","FALSE","America/Chicago"
"76088","32.84554","-97.90345","Weatherford","TX","Texas","TRUE","","14669","35.1","48367","Parker","{""48367"": 100}","Parker","48367","FALSE","FALSE","America/Chicago"
"76092","32.95562","-97.14879","Southlake","TX","Texas","TRUE","","31276","532.9","48439","Tarrant","{""48439"": 90.68, ""48121"": 9.32}","Tarrant|Denton","48439|48121","FALSE","FALSE","America/Chicago"
"76093","32.21459","-97.40098","Rio Vista","TX","Texas","TRUE","","3239","36.5","48251","Johnson","{""48251"": 80.11, ""48217"": 19.89}","Johnson|Hill","48251|48217","FALSE","FALSE","America/Chicago"
"76102","32.75799","-97.32858","Fort Worth","TX","Texas","TRUE","","10650","911.9","48439","Tarrant","{""48439"": 100}","Tarrant","48439","FALSE","FALSE","America/Chicago"
"76103","32.75282","-97.26627","Fort Worth","TX","Texas","TRUE","","17363","1097.5","48439","Tarrant","{""48439"": 100}","Tarrant","48439","FALSE","FALSE","America/Chicago"
"76104","32.72848","-97.31819","Fort Worth","TX","Texas","TRUE","","18956","1246.7","48439","Tarrant","{""48439"": 100}","Tarrant","48439","FALSE","FALSE","America/Chicago"
"76105","32.72327","-97.26999","Fort Worth","TX","Texas","TRUE","","24277","1590.7","48439","Tarrant","{""48439"": 100}","Tarrant","48439","FALSE","FALSE","America/Chicago"
"76106","32.81417","-97.35209","Fort Worth","TX","Texas","TRUE","","37437","998.4","48439","Tarrant","{""48439"": 100}","Tarrant","48439","FALSE","FALSE","America/Chicago"
"76107","32.74176","-97.38202","Fort Worth","TX","Texas","TRUE","","29929","1078.4","48439","Tarrant","{""48439"": 100}","Tarrant","48439","FALSE","FALSE","America/Chicago"
"76108","32.77943","-97.51811","Fort Worth","TX","Texas","TRUE","","44125","395.3","48439","Tarrant","{""48439"": 73.1, ""48367"": 26.9}","Tarrant|Parker","48439|48367","FALSE","FALSE","America/Chicago"
"76109","32.70115","-97.38378","Fort Worth","TX","Texas","TRUE","","24606","1163.6","48439","Tarrant","{""48439"": 100}","Tarrant","48439","FALSE","FALSE","America/Chicago"
"76110","32.70678","-97.33843","Fort Worth","TX","Texas","TRUE","","33505","2257.0","48439","Tarrant","{""48439"": 100}","Tarrant","48439","FALSE","FALSE","America/Chicago"
"76111","32.7804","-97.30116","Fort Worth","TX","Texas","TRUE","","21591","1124.4","48439","Tarrant","{""48439"": 100}","Tarrant","48439","FALSE","FALSE","America/Chicago"
"76112","32.74831","-97.21828","Fort Worth","TX","Texas","TRUE","","42404","1445.0","48439","Tarrant","{""48439"": 100}","Tarrant","48439","FALSE","FALSE","America/Chicago"
"76114","32.77365","-97.40417","Fort Worth","TX","Texas","TRUE","","27683","1103.5","48439","Tarrant","{""48439"": 100}","Tarrant","48439","FALSE","FALSE","America/Chicago"
"76115","32.67861","-97.33117","Fort Worth","TX","Texas","TRUE","","21824","1814.1","48439","Tarrant","{""48439"": 100}","Tarrant","48439","FALSE","FALSE","America/Chicago"
"76116","32.72128","-97.44766","Fort Worth","TX","Texas","TRUE","","49319","1550.2","48439","Tarrant","{""48439"": 100}","Tarrant","48439","FALSE","FALSE","America/Chicago"
"76117","32.80374","-97.26766","Haltom City","TX","Texas","TRUE","","32438","1150.9","48439","Tarrant","{""48439"": 100}","Tarrant","48439","FALSE","FALSE","America/Chicago"
"76118","32.79606","-97.1972","Fort Worth","TX","Texas","TRUE","","16674","666.7","48439","Tarrant","{""48439"": 100}","Tarrant","48439","FALSE","FALSE","America/Chicago"
"76119","32.69026","-97.26176","Fort Worth","TX","Texas","TRUE","","51037","1236.7","48439","Tarrant","{""48439"": 100}","Tarrant","48439","FALSE","FALSE","America/Chicago"
"76120","32.76742","-97.18286","Fort Worth","TX","Texas","TRUE","","20518","1058.6","48439","Tarrant","{""48439"": 100}","Tarrant","48439","FALSE","FALSE","America/Chicago"
"76123","32.62298","-97.40262","Fort Worth","TX","Texas","TRUE","","38575","1408.2","48439","Tarrant","{""48439"": 100}","Tarrant","48439","FALSE","FALSE","America/Chicago"
"76126","32.64374","-97.51767","Fort Worth","TX","Texas","TRUE","","24946","140.2","48439","Tarrant","{""48439"": 74.82, ""48367"": 25.18}","Tarrant|Parker","48439|48367","FALSE","FALSE","America/Chicago"
"76127","32.77663","-97.43044","Naval Air Station Jrb","TX","Texas","TRUE","","1781","317.4","48439","Tarrant","{""48439"": 100}","Tarrant","48439","FALSE","FALSE","America/Chicago"
"76129","32.70934","-97.36255","Fort Worth","TX","Texas","TRUE","","1700","7894.6","48439","Tarrant","{""48439"": 100}","Tarrant","48439","FALSE","FALSE","America/Chicago"
"76131","32.88227","-97.34895","Fort Worth","TX","Texas","TRUE","","47569","1182.0","48439","Tarrant","{""48439"": 100}","Tarrant","48439","FALSE","FALSE","America/Chicago"
"76132","32.66743","-97.41827","Fort Worth","TX","Texas","TRUE","","26437","1376.4","48439","Tarrant","{""48439"": 100}","Tarrant","48439","FALSE","FALSE","America/Chicago"
"76133","32.6538","-97.37746","Fort Worth","TX","Texas","TRUE","","54186","2244.0","48439","Tarrant","{""48439"": 100}","Tarrant","48439","FALSE","FALSE","America/Chicago"
"76134","32.64331","-97.33103","Fort Worth","TX","Texas","TRUE","","29208","1310.8","48439","Tarrant","{""48439"": 100}","Tarrant","48439","FALSE","FALSE","America/Chicago"
"76135","32.83708","-97.46621","Fort Worth","TX","Texas","TRUE","","18939","285.2","48439","Tarrant","{""48439"": 100}","Tarrant","48439","FALSE","FALSE","America/Chicago"
"76137","32.85864","-97.29137","Fort Worth","TX","Texas","TRUE","","59273","1684.5","48439","Tarrant","{""48439"": 100}","Tarrant","48439","FALSE","FALSE","America/Chicago"
"76140","32.62012","-97.27036","Fort Worth","TX","Texas","TRUE","","31703","448.3","48439","Tarrant","{""48439"": 100}","Tarrant","48439","FALSE","FALSE","America/Chicago"
"76148","32.86789","-97.25197","Fort Worth","TX","Texas","TRUE","","24578","2015.6","48439","Tarrant","{""48439"": 100}","Tarrant","48439","FALSE","FALSE","America/Chicago"
"76155","32.82404","-97.04911","Fort Worth","TX","Texas","TRUE","","6427","704.0","48439","Tarrant","{""48439"": 100}","Tarrant","48439","FALSE","FALSE","America/Chicago"
"76164","32.7808","-97.35411","Fort Worth","TX","Texas","TRUE","","14081","1377.0","48439","Tarrant","{""48439"": 100}","Tarrant","48439","FALSE","FALSE","America/Chicago"
"76177","32.96999","-97.30611","Fort Worth","TX","Texas","TRUE","","19320","362.1","48439","Tarrant","{""48439"": 67.26, ""48121"": 32.74}","Tarrant|Denton","48439|48121","FALSE","FALSE","America/Chicago"
"76179","32.91397","-97.43947","Fort Worth","TX","Texas","TRUE","","70425","524.3","48439","Tarrant","{""48439"": 100}","Tarrant","48439","FALSE","FALSE","America/Chicago"
"76180","32.83994","-97.22468","North Richland Hills","TX","Texas","TRUE","","36974","1534.8","48439","Tarrant","{""48439"": 100}","Tarrant","48439","FALSE","FALSE","America/Chicago"
"76182","32.88257","-97.20969","North Richland Hills","TX","Texas","TRUE","","30911","1378.4","48439","Tarrant","{""48439"": 100}","Tarrant","48439","FALSE","FALSE","America/Chicago"
"76201","33.22122","-97.14715","Denton","TX","Texas","TRUE","","28415","2009.1","48121","Denton","{""48121"": 100}","Denton","48121","FALSE","FALSE","America/Chicago"
"76203","33.21213","-97.15181","Denton","TX","Texas","TRUE","","1178","48126.8","48121","Denton","{""48121"": 100}","Denton","48121","FALSE","FALSE","America/Chicago"
"76205","33.19074","-97.12894","Denton","TX","Texas","TRUE","","20365","946.1","48121","Denton","{""48121"": 100}","Denton","48121","FALSE","FALSE","America/Chicago"
"76207","33.22174","-97.18505","Denton","TX","Texas","TRUE","","15961","152.8","48121","Denton","{""48121"": 100}","Denton","48121","FALSE","FALSE","America/Chicago"
"76208","33.20917","-97.05786","Denton","TX","Texas","TRUE","","26598","375.2","48121","Denton","{""48121"": 100}","Denton","48121","FALSE","FALSE","America/Chicago"
"76209","33.2315","-97.11","Denton","TX","Texas","TRUE","","26660","1547.0","48121","Denton","{""48121"": 100}","Denton","48121","FALSE","FALSE","America/Chicago"
"76210","33.14985","-97.0962","Denton","TX","Texas","TRUE","","44367","1062.9","48121","Denton","{""48121"": 100}","Denton","48121","FALSE","FALSE","America/Chicago"
"76225","33.36616","-97.67345","Alvord","TX","Texas","TRUE","","3193","11.7","48497","Wise","{""48497"": 99.27, ""48337"": 0.73}","Wise|Montague","48497|48337","FALSE","FALSE","America/Chicago"
"76226","33.10775","-97.17196","Argyle","TX","Texas","TRUE","","34829","270.1","48121","Denton","{""48121"": 100}","Denton","48121","FALSE","FALSE","America/Chicago"
"76227","33.27465","-96.99075","Aubrey","TX","Texas","TRUE","","43088","212.2","48121","Denton","{""48121"": 100}","Denton","48121","FALSE","FALSE","America/Chicago"
"76228","33.61438","-98.06305","Bellevue","TX","Texas","TRUE","","1210","2.3","48077","Clay","{""48077"": 89.74, ""48337"": 10.26}","Clay|Montague","48077|48337","FALSE","FALSE","America/Chicago"
"76230","33.52264","-97.94497","Bowie","TX","Texas","TRUE","","9921","10.7","48337","Montague","{""48337"": 60.92, ""48237"": 31.33, ""48077"": 7.75}","Montague|Jack|Clay","48337|48237|48077","FALSE","FALSE","America/Chicago"
"76233","33.54025","-96.89696","Collinsville","TX","Texas","TRUE","","3535","22.6","48181","Grayson","{""48181"": 76.53, ""48097"": 23.47}","Grayson|Cooke","48181|48097","FALSE","FALSE","America/Chicago"
"76234","33.27587","-97.51404","Decatur","TX","Texas","TRUE","","19147","23.5","48497","Wise","{""48497"": 91.91, ""48097"": 5.88, ""48121"": 2.21}","Wise|Cooke|Denton","48497|48097|48121","FALSE","FALSE","America/Chicago"
"76238","33.4861","-97.34148","Era","TX","Texas","TRUE","","332","4.6","48097","Cooke","{""48097"": 100}","Cooke","48097","FALSE","FALSE","America/Chicago"
"76239","33.524","-97.57033","Forestburg","TX","Texas","TRUE","","1080","3.4","48337","Montague","{""48337"": 88.05, ""48097"": 11.95}","Montague|Cooke","48337|48097","FALSE","FALSE","America/Chicago"
