"zip","lat","lng","city","state_id","state_name","zcta","parent_zcta","population","density","county_fips","county_name","county_weights","county_names_all","county_fips_all","imprecise","military","timezone"
"37770","36.15239","-84.6418","Lancing","TN","Tennessee","TRUE","","2801","7.9","47129","Morgan","{""47129"": 100}","Morgan","47129","FALSE","FALSE","America/New_York"
"37771","35.8382","-84.31748","Lenoir City","TN","Tennessee","TRUE","","17837","137.3","47105","Loudon","{""47105"": 74.89, ""47145"": 25.11}","Loudon|Roane","47105|47145","FALSE","FALSE","America/New_York"
"37772","35.78775","-84.21876","Lenoir City","TN","Tennessee","TRUE","","13287","132.7","47105","Loudon","{""47105"": 99.88, ""47093"": 0.12}","Loudon|Knox","47105|47093","FALSE","FALSE","America/New_York"
"37774","35.7317","-84.35526","Loudon","TN","Tennessee","TRUE","","18914","82.8","47105","Loudon","{""47105"": 86.78, ""47145"": 12.08, ""47123"": 1.14}","Loudon|Roane|Monroe","47105|47145|47123","FALSE","FALSE","America/New_York"
"37777","35.82742","-84.05186","Louisville","TN","Tennessee","TRUE","","13113","154.0","47009","Blount","{""47009"": 100}","Blount","47009","FALSE","FALSE","America/New_York"
"37779","36.21093","-83.75793","Luttrell","TN","Tennessee","TRUE","","3505","39.2","47173","Union","{""47173"": 95.74, ""47093"": 4.05, ""47057"": 0.21}","Union|Knox|Grainger","47173|47093|47057","FALSE","FALSE","America/New_York"
"37801","35.67134","-84.08453","Maryville","TN","Tennessee","TRUE","","27724","154.3","47009","Blount","{""47009"": 87.63, ""47123"": 12.37}","Blount|Monroe","47009|47123","FALSE","FALSE","America/New_York"
"37803","35.67115","-83.97761","Maryville","TN","Tennessee","TRUE","","32701","143.9","47009","Blount","{""47009"": 100}","Blount","47009","FALSE","FALSE","America/New_York"
"37804","35.79228","-83.89311","Maryville","TN","Tennessee","TRUE","","26934","298.3","47009","Blount","{""47009"": 100}","Blount","47009","FALSE","FALSE","America/New_York"
"37806","36.08645","-83.72368","Mascot","TN","Tennessee","TRUE","","3156","67.0","47093","Knox","{""47093"": 88.47, ""47057"": 11.53}","Knox|Grainger","47093|47057","FALSE","FALSE","America/New_York"
"37807","36.25955","-83.82702","Maynardville","TN","Tennessee","TRUE","","11338","54.8","47173","Union","{""47173"": 99.37, ""47093"": 0.63}","Union|Knox","47173|47093","FALSE","FALSE","America/New_York"
"37809","36.15431","-83.03611","Midway","TN","Tennessee","TRUE","","2179","27.2","47059","Greene","{""47059"": 100}","Greene","47059","FALSE","FALSE","America/New_York"
"37810","36.17984","-83.10296","Mohawk","TN","Tennessee","TRUE","","1906","21.9","47059","Greene","{""47059"": 100}","Greene","47059","FALSE","FALSE","America/New_York"
"37811","36.35558","-83.2144","Mooresburg","TN","Tennessee","TRUE","","4203","42.0","47073","Hawkins","{""47073"": 98.39, ""47057"": 1.61}","Hawkins|Grainger","47073|47057","FALSE","FALSE","America/New_York"
"37813","36.17644","-83.26542","Morristown","TN","Tennessee","TRUE","","17458","116.2","47063","Hamblen","{""47063"": 97.36, ""47089"": 2.64}","Hamblen|Jefferson","47063|47089","FALSE","FALSE","America/New_York"
"37814","36.23604","-83.3317","Morristown","TN","Tennessee","TRUE","","34138","300.5","47063","Hamblen","{""47063"": 100}","Hamblen","47063","FALSE","FALSE","America/New_York"
"37818","36.18581","-82.97233","Mosheim","TN","Tennessee","TRUE","","5378","45.0","47059","Greene","{""47059"": 99.77, ""47029"": 0.23}","Greene|Cocke","47059|47029","FALSE","FALSE","America/New_York"
"37819","36.55649","-84.21169","Newcomb","TN","Tennessee","TRUE","","648","11.9","47013","Campbell","{""47013"": 100}","Campbell","47013","FALSE","FALSE","America/New_York"
"37820","36.08364","-83.56715","New Market","TN","Tennessee","TRUE","","7213","41.2","47089","Jefferson","{""47089"": 100}","Jefferson","47089","FALSE","FALSE","America/New_York"
"37821","35.97688","-83.19506","Newport","TN","Tennessee","TRUE","","21710","64.6","47029","Cocke","{""47029"": 99.8, ""47089"": 0.2}","Cocke|Jefferson","47029|47089","FALSE","FALSE","America/New_York"
"37825","36.41221","-83.68196","New Tazewell","TN","Tennessee","TRUE","","8850","39.3","47025","Claiborne","{""47025"": 94.81, ""47173"": 5.19}","Claiborne|Union","47025|47173","FALSE","FALSE","America/New_York"
"37826","35.55825","-84.58984","Niota","TN","Tennessee","TRUE","","4394","31.6","47107","McMinn","{""47107"": 98.73, ""47121"": 1.27}","McMinn|Meigs","47107|47121","FALSE","FALSE","America/New_York"
"37828","36.19788","-84.06889","Norris","TN","Tennessee","TRUE","","1489","179.4","47001","Anderson","{""47001"": 100}","Anderson","47001","FALSE","FALSE","America/New_York"
"37829","36.00094","-84.61331","Oakdale","TN","Tennessee","TRUE","","1899","16.6","47129","Morgan","{""47129"": 100}","Morgan","47129","FALSE","FALSE","America/New_York"
"37830","35.96431","-84.29221","Oak Ridge","TN","Tennessee","TRUE","","31633","144.0","47001","Anderson","{""47001"": 52.24, ""47145"": 47.23, ""47093"": 0.53}","Anderson|Roane|Knox","47001|47145|47093","FALSE","FALSE","America/New_York"
"37840","36.05849","-84.37047","Oliver Springs","TN","Tennessee","TRUE","","10457","50.0","47129","Morgan","{""47129"": 44.27, ""47001"": 36.8, ""47145"": 18.92}","Morgan|Anderson|Roane","47129|47001|47145","FALSE","FALSE","America/New_York"
"37841","36.5088","-84.54665","Oneida","TN","Tennessee","TRUE","","9601","25.2","47151","Scott","{""47151"": 100}","Scott","47151","FALSE","FALSE","America/New_York"
"37843","36.01137","-83.04979","Parrottsville","TN","Tennessee","TRUE","","4265","31.2","47029","Cocke","{""47029"": 100}","Cocke","47029","FALSE","FALSE","America/New_York"
"37845","36.10369","-84.45022","Petros","TN","Tennessee","TRUE","","374","36.1","47129","Morgan","{""47129"": 100}","Morgan","47129","FALSE","FALSE","America/New_York"
"37846","35.68008","-84.48505","Philadelphia","TN","Tennessee","TRUE","","4154","22.1","47105","Loudon","{""47105"": 42.7, ""47145"": 38.7, ""47123"": 14.53, ""47107"": 3.94, ""47121"": 0.13}","Loudon|Roane|Monroe|McMinn|Meigs","47105|47145|47123|47107|47121","FALSE","FALSE","America/New_York"
"37847","36.43156","-84.27346","Pioneer","TN","Tennessee","TRUE","","2893","7.7","47013","Campbell","{""47013"": 81.65, ""47151"": 18.35}","Campbell|Scott","47013|47151","FALSE","FALSE","America/New_York"
"37848","36.23701","-83.68179","Powder Springs","TN","Tennessee","TRUE","","79","3.8","47057","Grainger","{""47057"": 74.67, ""47173"": 25.33}","Grainger|Union","47057|47173","FALSE","FALSE","America/New_York"
"37849","36.0578","-84.04476","Powell","TN","Tennessee","TRUE","","28971","281.5","47093","Knox","{""47093"": 70.79, ""47001"": 29.21}","Knox|Anderson","47093|47001","FALSE","FALSE","America/New_York"
"37851","36.56558","-83.79244","Pruden","TN","Tennessee","TRUE","","0","0.0","47025","Claiborne","{""47025"": 100}","Claiborne","47025","FALSE","FALSE","America/New_York"
"37852","36.32365","-84.57454","Robbins","TN","Tennessee","TRUE","","3084","11.4","47151","Scott","{""47151"": 90.73, ""47129"": 9.27}","Scott|Morgan","47151|47129","FALSE","FALSE","America/New_York"
"37853","35.83723","-83.90854","Rockford","TN","Tennessee","TRUE","","3347","77.1","47009","Blount","{""47009"": 91.22, ""47093"": 8.78}","Blount|Knox","47009|47093","FALSE","FALSE","America/New_York"
"37854","35.88004","-84.71454","Rockwood","TN","Tennessee","TRUE","","12290","34.8","47145","Roane","{""47145"": 47.68, ""47035"": 39.65, ""47129"": 12.66}","Roane|Cumberland|Morgan","47145|47035|47129","FALSE","FALSE","America/Chicago"
"37857","36.42145","-82.94269","Rogersville","TN","Tennessee","TRUE","","20383","33.4","47073","Hawkins","{""47073"": 99.4, ""47163"": 0.6}","Hawkins|Sullivan","47073|47163","FALSE","FALSE","America/New_York"
"37860","36.24492","-83.18441","Russellville","TN","Tennessee","TRUE","","3964","63.6","47063","Hamblen","{""47063"": 100}","Hamblen","47063","FALSE","FALSE","America/New_York"
"37861","36.24516","-83.51421","Rutledge","TN","Tennessee","TRUE","","8196","32.1","47057","Grainger","{""47057"": 100}","Grainger","47057","FALSE","FALSE","America/New_York"
"37862","35.78314","-83.61232","Sevierville","TN","Tennessee","TRUE","","23016","108.7","47155","Sevier","{""47155"": 100}","Sevier","47155","FALSE","FALSE","America/New_York"
"37863","35.7864","-83.56367","Pigeon Forge","TN","Tennessee","TRUE","","6516","146.0","47155","Sevier","{""47155"": 100}","Sevier","47155","FALSE","FALSE","America/New_York"
"37865","35.84609","-83.73974","Seymour","TN","Tennessee","TRUE","","24701","130.1","47155","Sevier","{""47155"": 69.3, ""47009"": 30.7}","Sevier|Blount","47155|47009","FALSE","FALSE","America/New_York"
"37866","36.35017","-83.8517","Sharps Chapel","TN","Tennessee","TRUE","","1632","11.4","47173","Union","{""47173"": 100}","Union","47173","FALSE","FALSE","America/New_York"
"37869","36.51555","-83.24579","Sneedville","TN","Tennessee","TRUE","","4557","13.2","47067","Hancock","{""47067"": 88.44, ""47073"": 6.7, ""47025"": 4.86}","Hancock|Hawkins|Claiborne","47067|47073|47025","FALSE","FALSE","America/New_York"
"37870","36.46319","-83.83562","Speedwell","TN","Tennessee","TRUE","","4175","19.4","47025","Claiborne","{""47025"": 73.2, ""47013"": 15.26, ""47173"": 11.54}","Claiborne|Campbell|Union","47025|47013|47173","FALSE","FALSE","America/New_York"
"37871","36.04693","-83.67932","Strawberry Plains","TN","Tennessee","TRUE","","9101","89.9","47093","Knox","{""47093"": 45.44, ""47089"": 42.93, ""47155"": 11.63}","Knox|Jefferson|Sevier","47093|47089|47155","FALSE","FALSE","America/New_York"
"37872","36.26869","-84.68119","Sunbright","TN","Tennessee","TRUE","","1978","8.3","47129","Morgan","{""47129"": 86.35, ""47151"": 13.65}","Morgan|Scott","47129|47151","FALSE","FALSE","America/New_York"
"37873","36.52446","-82.84754","Surgoinsville","TN","Tennessee","TRUE","","4285","26.4","47073","Hawkins","{""47073"": 100}","Hawkins","47073","FALSE","FALSE","America/New_York"
"37874","35.59749","-84.45823","Sweetwater","TN","Tennessee","TRUE","","15490","58.1","47123","Monroe","{""47123"": 70.29, ""47107"": 20.58, ""47105"": 8.72, ""47145"": 0.41}","Monroe|McMinn|Loudon|Roane","47123|47107|47105|47145","FALSE","FALSE","America/New_York"
"37876","35.8645","-83.47876","Sevierville","TN","Tennessee","TRUE","","32305","66.8","47155","Sevier","{""47155"": 91.46, ""47089"": 8.54}","Sevier|Jefferson","47155|47089","FALSE","FALSE","America/New_York"
"37877","36.15176","-83.40503","Talbott","TN","Tennessee","TRUE","","8922","130.2","47089","Jefferson","{""47089"": 55.4, ""47063"": 44.6}","Jefferson|Hamblen","47089|47063","FALSE","FALSE","America/New_York"
"37878","35.59406","-83.98358","Tallassee","TN","Tennessee","TRUE","","404","6.0","47009","Blount","{""47009"": 100}","Blount","47009","FALSE","FALSE","America/New_York"
"37879","36.48403","-83.48705","Tazewell","TN","Tennessee","TRUE","","11509","25.4","47025","Claiborne","{""47025"": 80.38, ""47067"": 19.62}","Claiborne|Hancock","47025|47067","FALSE","FALSE","America/New_York"
"37880","35.7012","-84.66453","Ten Mile","TN","Tennessee","TRUE","","3927","20.6","47121","Meigs","{""47121"": 56.61, ""47145"": 42.93, ""47107"": 0.46}","Meigs|Roane|McMinn","47121|47145|47107","FALSE","FALSE","America/New_York"
"37881","36.39861","-83.34393","Thorn Hill","TN","Tennessee","TRUE","","1871","10.1","47057","Grainger","{""47057"": 56.61, ""47067"": 35.83, ""47073"": 6.99, ""47025"": 0.57}","Grainger|Hancock|Hawkins|Claiborne","47057|47067|47073|47025","FALSE","FALSE","America/New_York"
"37882","35.60335","-83.82118","Townsend","TN","Tennessee","TRUE","","2848","6.0","47009","Blount","{""47009"": 100}","Blount","47009","FALSE","FALSE","America/New_York"
"37885","35.50392","-84.12539","Vonore","TN","Tennessee","TRUE","","5958","15.9","47123","Monroe","{""47123"": 97.86, ""47105"": 2.14}","Monroe|Loudon","47123|47105","FALSE","FALSE","America/New_York"
"37886","35.74142","-83.80747","Walland","TN","Tennessee","TRUE","","4678","42.6","47009","Blount","{""47009"": 100}","Blount","47009","FALSE","FALSE","America/New_York"
"37887","36.0772","-84.61573","Wartburg","TN","Tennessee","TRUE","","7224","34.3","47129","Morgan","{""47129"": 100}","Morgan","47129","FALSE","FALSE","America/New_York"
"37888","36.31063","-83.61266","Washburn","TN","Tennessee","TRUE","","3428","23.7","47057","Grainger","{""47057"": 90.97, ""47173"": 9.03}","Grainger|Union","47057|47173","FALSE","FALSE","America/New_York"
"37890","36.08144","-83.29299","White Pine","TN","Tennessee","TRUE","","7708","86.3","47089","Jefferson","{""47089"": 94.1, ""47063"": 5.9}","Jefferson|Hamblen","47089|47063","FALSE","FALSE","America/New_York"
"37891","36.29172","-83.13992","Whitesburg","TN","Tennessee","TRUE","","3597","39.8","47063","Hamblen","{""47063"": 64.91, ""47073"": 35.09}","Hamblen|Hawkins","47063|47073","FALSE","FALSE","America/New_York"
"37892","36.55666","-84.37132","Winfield","TN","Tennessee","TRUE","","2067","11.3","47151","Scott","{""47151"": 100}","Scott","47151","FALSE","FALSE","America/New_York"
"37902","35.96203","-83.92039","Knoxville","TN","Tennessee","TRUE","","2371","2071.0","47093","Knox","{""47093"": 100}","Knox","47093","FALSE","FALSE","America/New_York"
"37909","35.94716","-84.02275","Knoxville","TN","Tennessee","TRUE","","16192","919.3","47093","Knox","{""47093"": 100}","Knox","47093","FALSE","FALSE","America/New_York"
"37912","36.00849","-83.98465","Knoxville","TN","Tennessee","TRUE","","21729","794.6","47093","Knox","{""47093"": 100}","Knox","47093","FALSE","FALSE","America/New_York"
"37914","35.97988","-83.79937","Knoxville","TN","Tennessee","TRUE","","20482","199.1","47093","Knox","{""47093"": 100}","Knox","47093","FALSE","FALSE","America/New_York"
"37915","35.97057","-83.90002","Knoxville","TN","Tennessee","TRUE","","5200","1065.4","47093","Knox","{""47093"": 100}","Knox","47093","FALSE","FALSE","America/New_York"
"37916","35.95309","-83.9335","Knoxville","TN","Tennessee","TRUE","","13967","3827.2","47093","Knox","{""47093"": 100}","Knox","47093","FALSE","FALSE","America/New_York"
"37917","36.00156","-83.91265","Knoxville","TN","Tennessee","TRUE","","25671","1043.1","47093","Knox","{""47093"": 100}","Knox","47093","FALSE","FALSE","America/New_York"
"37918","36.0599","-83.91082","Knoxville","TN","Tennessee","TRUE","","46160","515.7","47093","Knox","{""47093"": 100}","Knox","47093","FALSE","FALSE","America/New_York"
"37919","35.91429","-84.00106","Knoxville","TN","Tennessee","TRUE","","29796","602.1","47093","Knox","{""47093"": 100}","Knox","47093","FALSE","FALSE","America/New_York"
"37920","35.91084","-83.85909","Knoxville","TN","Tennessee","TRUE","","41826","223.4","47093","Knox","{""47093"": 99.33, ""47009"": 0.67}","Knox|Blount","47093|47009","FALSE","FALSE","America/New_York"
"37921","35.97877","-84.00028","Knoxville","TN","Tennessee","TRUE","","28397","689.5","47093","Knox","{""47093"": 100}","Knox","47093","FALSE","FALSE","America/New_York"
"37922","35.86124","-84.10127","Knoxville","TN","Tennessee","TRUE","","39158","545.3","47093","Knox","{""47093"": 99.35, ""47105"": 0.65}","Knox|Loudon","47093|47105","FALSE","FALSE","America/New_York"
"37923","35.92697","-84.08076","Knoxville","TN","Tennessee","TRUE","","31893","1110.6","47093","Knox","{""47093"": 100}","Knox","47093","FALSE","FALSE","America/New_York"
"37924","36.03554","-83.80211","Knoxville","TN","Tennessee","TRUE","","13354","185.0","47093","Knox","{""47093"": 100}","Knox","47093","FALSE","FALSE","America/New_York"
"37929","35.96241","-83.91597","Knoxville","TN","Tennessee","TRUE","","0","0.0","47093","Knox","{""47093"": 100}","Knox","47093","FALSE","FALSE","America/New_York"
"37931","35.97611","-84.12496","Knoxville","TN","Tennessee","TRUE","","29749","404.9","47093","Knox","{""47093"": 91.49, ""47001"": 8.51}","Knox|Anderson","47093|47001","FALSE","FALSE","America/New_York"
"37932","35.92273","-84.19562","Knoxville","TN","Tennessee","TRUE","","19661","261.8","47093","Knox","{""47093"": 100}","Knox","47093","FALSE","FALSE","America/New_York"
"37934","35.87338","-84.17882","Farragut","TN","Tennessee","TRUE","","27423","607.6","47093","Knox","{""47093"": 100}","Knox","47093","FALSE","FALSE","America/New_York"
"37938","36.12499","-83.93815","Knoxville","TN","Tennessee","TRUE","","17021","203.1","47093","Knox","{""47093"": 99.02, ""47173"": 0.6, ""47001"": 0.38}","Knox|Union|Anderson","47093|47173|47001","FALSE","FALSE","America/New_York"
"38001","35.81323","-89.15505","Alamo","TN","Tennessee","TRUE","","4384","25.1","47033","Crockett","{""47033"": 100}","Crockett","47033","FALSE","FALSE","America/Chicago"
"38002","35.28854","-89.70926","Arlington","TN","Tennessee","TRUE","","43098","143.1","47157","Shelby","{""47157"": 86.87, ""47047"": 13.13}","Shelby|Fayette","47157|47047","FALSE","FALSE","America/Chicago"
"38004","35.41909","-89.76687","Atoka","TN","Tennessee","TRUE","","11282","159.3","47167","Tipton","{""47167"": 79.21, ""47157"": 20.79}","Tipton|Shelby","47167|47157","FALSE","FALSE","America/Chicago"
"38006","35.69507","-89.09761","Bells","TN","Tennessee","TRUE","","5259","20.0","47075","Haywood","{""47075"": 48.49, ""47033"": 45.32, ""47113"": 6.18}","Haywood|Crockett|Madison","47075|47033|47113","FALSE","FALSE","America/Chicago"
"38007","36.16422","-89.43925","Bogota","TN","Tennessee","TRUE","","13","90.2","47045","Dyer","{""47045"": 100}","Dyer","47045","FALSE","FALSE","America/Chicago"
"38008","35.24455","-88.99879","Bolivar","TN","Tennessee","TRUE","","8427","21.2","47069","Hardeman","{""47069"": 100}","Hardeman","47069","FALSE","FALSE","America/Chicago"
"38011","35.47266","-89.71415","Brighton","TN","Tennessee","TRUE","","9666","65.4","47167","Tipton","{""47167"": 96.84, ""47157"": 3.16}","Tipton|Shelby","47167|47157","FALSE","FALSE","America/Chicago"
"38012","35.60959","-89.27085","Brownsville","TN","Tennessee","TRUE","","13185","18.7","47075","Haywood","{""47075"": 100}","Haywood","47075","FALSE","FALSE","America/Chicago"
"38015","35.55948","-89.82436","Burlison","TN","Tennessee","TRUE","","2248","20.5","47167","Tipton","{""47167"": 100}","Tipton","47167","FALSE","FALSE","America/Chicago"
"38016","35.17956","-89.76046","Cordova","TN","Tennessee","TRUE","","45170","962.9","47157","Shelby","{""47157"": 100}","Shelby","47157","FALSE","FALSE","America/Chicago"
"38017","35.06722","-89.65347","Collierville","TN","Tennessee","TRUE","","55161","259.9","47157","Shelby","{""47157"": 56.54, ""47047"": 43.46}","Shelby|Fayette","47157|47047","FALSE","FALSE","America/Chicago"
"38018","35.13781","-89.76647","Cordova","TN","Tennessee","TRUE","","38789","802.7","47157","Shelby","{""47157"": 100}","Shelby","47157","FALSE","FALSE","America/Chicago"
"38019","35.56114","-89.6304","Covington","TN","Tennessee","TRUE","","15408","42.3","47167","Tipton","{""47167"": 100}","Tipton","47167","FALSE","FALSE","America/Chicago"
"38021","35.87042","-89.18411","Crockett Mills","TN","Tennessee","TRUE","","12","6.9","47033","Crockett","{""47033"": 100}","Crockett","47033","FALSE","FALSE","America/Chicago"
"38023","35.47468","-89.95114","Drummonds","TN","Tennessee","TRUE","","5618","28.7","47167","Tipton","{""47167"": 100}","Tipton","47167","FALSE","FALSE","America/Chicago"
"38024","36.03743","-89.38511","Dyersburg","TN","Tennessee","TRUE","","26306","71.0","47045","Dyer","{""47045"": 100}","Dyer","47045","FALSE","FALSE","America/Chicago"
"38028","35.18486","-89.63474","Eads","TN","Tennessee","TRUE","","7782","50.8","47047","Fayette","{""47047"": 53.22, ""47157"": 46.78}","Fayette|Shelby","47047|47157","FALSE","FALSE","America/Chicago"
"38029","35.24205","-89.82351","Ellendale","TN","Tennessee","TRUE","","29","83.7","47157","Shelby","{""47157"": 100}","Shelby","47157","FALSE","FALSE","America/Chicago"
"38030","35.99942","-89.59981","Finley","TN","Tennessee","TRUE","","394","1.4","47045","Dyer","{""47045"": 100}","Dyer","47045","FALSE","FALSE","America/Chicago"
"38034","35.91273","-89.236","Friendship","TN","Tennessee","TRUE","","3297","12.4","47033","Crockett","{""47033"": 65.63, ""47045"": 34.37}","Crockett|Dyer","47033|47045","FALSE","FALSE","America/Chicago"
"38036","35.32715","-89.61941","Gallaway","TN","Tennessee","TRUE","","246","417.3","47047","Fayette","{""47047"": 100}","Fayette","47047","FALSE","FALSE","America/Chicago"
"38037","35.79433","-89.39232","Gates","TN","Tennessee","TRUE","","1203","10.1","47075","Haywood","{""47075"": 59.14, ""47097"": 40.86}","Haywood|Lauderdale","47075|47097","FALSE","FALSE","America/Chicago"
"38039","35.0571","-89.18545","Grand Junction","TN","Tennessee","TRUE","","1658","9.5","47069","Hardeman","{""47069"": 57.53, ""47047"": 42.47}","Hardeman|Fayette","47069|47047","FALSE","FALSE","America/Chicago"
"38040","35.88185","-89.48065","Halls","TN","Tennessee","TRUE","","4762","14.0","47097","Lauderdale","{""47097"": 72.73, ""47033"": 18.74, ""47045"": 8.53}","Lauderdale|Crockett|Dyer","47097|47033|47045","FALSE","FALSE","America/Chicago"
"38041","35.64397","-89.70204","Henning","TN","Tennessee","TRUE","","4718","17.8","47097","Lauderdale","{""47097"": 100}","Lauderdale","47097","FALSE","FALSE","America/Chicago"
"38042","35.15059","-89.13848","Hickory Valley","TN","Tennessee","TRUE","","581","4.4","47069","Hardeman","{""47069"": 85.22, ""47047"": 14.78}","Hardeman|Fayette","47069|47047","FALSE","FALSE","America/Chicago"
"38044","35.20736","-88.80244","Hornsby","TN","Tennessee","TRUE","","532","4.9","47069","Hardeman","{""47069"": 81.29, ""47109"": 13.35, ""47023"": 5.36}","Hardeman|McNairy|Chester","47069|47109|47023","FALSE","FALSE","America/Chicago"
"38046","35.04598","-89.24408","La Grange","TN","Tennessee","TRUE","","8","35.1","47047","Fayette","{""47047"": 100}","Fayette","47047","FALSE","FALSE","America/Chicago"
"38047","36.06499","-89.55569","Lenox","TN","Tennessee","TRUE","","252","6.5","47045","Dyer","{""47045"": 100}","Dyer","47045","FALSE","FALSE","America/Chicago"
"38049","35.38689","-89.544","Mason","TN","Tennessee","TRUE","","4091","14.2","47047","Fayette","{""47047"": 62.52, ""47167"": 37.48}","Fayette|Tipton","47047|47167","FALSE","FALSE","America/Chicago"
"38050","35.81635","-89.22712","Maury City","TN","Tennessee","TRUE","","508","337.2","47033","Crockett","{""47033"": 100}","Crockett","47033","FALSE","FALSE","America/Chicago"
"38052","35.08574","-88.91308","Middleton","TN","Tennessee","TRUE","","3855","11.8","47069","Hardeman","{""47069"": 100}","Hardeman","47069","FALSE","FALSE","America/Chicago"
"38053","35.33583","-89.95","Millington","TN","Tennessee","TRUE","","26135","62.1","47157","Shelby","{""47157"": 92.6, ""47167"": 7.4}","Shelby|Tipton","47157|47167","FALSE","FALSE","America/Chicago"
"38054","35.3358","-89.8744","Millington","TN","Tennessee","TRUE","","200","247.9","47157","Shelby","{""47157"": 100}","Shelby","47157","FALSE","FALSE","America/Chicago"
"38057","35.05381","-89.36772","Moscow","TN","Tennessee","TRUE","","3392","12.3","47047","Fayette","{""47047"": 100}","Fayette","47047","FALSE","FALSE","America/Chicago"
"38058","35.45861","-89.81933","Munford","TN","Tennessee","TRUE","","10537","156.9","47167","Tipton","{""47167"": 100}","Tipton","47167","FALSE","FALSE","America/Chicago"
"38059","36.11132","-89.24113","Newbern","TN","Tennessee","TRUE","","7910","23.3","47045","Dyer","{""47045"": 86.62, ""47053"": 13.38}","Dyer|Gibson","47045|47053","FALSE","FALSE","America/Chicago"
"38060","35.21214","-89.50468","Oakland","TN","Tennessee","TRUE","","10752","92.5","47047","Fayette","{""47047"": 100}","Fayette","47047","FALSE","FALSE","America/Chicago"
"38061","35.06704","-88.7647","Pocahontas","TN","Tennessee","TRUE","","1240","7.0","47109","McNairy","{""47109"": 71.68, ""47069"": 28.32}","McNairy|Hardeman","47109|47069","FALSE","FALSE","America/Chicago"
"38063","35.74598","-89.63412","Ripley","TN","Tennessee","TRUE","","16096","21.8","47097","Lauderdale","{""47097"": 90.91, ""47075"": 9.09}","Lauderdale|Haywood","47097|47075","FALSE","FALSE","America/Chicago"
"38066","35.07421","-89.53944","Rossville","TN","Tennessee","TRUE","","2925","19.6","47047","Fayette","{""47047"": 100}","Fayette","47047","FALSE","FALSE","America/Chicago"
"38067","35.08561","-89.04804","Saulsbury","TN","Tennessee","TRUE","","1508","9.9","47069","Hardeman","{""47069"": 100}","Hardeman","47069","FALSE","FALSE","America/Chicago"
"38068","35.25972","-89.3349","Somerville","TN","Tennessee","TRUE","","11407","17.0","47047","Fayette","{""47047"": 100}","Fayette","47047","FALSE","FALSE","America/Chicago"
"38069","35.46209","-89.37151","Stanton","TN","Tennessee","TRUE","","2841","7.8","47075","Haywood","{""47075"": 84.29, ""47167"": 12.79, ""47047"": 2.92}","Haywood|Tipton|Fayette","47075|47167|47047","FALSE","FALSE","America/Chicago"
"38070","35.94045","-89.24915","Tigrett","TN","Tennessee","TRUE","","79","18.1","47045","Dyer","{""47045"": 100}","Dyer","47045","FALSE","FALSE","America/Chicago"
"38075","35.37197","-89.15569","Whiteville","TN","Tennessee","TRUE","","7376","21.6","47069","Hardeman","{""47069"": 58.96, ""47075"": 28.58, ""47047"": 12.46}","Hardeman|Haywood|Fayette","47069|47075|47047","FALSE","FALSE","America/Chicago"
"38076","35.12301","-89.45633","Williston","TN","Tennessee","TRUE","","938","12.7","47047","Fayette","{""47047"": 100}","Fayette","47047","FALSE","FALSE","America/Chicago"
"38077","36.32852","-89.4744","Wynnburg","TN","Tennessee","TRUE","","37","599.2","47095","Lake","{""47095"": 100}","Lake","47095","FALSE","FALSE","America/Chicago"
"38079","36.41378","-89.47032","Tiptonville","TN","Tennessee","TRUE","","4859","17.0","47095","Lake","{""47095"": 87.04, ""21075"": 12.96}","Lake|Fulton","47095|21075","FALSE","FALSE","America/Chicago"
"38080","36.20295","-89.52142","Ridgely","TN","Tennessee","TRUE","","2600","7.2","47095","Lake","{""47095"": 52.4, ""47045"": 45.37, ""47131"": 2.23}","Lake|Dyer|Obion","47095|47045|47131","FALSE","FALSE","America/Chicago"
"38103","35.15308","-90.05518","Memphis","TN","Tennessee","TRUE","","14243","2072.8","47157","Shelby","{""47157"": 100}","Shelby","47157","FALSE","FALSE","America/Chicago"
"38104","35.13253","-90.00435","Memphis","TN","Tennessee","TRUE","","22900","1785.5","47157","Shelby","{""47157"": 100}","Shelby","47157","FALSE","FALSE","America/Chicago"
"38105","35.1512","-90.03541","Memphis","TN","Tennessee","TRUE","","5437","1241.9","47157","Shelby","{""47157"": 100}","Shelby","47157","FALSE","FALSE","America/Chicago"
"38106","35.10067","-90.0375","Memphis","TN","Tennessee","TRUE","","23745","881.7","47157","Shelby","{""47157"": 100}","Shelby","47157","FALSE","FALSE","America/Chicago"
"38107","35.17054","-90.02397","Memphis","TN","Tennessee","TRUE","","15071","1067.9","47157","Shelby","{""47157"": 100}","Shelby","47157","FALSE","FALSE","America/Chicago"
"38108","35.1763","-89.96382","Memphis","TN","Tennessee","TRUE","","17300","879.4","47157","Shelby","{""47157"": 100}","Shelby","47157","FALSE","FALSE","America/Chicago"
"38109","35.0341","-90.13533","Memphis","TN","Tennessee","TRUE","","44899","290.3","47157","Shelby","{""47157"": 100}","Shelby","47157","FALSE","FALSE","America/Chicago"
"38111","35.11014","-89.94429","Memphis","TN","Tennessee","TRUE","","40947","1617.5","47157","Shelby","{""47157"": 100}","Shelby","47157","FALSE","FALSE","America/Chicago"
"38112","35.14791","-89.97661","Memphis","TN","Tennessee","TRUE","","16437","1320.6","47157","Shelby","{""47157"": 100}","Shelby","47157","FALSE","FALSE","America/Chicago"
"38113","35.10198","-90.13285","Memphis","TN","Tennessee","TRUE","","0","0.0","47157","Shelby","{""47157"": 100}","Shelby","47157","FALSE","FALSE","America/Chicago"
"38114","35.09648","-89.98596","Memphis","TN","Tennessee","TRUE","","22580","1147.5","47157","Shelby","{""47157"": 100}","Shelby","47157","FALSE","FALSE","America/Chicago"
"38115","35.05499","-89.86362","Memphis","TN","Tennessee","TRUE","","37626","1692.6","47157","Shelby","{""47157"": 100}","Shelby","47157","FALSE","FALSE","America/Chicago"
"38116","35.03213","-90.01001","Memphis","TN","Tennessee","TRUE","","40854","803.3","47157","Shelby","{""47157"": 100}","Shelby","47157","FALSE","FALSE","America/Chicago"
"38117","35.11504","-89.90551","Memphis","TN","Tennessee","TRUE","","26584","1093.2","47157","Shelby","{""47157"": 100}","Shelby","47157","FALSE","FALSE","America/Chicago"
"38118","35.03655","-89.93021","Memphis","TN","Tennessee","TRUE","","38931","493.4","47157","Shelby","{""47157"": 100}","Shelby","47157","FALSE","FALSE","America/Chicago"
"38119","35.07986","-89.84593","Memphis","TN","Tennessee","TRUE","","24027","1052.3","47157","Shelby","{""47157"": 100}","Shelby","47157","FALSE","FALSE","America/Chicago"
"38120","35.12344","-89.85237","Memphis","TN","Tennessee","TRUE","","14724","590.9","47157","Shelby","{""47157"": 100}","Shelby","47157","FALSE","FALSE","America/Chicago"
"38122","35.1571","-89.92247","Memphis","TN","Tennessee","TRUE","","22961","1300.5","47157","Shelby","{""47157"": 100}","Shelby","47157","FALSE","FALSE","America/Chicago"
"38125","35.02537","-89.78936","Memphis","TN","Tennessee","TRUE","","42717","867.9","47157","Shelby","{""47157"": 100}","Shelby","47157","FALSE","FALSE","America/Chicago"
"38126","35.12695","-90.04378","Memphis","TN","Tennessee","TRUE","","5660","1176.2","47157","Shelby","{""47157"": 100}","Shelby","47157","FALSE","FALSE","America/Chicago"
"38127","35.23795","-90.01753","Memphis","TN","Tennessee","TRUE","","40820","417.3","47157","Shelby","{""47157"": 100}","Shelby","47157","FALSE","FALSE","America/Chicago"
"38128","35.22623","-89.92612","Memphis","TN","Tennessee","TRUE","","45087","736.4","47157","Shelby","{""47157"": 100}","Shelby","47157","FALSE","FALSE","America/Chicago"
"38131","35.06603","-89.99266","Memphis","TN","Tennessee","TRUE","","0","0.0","47157","Shelby","{""47157"": 100}","Shelby","47157","FALSE","FALSE","America/Chicago"
"38132","35.07069","-90.00033","Memphis","TN","Tennessee","TRUE","","81","40.2","47157","Shelby","{""47157"": 100}","Shelby","47157","FALSE","FALSE","America/Chicago"
"38133","35.21292","-89.79474","Memphis","TN","Tennessee","TRUE","","21702","645.3","47157","Shelby","{""47157"": 100}","Shelby","47157","FALSE","FALSE","America/Chicago"
"38134","35.17674","-89.85992","Memphis","TN","Tennessee","TRUE","","43991","914.4","47157","Shelby","{""47157"": 100}","Shelby","47157","FALSE","FALSE","America/Chicago"
"38135","35.23876","-89.8497","Memphis","TN","Tennessee","TRUE","","30438","911.9","47157","Shelby","{""47157"": 100}","Shelby","47157","FALSE","FALSE","America/Chicago"
"38138","35.08477","-89.7993","Germantown","TN","Tennessee","TRUE","","25459","829.0","47157","Shelby","{""47157"": 100}","Shelby","47157","FALSE","FALSE","America/Chicago"
"38139","35.08615","-89.75581","Germantown","TN","Tennessee","TRUE","","16265","721.5","47157","Shelby","{""47157"": 100}","Shelby","47157","FALSE","FALSE","America/Chicago"
"38141","35.01599","-89.85472","Memphis","TN","Tennessee","TRUE","","23299","1152.1","47157","Shelby","{""47157"": 100}","Shelby","47157","FALSE","FALSE","America/Chicago"
"38152","35.11843","-89.93743","Memphis","TN","Tennessee","TRUE","","880","3439.4","47157","Shelby","{""47157"": 100}","Shelby","47157","FALSE","FALSE","America/Chicago"
"38201","36.12335","-88.53131","McKenzie","TN","Tennessee","TRUE","","10306","28.6","47017","Carroll","{""47017"": 59.17, ""47183"": 27.4, ""47079"": 13.43}","Carroll|Weakley|Henry","47017|47183|47079","FALSE","FALSE","America/Chicago"
"38220","35.98836","-88.673","Atwood","TN","Tennessee","TRUE","","1703","17.1","47017","Carroll","{""47017"": 72.09, ""47053"": 27.91}","Carroll|Gibson","47017|47053","FALSE","FALSE","America/Chicago"
"38221","36.24552","-88.03685","Big Sandy","TN","Tennessee","TRUE","","2982","10.6","47005","Benton","{""47005"": 100}","Benton","47005","FALSE","FALSE","America/Chicago"
"38222","36.44512","-88.16288","Buchanan","TN","Tennessee","TRUE","","2213","12.4","47079","Henry","{""47079"": 100}","Henry","47079","FALSE","FALSE","America/Chicago"
"38224","36.39172","-88.48774","Cottage Grove","TN","Tennessee","TRUE","","828","5.3","47079","Henry","{""47079"": 88.06, ""47183"": 11.94}","Henry|Weakley","47079|47183","FALSE","FALSE","America/Chicago"
"38225","36.31764","-88.67937","Dresden","TN","Tennessee","TRUE","","5428","20.0","47183","Weakley","{""47183"": 100}","Weakley","47183","FALSE","FALSE","America/Chicago"
"38226","36.47722","-88.66382","Dukedom","TN","Tennessee","TRUE","","279","4.5","47183","Weakley","{""47183"": 100}","Weakley","47183","FALSE","FALSE","America/Chicago"
"38229","36.22108","-88.60939","Gleason","TN","Tennessee","TRUE","","2766","17.5","47183","Weakley","{""47183"": 98.61, ""47079"": 1.39}","Weakley|Henry","47183|47079","FALSE","FALSE","America/Chicago"
"38230","36.15592","-88.77154","Greenfield","TN","Tennessee","TRUE","","3885","17.5","47183","Weakley","{""47183"": 100}","Weakley","47183","FALSE","FALSE","America/Chicago"
"38231","36.21277","-88.42442","Henry","TN","Tennessee","TRUE","","1715","11.3","47079","Henry","{""47079"": 100}","Henry","47079","FALSE","FALSE","America/Chicago"
"38232","36.34828","-89.32295","Hornbeak","TN","Tennessee","TRUE","","2090","15.6","47131","Obion","{""47131"": 100}","Obion","47131","FALSE","FALSE","America/Chicago"
"38233","36.20411","-89.04622","Kenton","TN","Tennessee","TRUE","","2642","11.0","47053","Gibson","{""47053"": 51.33, ""47131"": 48.67}","Gibson|Obion","47053|47131","FALSE","FALSE","America/Chicago"
"38235","35.99116","-88.58109","McLemoresville","TN","Tennessee","TRUE","","182","51.2","47017","Carroll","{""47017"": 100}","Carroll","47017","FALSE","FALSE","America/Chicago"
"38236","36.17572","-88.26463","Mansfield","TN","Tennessee","TRUE","","736","6.9","47079","Henry","{""47079"": 100}","Henry","47079","FALSE","FALSE","America/Chicago"
"38237","36.36406","-88.83162","Martin","TN","Tennessee","TRUE","","15091","42.2","47183","Weakley","{""47183"": 96.53, ""47131"": 3.47}","Weakley|Obion","47183|47131","FALSE","FALSE","America/Chicago"
"38240","36.25091","-89.32045","Obion","TN","Tennessee","TRUE","","2104","9.5","47131","Obion","{""47131"": 89.42, ""47045"": 10.58}","Obion|Dyer","47131|47045","FALSE","FALSE","America/Chicago"
"38241","36.42852","-88.58964","Palmersville","TN","Tennessee","TRUE","","1022","6.6","47183","Weakley","{""47183"": 100}","Weakley","47183","FALSE","FALSE","America/Chicago"
"38242","36.3076","-88.33244","Paris","TN","Tennessee","TRUE","","20177","44.4","47079","Henry","{""47079"": 93.6, ""47183"": 6.4}","Henry|Weakley","47079|47183","FALSE","FALSE","America/Chicago"
"38251","36.44636","-88.3539","Puryear","TN","Tennessee","TRUE","","3149","13.6","47079","Henry","{""47079"": 100}","Henry","47079","FALSE","FALSE","America/Chicago"
"38253","36.29821","-89.05822","Rives","TN","Tennessee","TRUE","","1027","7.5","47131","Obion","{""47131"": 100}","Obion","47131","FALSE","FALSE","America/Chicago"
"38254","36.37444","-89.34662","Samburg","TN","Tennessee","TRUE","","0","0.0","47131","Obion","{""47131"": 100}","Obion","47131","FALSE","FALSE","America/Chicago"
"38255","36.23954","-88.86483","Sharon","TN","Tennessee","TRUE","","2550","20.0","47183","Weakley","{""47183"": 97.37, ""47131"": 2.63}","Weakley|Obion","47183|47131","FALSE","FALSE","America/Chicago"
"38256","36.31388","-88.12539","Springville","TN","Tennessee","TRUE","","3101","17.7","47079","Henry","{""47079"": 100}","Henry","47079","FALSE","FALSE","America/Chicago"
"38257","36.46386","-88.88397","South Fulton","TN","Tennessee","TRUE","","4273","29.8","47131","Obion","{""47131"": 85.93, ""47183"": 14.07}","Obion|Weakley","47131|47183","FALSE","FALSE","America/Chicago"
"38258","36.02094","-88.61188","Trezevant","TN","Tennessee","TRUE","","1485","17.7","47017","Carroll","{""47017"": 100}","Carroll","47017","FALSE","FALSE","America/Chicago"
"38259","36.20204","-89.18439","Trimble","TN","Tennessee","TRUE","","765","10.7","47131","Obion","{""47131"": 50.85, ""47045"": 36.77, ""47053"": 12.38}","Obion|Dyer|Gibson","47131|47045|47053","FALSE","FALSE","America/Chicago"
"38260","36.36961","-89.21128","Troy","TN","Tennessee","TRUE","","3838","20.7","47131","Obion","{""47131"": 100}","Obion","47131","FALSE","FALSE","America/Chicago"
"38261","36.43214","-89.11583","Union City","TN","Tennessee","TRUE","","16190","35.3","47131","Obion","{""47131"": 99.65, ""47183"": 0.35}","Obion|Weakley","47131|47183","FALSE","FALSE","America/Chicago"
"38301","35.5908","-88.8531","Jackson","TN","Tennessee","TRUE","","34420","88.1","47113","Madison","{""47113"": 100}","Madison","47113","FALSE","FALSE","America/Chicago"
"38305","35.70108","-88.76779","Jackson","TN","Tennessee","TRUE","","51864","156.4","47113","Madison","{""47113"": 97.34, ""47017"": 2.66}","Madison|Carroll","47113|47017","FALSE","FALSE","America/Chicago"
"38310","35.26175","-88.39832","Adamsville","TN","Tennessee","TRUE","","6359","23.9","47109","McNairy","{""47109"": 68.78, ""47071"": 31.22}","McNairy|Hardin","47109|47071","FALSE","FALSE","America/Chicago"
"38311","35.43842","-88.09737","Bath Springs","TN","Tennessee","TRUE","","740","5.1","47039","Decatur","{""47039"": 100}","Decatur","47039","FALSE","FALSE","America/Chicago"
"38313","35.60107","-88.62541","Beech Bluff","TN","Tennessee","TRUE","","3714","19.0","47113","Madison","{""47113"": 55.62, ""47077"": 22.31, ""47023"": 22.07}","Madison|Henderson|Chester","47113|47077|47023","FALSE","FALSE","America/Chicago"
"38315","35.26918","-88.6241","Bethel Springs","TN","Tennessee","TRUE","","4036","14.0","47109","McNairy","{""47109"": 90.97, ""47023"": 9.03}","McNairy|Chester","47109|47023","FALSE","FALSE","America/Chicago"
"38316","36.06873","-88.81547","Bradford","TN","Tennessee","TRUE","","2874","17.6","47053","Gibson","{""47053"": 100}","Gibson","47053","FALSE","FALSE","America/Chicago"
"38317","36.05425","-88.26965","Bruceton","TN","Tennessee","TRUE","","2560","25.5","47017","Carroll","{""47017"": 93.91, ""47005"": 6.09}","Carroll|Benton","47017|47005","FALSE","FALSE","America/Chicago"
"38318","35.95687","-88.26189","Buena Vista","TN","Tennessee","TRUE","","547","5.0","47017","Carroll","{""47017"": 100}","Carroll","47017","FALSE","FALSE","America/Chicago"
"38320","36.04764","-88.1095","Camden","TN","Tennessee","TRUE","","10661","28.1","47005","Benton","{""47005"": 100}","Benton","47005","FALSE","FALSE","America/Chicago"
"38321","35.83341","-88.53013","Cedar Grove","TN","Tennessee","TRUE","","2611","11.0","47017","Carroll","{""47017"": 57.92, ""47077"": 42.08}","Carroll|Henderson","47017|47077","FALSE","FALSE","America/Chicago"
"38326","35.04419","-88.27514","Counce","TN","Tennessee","TRUE","","2744","24.9","47071","Hardin","{""47071"": 98.7, ""28141"": 1.3}","Hardin|Tishomingo","47071|28141","FALSE","FALSE","America/Chicago"
"38327","35.22348","-88.30085","Crump","TN","Tennessee","TRUE","","515","79.9","47071","Hardin","{""47071"": 100}","Hardin","47071","FALSE","FALSE","America/Chicago"
"38328","35.67601","-88.21222","Darden","TN","Tennessee","TRUE","","906","11.7","47077","Henderson","{""47077"": 84.35, ""47039"": 15.65}","Henderson|Decatur","47077|47039","FALSE","FALSE","America/Chicago"
"38329","35.54541","-88.11283","Decaturville","TN","Tennessee","TRUE","","3229","11.4","47039","Decatur","{""47039"": 94.68, ""47077"": 5.32}","Decatur|Henderson","47039|47077","FALSE","FALSE","America/Chicago"
"38330","36.0675","-89.03316","Dyer","TN","Tennessee","TRUE","","4064","23.9","47053","Gibson","{""47053"": 100}","Gibson","47053","FALSE","FALSE","America/Chicago"
"38332","35.41978","-88.42934","Enville","TN","Tennessee","TRUE","","1201","8.7","47023","Chester","{""47023"": 86.91, ""47109"": 13.09}","Chester|McNairy","47023|47109","FALSE","FALSE","America/Chicago"
"38333","36.12236","-87.9709","Eva","TN","Tennessee","TRUE","","163","2.5","47005","Benton","{""47005"": 100}","Benton","47005","FALSE","FALSE","America/Chicago"
"38334","35.35342","-88.58977","Finger","TN","Tennessee","TRUE","","1774","14.4","47109","McNairy","{""47109"": 70.14, ""47023"": 29.86}","McNairy|Chester","47109|47023","FALSE","FALSE","America/Chicago"
"38337","35.78515","-89.01149","Gadsden","TN","Tennessee","TRUE","","1179","17.0","47033","Crockett","{""47033"": 100}","Crockett","47033","FALSE","FALSE","America/Chicago"
"38338","35.87483","-88.84863","Gibson","TN","Tennessee","TRUE","","77","293.8","47053","Gibson","{""47053"": 100}","Gibson","47053","FALSE","FALSE","America/Chicago"
"38339","35.0524","-88.5147","Guys","TN","Tennessee","TRUE","","622","12.1","47109","McNairy","{""47109"": 100}","McNairy","47109","FALSE","FALSE","America/Chicago"
"38340","35.40021","-88.68226","Henderson","TN","Tennessee","TRUE","","11756","26.1","47023","Chester","{""47023"": 87.74, ""47069"": 12.16, ""47109"": 0.1}","Chester|Hardeman|McNairy","47023|47069|47109","FALSE","FALSE","America/Chicago"
"38341","35.87677","-88.08888","Holladay","TN","Tennessee","TRUE","","2234","6.4","47005","Benton","{""47005"": 77.08, ""47039"": 20.89, ""47017"": 2.03}","Benton|Decatur|Carroll","47005|47039|47017","FALSE","FALSE","America/Chicago"
"38342","36.10766","-88.29024","Hollow Rock","TN","Tennessee","TRUE","","1325","15.2","47017","Carroll","{""47017"": 100}","Carroll","47017","FALSE","FALSE","America/Chicago"
"38343","35.82727","-88.92819","Humboldt","TN","Tennessee","TRUE","","15739","42.8","47053","Gibson","{""47053"": 60.97, ""47033"": 21.32, ""47113"": 17.71}","Gibson|Crockett|Madison","47053|47033|47113","FALSE","FALSE","America/Chicago"
"38344","35.97716","-88.43066","Huntingdon","TN","Tennessee","TRUE","","8738","20.3","47017","Carroll","{""47017"": 100}","Carroll","47017","FALSE","FALSE","America/Chicago"
"38345","35.59109","-88.51163","Huron","TN","Tennessee","TRUE","","1768","13.9","47077","Henderson","{""47077"": 100}","Henderson","47077","FALSE","FALSE","America/Chicago"
"38347","35.47632","-88.49846","Jacks Creek","TN","Tennessee","TRUE","","448","39.4","47023","Chester","{""47023"": 100}","Chester","47023","FALSE","FALSE","America/Chicago"
"38348","35.86893","-88.65198","Lavinia","TN","Tennessee","TRUE","","876","6.3","47017","Carroll","{""47017"": 98.66, ""47113"": 1.34}","Carroll|Madison","47017|47113","FALSE","FALSE","America/Chicago"
"38351","35.66324","-88.40401","Lexington","TN","Tennessee","TRUE","","17959","33.3","47077","Henderson","{""47077"": 99.43, ""47113"": 0.57}","Henderson|Madison","47077|47113","FALSE","FALSE","America/Chicago"
"38352","35.53037","-88.53308","Luray","TN","Tennessee","TRUE","","695","14.8","47023","Chester","{""47023"": 67.73, ""47077"": 32.27}","Chester|Henderson","47023|47077","FALSE","FALSE","America/Chicago"
"38355","35.78637","-88.76942","Medina","TN","Tennessee","TRUE","","7954","82.1","47113","Madison","{""47113"": 63.18, ""47053"": 36.82}","Madison|Gibson","47113|47053","FALSE","FALSE","America/Chicago"
"38356","35.43877","-88.89029","Medon","TN","Tennessee","TRUE","","3129","15.5","47113","Madison","{""47113"": 57.9, ""47069"": 35.58, ""47023"": 6.52}","Madison|Hardeman|Chester","47113|47069|47023","FALSE","FALSE","America/Chicago"
"38357","35.04888","-88.4112","Michie","TN","Tennessee","TRUE","","3220","18.9","47109","McNairy","{""47109"": 75.18, ""47071"": 24.82}","McNairy|Hardin","47109|47071","FALSE","FALSE","America/Chicago"
"38358","35.91661","-88.75934","Milan","TN","Tennessee","TRUE","","12364","57.8","47053","Gibson","{""47053"": 100}","Gibson","47053","FALSE","FALSE","America/Chicago"
"38359","35.37222","-88.35109","Milledgeville","TN","Tennessee","TRUE","","286","18.1","47071","Hardin","{""47071"": 81.75, ""47109"": 14.58, ""47023"": 3.67}","Hardin|McNairy|Chester","47071|47109|47023","FALSE","FALSE","America/Chicago"
"38361","35.31897","-88.29232","Morris Chapel","TN","Tennessee","TRUE","","1351","11.6","47071","Hardin","{""47071"": 91.91, ""47109"": 8.09}","Hardin|McNairy","47071|47109","FALSE","FALSE","America/Chicago"
"38362","35.72696","-88.78508","Oakfield","TN","Tennessee","TRUE","","1069","47.8","47113","Madison","{""47113"": 100}","Madison","47113","FALSE","FALSE","America/Chicago"
"38363","35.68625","-88.11051","Parsons","TN","Tennessee","TRUE","","5556","24.9","47039","Decatur","{""47039"": 96.09, ""47077"": 3.91}","Decatur|Henderson","47039|47077","FALSE","FALSE","America/Chicago"
"38365","35.05383","-88.23627","Pickwick Dam","TN","Tennessee","TRUE","","0","0.0","47071","Hardin","{""47071"": 100}","Hardin","47071","FALSE","FALSE","America/Chicago"
"38366","35.47797","-88.74461","Pinson","TN","Tennessee","TRUE","","2201","17.9","47113","Madison","{""47113"": 72.93, ""47023"": 27.07}","Madison|Chester","47113|47023","FALSE","FALSE","America/Chicago"
"38367","35.05266","-88.62728","Ramer","TN","Tennessee","TRUE","","2741","13.8","47109","McNairy","{""47109"": 100}","McNairy","47109","FALSE","FALSE","America/Chicago"
"38368","35.50191","-88.35659","Reagan","TN","Tennessee","TRUE","","1863","13.6","47077","Henderson","{""47077"": 82.69, ""47023"": 17.31}","Henderson|Chester","47077|47023","FALSE","FALSE","America/Chicago"
"38369","36.13253","-88.9652","Rutherford","TN","Tennessee","TRUE","","1640","15.8","47053","Gibson","{""47053"": 100}","Gibson","47053","FALSE","FALSE","America/Chicago"
"38370","35.38942","-88.2465","Saltillo","TN","Tennessee","TRUE","","960","17.0","47071","Hardin","{""47071"": 88.4, ""47077"": 11.5, ""47039"": 0.1}","Hardin|Henderson|Decatur","47071|47077|47039","FALSE","FALSE","America/Chicago"
"38371","35.42346","-88.2967","Sardis","TN","Tennessee","TRUE","","833","7.5","47077","Henderson","{""47077"": 53.39, ""47071"": 42.52, ""47039"": 4.09}","Henderson|Hardin|Decatur","47077|47071|47039","FALSE","FALSE","America/Chicago"
"38372","35.16516","-88.14523","Savannah","TN","Tennessee","TRUE","","17347","21.7","47071","Hardin","{""47071"": 100}","Hardin","47071","FALSE","FALSE","America/Chicago"
"38374","35.51192","-88.23469","Scotts Hill","TN","Tennessee","TRUE","","1982","17.0","47039","Decatur","{""47039"": 51.42, ""47077"": 48.58}","Decatur|Henderson","47039|47077","FALSE","FALSE","America/Chicago"
"38375","35.16142","-88.58811","Selmer","TN","Tennessee","TRUE","","7927","27.2","47109","McNairy","{""47109"": 100}","McNairy","47109","FALSE","FALSE","America/Chicago"
"38376","35.12974","-88.34447","Shiloh","TN","Tennessee","TRUE","","319","9.5","47071","Hardin","{""47071"": 96.07, ""47109"": 3.93}","Hardin|McNairy","47071|47109","FALSE","FALSE","America/Chicago"
"38379","35.16388","-88.42825","Stantonville","TN","Tennessee","TRUE","","1708","19.3","47109","McNairy","{""47109"": 90.42, ""47071"": 9.58}","McNairy|Hardin","47109|47071","FALSE","FALSE","America/Chicago"
"38380","35.79114","-88.03263","Sugar Tree","TN","Tennessee","TRUE","","427","4.3","47039","Decatur","{""47039"": 87.66, ""47005"": 12.34}","Decatur|Benton","47039|47005","FALSE","FALSE","America/Chicago"
"38381","35.35144","-88.96205","Toone","TN","Tennessee","TRUE","","1769","12.0","47069","Hardeman","{""47069"": 100}","Hardeman","47069","FALSE","FALSE","America/Chicago"
"38382","35.96925","-88.99186","Trenton","TN","Tennessee","TRUE","","8548","19.3","47053","Gibson","{""47053"": 100}","Gibson","47053","FALSE","FALSE","America/Chicago"
"38387","35.86573","-88.26968","Westport","TN","Tennessee","TRUE","","345","3.1","47017","Carroll","{""47017"": 89.25, ""47005"": 10.75}","Carroll|Benton","47017|47005","FALSE","FALSE","America/Chicago"
"38388","35.77672","-88.31535","Wildersville","TN","Tennessee","TRUE","","1881","10.1","47077","Henderson","{""47077"": 99.34, ""47039"": 0.66}","Henderson|Decatur","47077|47039","FALSE","FALSE","America/Chicago"
"38389","36.10315","-89.12134","Yorkville","TN","Tennessee","TRUE","","50","178.1","47053","Gibson","{""47053"": 100}","Gibson","47053","FALSE","FALSE","America/Chicago"
"38390","35.83845","-88.37797","Yuma","TN","Tennessee","TRUE","","1238","15.7","47017","Carroll","{""47017"": 80.74, ""47077"": 19.26}","Carroll|Henderson","47017|47077","FALSE","FALSE","America/Chicago"
"38391","35.55026","-88.99033","Denmark","TN","Tennessee","TRUE","","1107","6.3","47113","Madison","{""47113"": 100}","Madison","47113","FALSE","FALSE","America/Chicago"
"38392","35.45908","-89.03709","Mercer","TN","Tennessee","TRUE","","766","8.2","47113","Madison","{""47113"": 74.47, ""47069"": 25.53}","Madison|Hardeman","47113|47069","FALSE","FALSE","America/Chicago"
"38401","35.62955","-87.02097","Columbia","TN","Tennessee","TRUE","","64681","84.2","47119","Maury","{""47119"": 96.07, ""47187"": 2.1, ""47117"": 1.83}","Maury|Williamson|Marshall","47119|47187|47117","FALSE","FALSE","America/Chicago"
"38425","35.40706","-87.96588","Clifton","TN","Tennessee","TRUE","","3668","13.7","47181","Wayne","{""47181"": 58.83, ""47071"": 26.49, ""47135"": 14.68}","Wayne|Hardin|Perry","47181|47071|47135","FALSE","FALSE","America/Chicago"
"38449","35.05231","-86.82954","Ardmore","TN","Tennessee","TRUE","","2901","19.1","47103","Lincoln","{""47103"": 52.62, ""47055"": 47.38}","Lincoln|Giles","47103|47055","FALSE","FALSE","America/Chicago"
"38450","35.18523","-87.80143","Collinwood","TN","Tennessee","TRUE","","2613","9.5","47181","Wayne","{""47181"": 100}","Wayne","47181","FALSE","FALSE","America/Chicago"
"38451","35.46706","-86.99573","Culleoka","TN","Tennessee","TRUE","","3866","17.8","47119","Maury","{""47119"": 81.07, ""47117"": 16.84, ""47055"": 2.09}","Maury|Marshall|Giles","47119|47117|47055","FALSE","FALSE","America/Chicago"
"38452","35.07898","-87.79239","Cypress Inn","TN","Tennessee","TRUE","","1187","8.6","47181","Wayne","{""47181"": 100}","Wayne","47181","FALSE","FALSE","America/Chicago"
"38453","35.11923","-86.81472","Dellrose","TN","Tennessee","TRUE","","409","9.1","47103","Lincoln","{""47103"": 75.76, ""47055"": 24.24}","Lincoln|Giles","47103|47055","FALSE","FALSE","America/Chicago"
"38454","35.72334","-87.35538","Duck River","TN","Tennessee","TRUE","","848","5.6","47081","Hickman","{""47081"": 100}","Hickman","47081","FALSE","FALSE","America/Chicago"
"38455","35.06199","-86.89366","Elkton","TN","Tennessee","TRUE","","149","204.2","47055","Giles","{""47055"": 100}","Giles","47055","FALSE","FALSE","America/Chicago"
"38456","35.33464","-87.26559","Ethridge","TN","Tennessee","TRUE","","4815","26.8","47099","Lawrence","{""47099"": 70.64, ""47055"": 29.36}","Lawrence|Giles","47099|47055","FALSE","FALSE","America/Chicago"
"38457","35.0297","-87.28482","Five Points","TN","Tennessee","TRUE","","671","9.8","47099","Lawrence","{""47099"": 100}","Lawrence","47099","FALSE","FALSE","America/Chicago"
"38459","35.19135","-86.80219","Frankewing","TN","Tennessee","TRUE","","409","7.6","47103","Lincoln","{""47103"": 89.1, ""47055"": 10.9}","Lincoln|Giles","47103|47055","FALSE","FALSE","America/Chicago"
"38460","35.10116","-87.15937","Goodspring","TN","Tennessee","TRUE","","1503","22.0","47055","Giles","{""47055"": 100}","Giles","47055","FALSE","FALSE","America/Chicago"
"38461","35.59514","-87.33987","Hampshire","TN","Tennessee","TRUE","","1284","6.8","47101","Lewis","{""47101"": 56.86, ""47119"": 41.48, ""47081"": 1.66}","Lewis|Maury|Hickman","47101|47119|47081","FALSE","FALSE","America/Chicago"
"38462","35.53142","-87.54869","Hohenwald","TN","Tennessee","TRUE","","10230","20.4","47101","Lewis","{""47101"": 98.32, ""47081"": 1.68}","Lewis|Hickman","47101|47081","FALSE","FALSE","America/Chicago"
"38463","35.06802","-87.64494","Iron City","TN","Tennessee","TRUE","","2406","8.1","47181","Wayne","{""47181"": 77.16, ""47099"": 22.84}","Wayne|Lawrence","47181|47099","FALSE","FALSE","America/Chicago"
"38464","35.29035","-87.42845","Lawrenceburg","TN","Tennessee","TRUE","","23422","33.5","47099","Lawrence","{""47099"": 81.24, ""47181"": 12.1, ""47055"": 6.28, ""47101"": 0.38}","Lawrence|Wayne|Giles|Lewis","47099|47181|47055|47101","FALSE","FALSE","America/Chicago"
"38468","35.13083","-87.29072","Leoma","TN","Tennessee","TRUE","","5560","21.6","47099","Lawrence","{""47099"": 92.26, ""47055"": 7.74}","Lawrence|Giles","47099|47055","FALSE","FALSE","America/Chicago"
"38469","35.0741","-87.42765","Loretto","TN","Tennessee","TRUE","","4298","23.9","47099","Lawrence","{""47099"": 100}","Lawrence","47099","FALSE","FALSE","America/Chicago"
"38471","35.0771","-87.92134","Lutts","TN","Tennessee","TRUE","","279","1.4","47181","Wayne","{""47181"": 100}","Wayne","47181","FALSE","FALSE","America/Chicago"
"38472","35.3773","-87.03873","Lynnville","TN","Tennessee","TRUE","","3116","12.0","47055","Giles","{""47055"": 96.36, ""47117"": 3.64}","Giles|Marshall","47055|47117","FALSE","FALSE","America/Chicago"
"38473","35.02775","-87.17057","Minor Hill","TN","Tennessee","TRUE","","1068","14.9","47055","Giles","{""47055"": 98.29, ""47099"": 1.71}","Giles|Lawrence","47055|47099","FALSE","FALSE","America/Chicago"
"38474","35.51848","-87.22966","Mount Pleasant","TN","Tennessee","TRUE","","8203","30.4","47119","Maury","{""47119"": 86.84, ""47101"": 9.3, ""47055"": 2.22, ""47099"": 1.64}","Maury|Lewis|Giles|Lawrence","47119|47101|47055|47099","FALSE","FALSE","America/Chicago"
"38475","35.2624","-88.02336","Olivehill","TN","Tennessee","TRUE","","909","5.5","47071","Hardin","{""47071"": 77.53, ""47181"": 22.47}","Hardin|Wayne","47071|47181","FALSE","FALSE","America/Chicago"
"38476","35.84341","-87.20984","Primm Springs","TN","Tennessee","TRUE","","1297","12.3","47187","Williamson","{""47187"": 42.39, ""47081"": 40.42, ""47119"": 17.19}","Williamson|Hickman|Maury","47187|47081|47119","FALSE","FALSE","America/Chicago"
"38477","35.05075","-87.00932","Prospect","TN","Tennessee","TRUE","","3427","13.5","47055","Giles","{""47055"": 100}","Giles","47055","FALSE","FALSE","America/Chicago"
"38478","35.21565","-87.01329","Pulaski","TN","Tennessee","TRUE","","17954","27.0","47055","Giles","{""47055"": 100}","Giles","47055","FALSE","FALSE","America/Chicago"
"38481","35.02813","-87.48863","Saint Joseph","TN","Tennessee","TRUE","","899","33.1","47099","Lawrence","{""47099"": 100}","Lawrence","47099","FALSE","FALSE","America/Chicago"
"38482","35.76792","-87.14574","Santa Fe","TN","Tennessee","TRUE","","1582","13.8","47119","Maury","{""47119"": 100}","Maury","47119","FALSE","FALSE","America/Chicago"
"38483","35.43411","-87.33476","Summertown","TN","Tennessee","TRUE","","6077","23.2","47099","Lawrence","{""47099"": 56.77, ""47101"": 35.42, ""47055"": 7.17, ""47119"": 0.64}","Lawrence|Lewis|Giles|Maury","47099|47101|47055|47119","FALSE","FALSE","America/Chicago"
"38485","35.33281","-87.77659","Waynesboro","TN","Tennessee","TRUE","","6354","8.7","47181","Wayne","{""47181"": 99.02, ""47101"": 0.98}","Wayne|Lewis","47181|47101","FALSE","FALSE","America/Chicago"
"38486","35.17306","-87.54029","Westpoint","TN","Tennessee","TRUE","","1165","5.5","47099","Lawrence","{""47099"": 79.6, ""47181"": 20.4}","Lawrence|Wayne","47099|47181","FALSE","FALSE","America/Chicago"
"38487","35.72163","-87.23589","Williamsport","TN","Tennessee","TRUE","","927","7.0","47119","Maury","{""47119"": 65.07, ""47081"": 34.93}","Maury|Hickman","47119|47081","FALSE","FALSE","America/Chicago"
"38488","35.03906","-86.68569","Taft","TN","Tennessee","TRUE","","2197","14.6","47103","Lincoln","{""47103"": 100}","Lincoln","47103","FALSE","FALSE","America/Chicago"
"38501","36.22682","-85.53841","Cookeville","TN","Tennessee","TRUE","","40513","179.6","47141","Putnam","{""47141"": 63.55, ""47087"": 35.09, ""47133"": 1.36}","Putnam|Jackson|Overton","47141|47087|47133","FALSE","FALSE","America/Chicago"
"38503","36.16333","-85.50588","Cookeville","TN","Tennessee","TRUE","","0","0.0","47141","Putnam","{""47141"": 100}","Putnam","47141","FALSE","FALSE","America/Chicago"
"38504","36.39314","-84.73528","Allardt","TN","Tennessee","TRUE","","649","5.5","47049","Fentress","{""47049"": 84.27, ""47151"": 15.73}","Fentress|Scott","47049|47151","FALSE","FALSE","America/Chicago"
"38505","36.17316","-85.50559","Cookeville","TN","Tennessee","TRUE","","1061","8145.9","47141","Putnam","{""47141"": 100}","Putnam","47141","FALSE","FALSE","America/Chicago"
"38506","36.18334","-85.44246","Cookeville","TN","Tennessee","TRUE","","28803","67.7","47141","Putnam","{""47141"": 70.2, ""47133"": 25.32, ""47185"": 4.02, ""47087"": 0.46}","Putnam|Overton|White|Jackson","47141|47133|47185|47087","FALSE","FALSE","America/Chicago"
"38541","36.52903","-85.33767","Allons","TN","Tennessee","TRUE","","1592","12.3","47027","Clay","{""47027"": 57.11, ""47133"": 42.89}","Clay|Overton","47027|47133","FALSE","FALSE","America/Chicago"
"38542","36.31576","-85.20113","Allred","TN","Tennessee","TRUE","","17","2.1","47133","Overton","{""47133"": 100}","Overton","47133","FALSE","FALSE","America/Chicago"
"38543","36.37514","-85.15931","Alpine","TN","Tennessee","TRUE","","342","3.2","47133","Overton","{""47133"": 88.08, ""47137"": 11.92}","Overton|Pickett","47133|47137","FALSE","FALSE","America/Chicago"
"38544","36.11605","-85.66238","Baxter","TN","Tennessee","TRUE","","7552","36.8","47141","Putnam","{""47141"": 87.98, ""47041"": 12.02}","Putnam|DeKalb","47141|47041","FALSE","FALSE","America/Chicago"
"38545","36.23133","-85.65964","Bloomington Springs","TN","Tennessee","TRUE","","1220","20.5","47087","Jackson","{""47087"": 67.2, ""47141"": 32.8}","Jackson|Putnam","47087|47141","FALSE","FALSE","America/Chicago"
"38547","36.14954","-86.00833","Brush Creek","TN","Tennessee","TRUE","","1834","22.9","47159","Smith","{""47159"": 100}","Smith","47159","FALSE","FALSE","America/Chicago"
"38548","36.17252","-85.79197","Buffalo Valley","TN","Tennessee","TRUE","","1153","15.7","47141","Putnam","{""47141"": 64.02, ""47159"": 33.12, ""47041"": 2.86}","Putnam|Smith|DeKalb","47141|47159|47041","FALSE","FALSE","America/Chicago"
"38549","36.5617","-85.15243","Byrdstown","TN","Tennessee","TRUE","","4115","21.6","47137","Pickett","{""47137"": 93.7, ""47049"": 4.45, ""21053"": 1.85}","Pickett|Fentress|Clinton","47137|47049|21053","FALSE","FALSE","America/Chicago"
"38550","35.76982","-85.63268","Campaign","TN","Tennessee","TRUE","","0","0.0","47177","Warren","{""47177"": 100}","Warren","47177","FALSE","FALSE","America/Chicago"
"38551","36.55804","-85.48699","Celina","TN","Tennessee","TRUE","","4109","17.8","47027","Clay","{""47027"": 97.82, ""47087"": 2.18}","Clay|Jackson","47027|47087","FALSE","FALSE","America/Chicago"
"38552","36.2166","-85.81195","Chestnut Mound","TN","Tennessee","TRUE","","245","13.0","47159","Smith","{""47159"": 100}","Smith","47159","FALSE","FALSE","America/Chicago"
"38553","36.20322","-85.00442","Clarkrange","TN","Tennessee","TRUE","","2723","21.9","47049","Fentress","{""47049"": 100}","Fentress","47049","FALSE","FALSE","America/Chicago"
"38554","36.25131","-85.16095","Crawford","TN","Tennessee","TRUE","","734","8.8","47133","Overton","{""47133"": 100}","Overton","47133","FALSE","FALSE","America/Chicago"
"38555","35.88956","-84.97537","Crossville","TN","Tennessee","TRUE","","20970","87.7","47035","Cumberland","{""47035"": 100}","Cumberland","47035","FALSE","FALSE","America/Chicago"
"38556","36.41016","-84.9249","Jamestown","TN","Tennessee","TRUE","","11172","13.7","47049","Fentress","{""47049"": 99.36, ""47137"": 0.64}","Fentress|Pickett","47049|47137","FALSE","FALSE","America/Chicago"
"38558","36.00532","-84.87374","Crossville","TN","Tennessee","TRUE","","9014","172.7","47035","Cumberland","{""47035"": 100}","Cumberland","47035","FALSE","FALSE","America/Chicago"
"38559","35.80692","-85.51334","Doyle","TN","Tennessee","TRUE","","1425","27.3","47175","Van Buren","{""47175"": 69.54, ""47185"": 30.46}","Van Buren|White","47175|47185","FALSE","FALSE","America/Chicago"
"38560","36.23458","-85.8713","Elmwood","TN","Tennessee","TRUE","","1467","17.2","47159","Smith","{""47159"": 100}","Smith","47159","FALSE","FALSE","America/Chicago"
"38562","36.35173","-85.65932","Gainesboro","TN","Tennessee","TRUE","","6758","18.6","47087","Jackson","{""47087"": 100}","Jackson","47087","FALSE","FALSE","America/Chicago"
"38563","36.19658","-86.0147","Gordonsville","TN","Tennessee","TRUE","","2470","28.7","47159","Smith","{""47159"": 100}","Smith","47159","FALSE","FALSE","America/Chicago"
"38564","36.27144","-85.75364","Granville","TN","Tennessee","TRUE","","469","6.3","47087","Jackson","{""47087"": 90.73, ""47141"": 9.27}","Jackson|Putnam","47087|47141","FALSE","FALSE","America/Chicago"
"38565","36.26296","-85.00992","Grimsley","TN","Tennessee","TRUE","","1004","37.5","47049","Fentress","{""47049"": 100}","Fentress","47049","FALSE","FALSE","America/Chicago"
"38567","36.13392","-85.91518","Hickman","TN","Tennessee","TRUE","","724","13.5","47159","Smith","{""47159"": 87.58, ""47041"": 12.42}","Smith|DeKalb","47159|47041","FALSE","FALSE","America/Chicago"
"38568","36.43594","-85.46907","Hilham","TN","Tennessee","TRUE","","1669","9.5","47133","Overton","{""47133"": 53.13, ""47027"": 37.16, ""47087"": 9.71}","Overton|Clay|Jackson","47133|47027|47087","FALSE","FALSE","America/Chicago"
"38569","36.10887","-85.85647","Lancaster","TN","Tennessee","TRUE","","223","6.4","47159","Smith","{""47159"": 52.99, ""47041"": 47.01}","Smith|DeKalb","47159|47041","FALSE","FALSE","America/Chicago"
"38570","36.37678","-85.31983","Livingston","TN","Tennessee","TRUE","","10062","32.7","47133","Overton","{""47133"": 100}","Overton","47133","FALSE","FALSE","America/Chicago"
"38571","36.0513","-85.01374","Crossville","TN","Tennessee","TRUE","","14131","24.1","47035","Cumberland","{""47035"": 100}","Cumberland","47035","FALSE","FALSE","America/Chicago"
"38572","35.84764","-85.12778","Crossville","TN","Tennessee","TRUE","","11684","28.5","47035","Cumberland","{""47035"": 91.41, ""47007"": 8.59}","Cumberland|Bledsoe","47035|47007","FALSE","FALSE","America/Chicago"
"38573","36.48945","-85.21931","Monroe","TN","Tennessee","TRUE","","2096","12.1","47133","Overton","{""47133"": 61.66, ""47137"": 36.75, ""47027"": 1.59}","Overton|Pickett|Clay","47133|47137|47027","FALSE","FALSE","America/Chicago"
"38574","36.141","-85.22498","Monterey","TN","Tennessee","TRUE","","8805","20.1","47141","Putnam","{""47141"": 48.63, ""47133"": 32.93, ""47035"": 13.84, ""47049"": 4.6}","Putnam|Overton|Cumberland|Fentress","47141|47133|47035|47049","FALSE","FALSE","America/Chicago"
"38575","36.55848","-85.63515","Moss","TN","Tennessee","TRUE","","1004","8.1","47027","Clay","{""47027"": 100}","Clay","47027","FALSE","FALSE","America/Chicago"
"38577","36.56453","-84.94651","Pall Mall","TN","Tennessee","TRUE","","1548","6.8","47137","Pickett","{""47137"": 56.95, ""47049"": 43.05}","Pickett|Fentress","47137|47049","FALSE","FALSE","America/Chicago"
"38578","35.98031","-85.19886","Pleasant Hill","TN","Tennessee","TRUE","","186","217.4","47035","Cumberland","{""47035"": 100}","Cumberland","47035","FALSE","FALSE","America/Chicago"
"38579","35.83218","-85.54919","Quebeck","TN","Tennessee","TRUE","","1466","30.9","47185","White","{""47185"": 100}","White","47185","FALSE","FALSE","America/Chicago"
"38580","36.27729","-85.29522","Rickman","TN","Tennessee","TRUE","","1652","18.4","47133","Overton","{""47133"": 100}","Overton","47133","FALSE","FALSE","America/Chicago"
"38581","35.73834","-85.62141","Rock Island","TN","Tennessee","TRUE","","3616","14.3","47177","Warren","{""47177"": 53.67, ""47175"": 44.91, ""47041"": 1.42}","Warren|Van Buren|DeKalb","47177|47175|47041","FALSE","FALSE","America/Chicago"
"38582","36.09431","-85.75382","Silver Point","TN","Tennessee","TRUE","","1820","15.2","47141","Putnam","{""47141"": 52.76, ""47041"": 47.24}","Putnam|DeKalb","47141|47041","FALSE","FALSE","America/Chicago"
"38583","35.94649","-85.43781","Sparta","TN","Tennessee","TRUE","","24927","26.5","47185","White","{""47185"": 81.3, ""47041"": 5.87, ""47141"": 5.59, ""47035"": 4.88, ""47175"": 2.36}","White|DeKalb|Putnam|Cumberland|Van Buren","47185|47041|47141|47035|47175","FALSE","FALSE","America/Chicago"
"38585","35.68995","-85.42274","Spencer","TN","Tennessee","TRUE","","4810","10.0","47175","Van Buren","{""47175"": 97.72, ""47153"": 2.28}","Van Buren|Sequatchie","47175|47153","FALSE","FALSE","America/Chicago"
"38587","35.8677","-85.61723","Walling","TN","Tennessee","TRUE","","1286","16.6","47185","White","{""47185"": 100}","White","47185","FALSE","FALSE","America/Chicago"
"38588","36.45613","-85.7189","Whitleyville","TN","Tennessee","TRUE","","1093","4.9","47087","Jackson","{""47087"": 84.92, ""47027"": 12.47, ""47111"": 2.61}","Jackson|Clay|Macon","47087|47027|47111","FALSE","FALSE","America/Chicago"
"38589","36.28551","-85.07624","Wilder","TN","Tennessee","TRUE","","248","3.2","47049","Fentress","{""47049"": 90.74, ""47133"": 9.26}","Fentress|Overton","47049|47133","FALSE","FALSE","America/Chicago"
"38601","34.48146","-89.45166","Abbeville","MS","Mississippi","TRUE","","2211","9.7","28071","Lafayette","{""28071"": 100}","Lafayette","28071","FALSE","FALSE","America/Chicago"
"38603","34.83949","-89.14163","Ashland","MS","Mississippi","TRUE","","2527","7.1","28009","Benton","{""28009"": 96.0, ""28139"": 4.0}","Benton|Tippah","28009|28139","FALSE","FALSE","America/Chicago"
"38606","34.30375","-89.9581","Batesville","MS","Mississippi","TRUE","","14657","22.6","28107","Panola","{""28107"": 95.81, ""28119"": 2.75, ""28071"": 1.44}","Panola|Quitman|Lafayette","28107|28119|28071","FALSE","FALSE","America/Chicago"
"38610","34.65357","-89.02637","Blue Mountain","MS","Mississippi","TRUE","","3311","13.4","28139","Tippah","{""28139"": 72.62, ""28009"": 15.58, ""28145"": 11.8}","Tippah|Benton|Union","28139|28009|28145","FALSE","FALSE","America/Chicago"
"38611","34.85467","-89.67116","Byhalia","MS","Mississippi","TRUE","","16114","32.4","28093","Marshall","{""28093"": 81.29, ""28033"": 18.71}","Marshall|DeSoto","28093|28033","FALSE","FALSE","America/Chicago"
"38614","34.15914","-90.60747","Clarksdale","MS","Mississippi","TRUE","","17011","27.1","28027","Coahoma","{""28027"": 96.94, ""28011"": 3.06}","Coahoma|Bolivar","28027|28011","FALSE","FALSE","America/Chicago"
"38617","34.36261","-90.49342","Coahoma","MS","Mississippi","TRUE","","670","3.0","28027","Coahoma","{""28027"": 99.14, ""28119"": 0.86}","Coahoma|Quitman","28027|28119","FALSE","FALSE","America/Chicago"
"38618","34.70203","-89.93415","Coldwater","MS","Mississippi","TRUE","","11656","22.7","28137","Tate","{""28137"": 97.0, ""28033"": 2.29, ""28093"": 0.71}","Tate|DeSoto|Marshall","28137|28033|28093","FALSE","FALSE","America/Chicago"
"38619","34.51288","-89.82678","Como","MS","Mississippi","TRUE","","5339","14.4","28107","Panola","{""28107"": 70.11, ""28071"": 25.1, ""28137"": 4.79}","Panola|Lafayette|Tate","28107|28071|28137","FALSE","FALSE","America/Chicago"
"38620","34.23206","-89.9156","Courtland","MS","Mississippi","TRUE","","3626","23.7","28107","Panola","{""28107"": 100}","Panola","28107","FALSE","FALSE","America/Chicago"
"38621","34.4528","-90.1731","Crenshaw","MS","Mississippi","TRUE","","2031","12.7","28107","Panola","{""28107"": 79.99, ""28119"": 20.01}","Panola|Quitman","28107|28119","FALSE","FALSE","America/Chicago"
"38622","34.16944","-90.13448","Crowder","MS","Mississippi","TRUE","","761","327.0","28107","Panola","{""28107"": 59.59, ""28119"": 40.21, ""28135"": 0.2}","Panola|Quitman|Tallahatchie","28107|28119|28135","FALSE","FALSE","America/Chicago"
"38623","34.36131","-90.29692","Darling","MS","Mississippi","TRUE","","119","6.8","28119","Quitman","{""28119"": 100}","Quitman","28119","FALSE","FALSE","America/Chicago"
"38625","34.61866","-88.8334","Dumas","MS","Mississippi","TRUE","","1514","17.5","28139","Tippah","{""28139"": 68.53, ""28145"": 31.47}","Tippah|Union","28139|28145","FALSE","FALSE","America/Chicago"
"38626","34.5182","-90.43966","Dundee","MS","Mississippi","TRUE","","786","1.8","28143","Tunica","{""28143"": 81.71, ""28027"": 18.29}","Tunica|Coahoma","28143|28027","FALSE","FALSE","America/Chicago"
"38627","34.44503","-89.24563","Etta","MS","Mississippi","TRUE","","1588","9.7","28071","Lafayette","{""28071"": 52.46, ""28145"": 47.54}","Lafayette|Union","28071|28145","FALSE","FALSE","America/Chicago"
"38629","34.86914","-88.99421","Falkner","MS","Mississippi","TRUE","","2134","19.1","28139","Tippah","{""28139"": 71.33, ""28009"": 28.67}","Tippah|Benton","28139|28009","FALSE","FALSE","America/Chicago"
"38631","34.35891","-90.62765","Friars Point","MS","Mississippi","TRUE","","1234","152.0","28027","Coahoma","{""28027"": 100}","Coahoma","28027","FALSE","FALSE","America/Chicago"
"38632","34.79973","-90.00629","Hernando","MS","Mississippi","TRUE","","28361","67.5","28033","DeSoto","{""28033"": 100}","DeSoto","28033","FALSE","FALSE","America/Chicago"
"38633","34.64206","-89.19671","Hickory Flat","MS","Mississippi","TRUE","","2433","9.4","28009","Benton","{""28009"": 79.99, ""28145"": 20.01}","Benton|Union","28009|28145","FALSE","FALSE","America/Chicago"
"38635","34.7677","-89.47896","Holly Springs","MS","Mississippi","TRUE","","15086","17.0","28093","Marshall","{""28093"": 91.43, ""28009"": 6.1, ""28137"": 2.47}","Marshall|Benton|Tate","28093|28009|28137","FALSE","FALSE","America/Chicago"
"38637","34.95105","-90.05004","Horn Lake","MS","Mississippi","TRUE","","26623","648.8","28033","DeSoto","{""28033"": 100}","DeSoto","28033","FALSE","FALSE","America/Chicago"
"38639","34.30909","-90.4285","Jonestown","MS","Mississippi","TRUE","","606","51.9","28027","Coahoma","{""28027"": 100}","Coahoma","28027","FALSE","FALSE","America/Chicago"
"38641","34.90616","-90.1857","Lake Cormorant","MS","Mississippi","TRUE","","2022","10.2","28033","DeSoto","{""28033"": 100}","DeSoto","28033","FALSE","FALSE","America/Chicago"
"38642","34.91861","-89.33901","Lamar","MS","Mississippi","TRUE","","2454","12.6","28009","Benton","{""28009"": 55.13, ""28093"": 44.87}","Benton|Marshall","28009|28093","FALSE","FALSE","America/Chicago"
"38643","34.15082","-90.26281","Lambert","MS","Mississippi","TRUE","","1406","3.5","28119","Quitman","{""28119"": 96.71, ""28135"": 3.29}","Quitman|Tallahatchie","28119|28135","FALSE","FALSE","America/Chicago"
"38644","34.45899","-90.47576","Lula","MS","Mississippi","TRUE","","158","156.5","28027","Coahoma","{""28027"": 100}","Coahoma","28027","FALSE","FALSE","America/Chicago"
"38645","34.2469","-90.47663","Lyon","MS","Mississippi","TRUE","","1212","7.4","28027","Coahoma","{""28027"": 82.62, ""28119"": 17.38}","Coahoma|Quitman","28027|28119","FALSE","FALSE","America/Chicago"
"38646","34.28141","-90.29673","Marks","MS","Mississippi","TRUE","","2822","9.7","28119","Quitman","{""28119"": 100}","Quitman","28119","FALSE","FALSE","America/Chicago"
"38647","34.95851","-89.21746","Michigan City","MS","Mississippi","TRUE","","715","4.1","28009","Benton","{""28009"": 100}","Benton","28009","FALSE","FALSE","America/Chicago"
"38650","34.52776","-89.14165","Myrtle","MS","Mississippi","TRUE","","4549","22.3","28145","Union","{""28145"": 91.83, ""28009"": 8.17}","Union|Benton","28145|28009","FALSE","FALSE","America/Chicago"
"38651","34.89172","-90.00359","Nesbit","MS","Mississippi","TRUE","","8906","104.4","28033","DeSoto","{""28033"": 100}","DeSoto","28033","FALSE","FALSE","America/Chicago"
"38652","34.48545","-88.99652","New Albany","MS","Mississippi","TRUE","","15042","37.6","28145","Union","{""28145"": 100}","Union","28145","FALSE","FALSE","America/Chicago"
"38654","34.93635","-89.82409","Olive Branch","MS","Mississippi","TRUE","","55132","231.9","28033","DeSoto","{""28033"": 96.64, ""28093"": 3.36}","DeSoto|Marshall","28033|28093","FALSE","FALSE","America/Chicago"
"38655","34.33114","-89.4825","Oxford","MS","Mississippi","TRUE","","45150","48.1","28071","Lafayette","{""28071"": 100}","Lafayette","28071","FALSE","FALSE","America/Chicago"
"38658","34.19011","-89.89906","Pope","MS","Mississippi","TRUE","","2958","26.6","28107","Panola","{""28107"": 94.55, ""28161"": 5.45}","Panola|Yalobusha","28107|28161","FALSE","FALSE","America/Chicago"
"38659","34.62073","-89.32065","Potts Camp","MS","Mississippi","TRUE","","2484","8.7","28093","Marshall","{""28093"": 80.27, ""28009"": 19.73}","Marshall|Benton","28093|28009","FALSE","FALSE","America/Chicago"
"38661","34.89009","-89.55918","Red Banks","MS","Mississippi","TRUE","","2183","27.9","28093","Marshall","{""28093"": 100}","Marshall","28093","FALSE","FALSE","America/Chicago"
"38663","34.74111","-88.89718","Ripley","MS","Mississippi","TRUE","","11853","24.2","28139","Tippah","{""28139"": 99.18, ""28009"": 0.82}","Tippah|Benton","28139|28009","FALSE","FALSE","America/Chicago"
"38664","34.80434","-90.33217","Robinsonville","MS","Mississippi","TRUE","","3163","12.3","28143","Tunica","{""28143"": 100}","Tunica","28143","FALSE","FALSE","America/Chicago"
"38665","34.58165","-90.16693","Sarah","MS","Mississippi","TRUE","","2666","15.7","28137","Tate","{""28137"": 61.62, ""28107"": 26.8, ""28143"": 11.58}","Tate|Panola|Tunica","28137|28107|28143","FALSE","FALSE","America/Chicago"
"38666","34.42007","-89.92708","Sardis","MS","Mississippi","TRUE","","6281","17.1","28107","Panola","{""28107"": 100}","Panola","28107","FALSE","FALSE","America/Chicago"
"38668","34.60109","-89.92505","Senatobia","MS","Mississippi","TRUE","","14208","34.2","28137","Tate","{""28137"": 97.15, ""28107"": 2.85}","Tate|Panola","28137|28107","FALSE","FALSE","America/Chicago"
"38670","34.42815","-90.28899","Sledge","MS","Mississippi","TRUE","","918","3.5","28119","Quitman","{""28119"": 74.9, ""28143"": 25.1}","Quitman|Tunica","28119|28143","FALSE","FALSE","America/Chicago"
"38671","34.96376","-89.99567","Southaven","MS","Mississippi","TRUE","","36166","628.3","28033","DeSoto","{""28033"": 100}","DeSoto","28033","FALSE","FALSE","America/Chicago"
"38672","34.93727","-89.94943","Southaven","MS","Mississippi","TRUE","","15839","469.7","28033","DeSoto","{""28033"": 100}","DeSoto","28033","FALSE","FALSE","America/Chicago"
"38673","34.29607","-89.62485","Taylor","MS","Mississippi","TRUE","","1359","18.1","28071","Lafayette","{""28071"": 100}","Lafayette","28071","FALSE","FALSE","America/Chicago"
"38674","34.8718","-88.89549","Tiplersville","MS","Mississippi","TRUE","","1505","14.1","28139","Tippah","{""28139"": 100}","Tippah","28139","FALSE","FALSE","America/Chicago"
"38676","34.67274","-90.3682","Tunica","MS","Mississippi","TRUE","","6166","14.0","28143","Tunica","{""28143"": 100}","Tunica","28143","FALSE","FALSE","America/Chicago"
"38677","34.36402","-89.53859","University","MS","Mississippi","TRUE","","3679","1199.8","28071","Lafayette","{""28071"": 100}","Lafayette","28071","FALSE","FALSE","America/Chicago"
"38680","34.96152","-90.14463","Walls","MS","Mississippi","TRUE","","6571","104.8","28033","DeSoto","{""28033"": 100}","DeSoto","28033","FALSE","FALSE","America/Chicago"
"38683","34.93504","-88.85997","Walnut","MS","Mississippi","TRUE","","3531","10.1","28139","Tippah","{""28139"": 54.7, ""28003"": 38.38, ""28009"": 6.92}","Tippah|Alcorn|Benton","28139|28003|28009","FALSE","FALSE","America/Chicago"
"38685","34.5953","-89.48827","Waterford","MS","Mississippi","TRUE","","1430","6.6","28093","Marshall","{""28093"": 94.18, ""28071"": 5.82}","Marshall|Lafayette","28093|28071","FALSE","FALSE","America/Chicago"
"38701","33.30621","-91.03346","Greenville","MS","Mississippi","TRUE","","22123","95.5","28151","Washington","{""28151"": 100}","Washington","28151","FALSE","FALSE","America/Chicago"
"38703","33.47081","-91.04775","Greenville","MS","Mississippi","TRUE","","12421","33.8","28151","Washington","{""28151"": 86.75, ""28011"": 13.25}","Washington|Bolivar","28151|28011","FALSE","FALSE","America/Chicago"
"38720","34.11907","-90.78741","Alligator","MS","Mississippi","TRUE","","659","4.3","28027","Coahoma","{""28027"": 55.13, ""28011"": 44.87}","Coahoma|Bolivar","28027|28011","FALSE","FALSE","America/Chicago"
"38721","32.96598","-90.75876","Anguilla","MS","Mississippi","TRUE","","948","2.9","28125","Sharkey","{""28125"": 100}","Sharkey","28125","FALSE","FALSE","America/Chicago"
"38722","33.26116","-90.88304","Arcola","MS","Mississippi","TRUE","","246","19.2","28151","Washington","{""28151"": 100}","Washington","28151","FALSE","FALSE","America/Chicago"
"38723","33.22967","-91.03845","Avon","MS","Mississippi","TRUE","","58","43.2","28151","Washington","{""28151"": 100}","Washington","28151","FALSE","FALSE","America/Chicago"
"38725","33.63834","-91.05543","Benoit","MS","Mississippi","TRUE","","1218","3.2","28011","Bolivar","{""28011"": 100}","Bolivar","28011","FALSE","FALSE","America/Chicago"
"38726","33.75207","-90.97664","Beulah","MS","Mississippi","TRUE","","450","3.1","28011","Bolivar","{""28011"": 100}","Bolivar","28011","FALSE","FALSE","America/Chicago"
"38730","33.6883","-90.79932","Boyle","MS","Mississippi","TRUE","","1810","11.4","28011","Bolivar","{""28011"": 100}","Bolivar","28011","FALSE","FALSE","America/Chicago"
"38731","33.11524","-91.13829","Chatham","MS","Mississippi","TRUE","","10","0.3","28151","Washington","{""28151"": 100}","Washington","28151","FALSE","FALSE","America/Chicago"
"38732","33.75556","-90.72558","Cleveland","MS","Mississippi","TRUE","","16600","72.6","28011","Bolivar","{""28011"": 76.84, ""28133"": 23.16}","Bolivar|Sunflower","28011|28133","FALSE","FALSE","America/Chicago"
"38733","33.74463","-90.73504","Cleveland","MS","Mississippi","TRUE","","41","264.2","28011","Bolivar","{""28011"": 100}","Bolivar","28011","FALSE","FALSE","America/Chicago"
"38736","33.64389","-90.54173","Doddsville","MS","Mississippi","TRUE","","629","3.5","28133","Sunflower","{""28133"": 93.98, ""28083"": 6.02}","Sunflower|Leflore","28133|28083","FALSE","FALSE","America/Chicago"
"38737","33.85683","-90.4928","Drew","MS","Mississippi","TRUE","","3041","10.2","28133","Sunflower","{""28133"": 69.48, ""28135"": 30.52}","Sunflower|Tallahatchie","28133|28135","FALSE","FALSE","America/Chicago"
"38738","33.93049","-90.53653","Parchman","MS","Mississippi","TRUE","","3425","70.4","28133","Sunflower","{""28133"": 100}","Sunflower","28133","FALSE","FALSE","America/Chicago"
"38740","34.04825","-90.79039","Duncan","MS","Mississippi","TRUE","","406","2.3","28011","Bolivar","{""28011"": 99.63, ""28027"": 0.37}","Bolivar|Coahoma","28011|28027","FALSE","FALSE","America/Chicago"
"38744","33.03066","-91.05371","Glen Allan","MS","Mississippi","TRUE","","603","3.3","28151","Washington","{""28151"": 70.99, ""28055"": 29.01}","Washington|Issaquena","28151|28055","FALSE","FALSE","America/Chicago"
"38745","32.98592","-91.00499","Grace","MS","Mississippi","TRUE","","213","7.9","28055","Issaquena","{""28055"": 100}","Issaquena","28055","FALSE","FALSE","America/Chicago"
"38746","33.95677","-90.94112","Gunnison","MS","Mississippi","TRUE","","457","2.1","28011","Bolivar","{""28011"": 100}","Bolivar","28011","FALSE","FALSE","America/Chicago"
"38748","33.15787","-90.87964","Hollandale","MS","Mississippi","TRUE","","2992","4.4","28151","Washington","{""28151"": 94.85, ""28125"": 5.15}","Washington|Sharkey","28151|28125","FALSE","FALSE","America/Chicago"
"38751","33.45326","-90.67469","Indianola","MS","Mississippi","TRUE","","10579","25.1","28133","Sunflower","{""28133"": 100}","Sunflower","28133","FALSE","FALSE","America/Chicago"
"38753","33.34845","-90.58583","Inverness","MS","Mississippi","TRUE","","1372","7.2","28133","Sunflower","{""28133"": 88.97, ""28053"": 11.03}","Sunflower|Humphreys","28133|28053","FALSE","FALSE","America/Chicago"
"38754","33.24816","-90.62066","Isola","MS","Mississippi","TRUE","","1171","4.9","28053","Humphreys","{""28053"": 72.97, ""28133"": 27.03}","Humphreys|Sunflower","28053|28133","FALSE","FALSE","America/Chicago"
"38756","33.39326","-90.85827","Leland","MS","Mississippi","TRUE","","6318","12.6","28151","Washington","{""28151"": 100}","Washington","28151","FALSE","FALSE","America/Chicago"
"38759","33.82495","-90.73501","Merigold","MS","Mississippi","TRUE","","1364","8.1","28011","Bolivar","{""28011"": 71.58, ""28133"": 28.42}","Bolivar|Sunflower","28011|28133","FALSE","FALSE","America/Chicago"
"38760","33.4535","-90.99394","Metcalfe","MS","Mississippi","TRUE","","938","221.7","28151","Washington","{""28151"": 100}","Washington","28151","FALSE","FALSE","America/Chicago"
"38761","33.42507","-90.47658","Moorhead","MS","Mississippi","TRUE","","2212","15.4","28133","Sunflower","{""28133"": 69.36, ""28083"": 30.64}","Sunflower|Leflore","28133|28083","FALSE","FALSE","America/Chicago"
"38762","33.8885","-90.72681","Mound Bayou","MS","Mississippi","TRUE","","2405","14.1","28011","Bolivar","{""28011"": 79.05, ""28133"": 20.95}","Bolivar|Sunflower","28011|28133","FALSE","FALSE","America/Chicago"
"38764","33.79878","-90.87965","Pace","MS","Mississippi","TRUE","","302","35.4","28011","Bolivar","{""28011"": 100}","Bolivar","28011","FALSE","FALSE","America/Chicago"
"38765","33.0493","-90.8896","Panther Burn","MS","Mississippi","TRUE","","40","2.0","28125","Sharkey","{""28125"": 100}","Sharkey","28125","FALSE","FALSE","America/Chicago"
"38767","34.12809","-90.80552","Rena Lara","MS","Mississippi","TRUE","","91","19.3","28027","Coahoma","{""28027"": 100}","Coahoma","28027","FALSE","FALSE","America/Chicago"
"38768","33.96576","-90.48036","Rome","MS","Mississippi","TRUE","","45","5.1","28133","Sunflower","{""28133"": 100}","Sunflower","28133","FALSE","FALSE","America/Chicago"
"38769","33.84255","-90.97678","Rosedale","MS","Mississippi","TRUE","","2014","11.0","28011","Bolivar","{""28011"": 91.6, ""05041"": 8.4}","Bolivar|Desha","28011|05041","FALSE","FALSE","America/Chicago"
"38771","33.73914","-90.5243","Ruleville","MS","Mississippi","TRUE","","2877","20.5","28133","Sunflower","{""28133"": 100}","Sunflower","28133","FALSE","FALSE","America/Chicago"
"38772","33.56254","-91.08769","Scott","MS","Mississippi","TRUE","","61","1.4","28011","Bolivar","{""28011"": 99.77, ""28151"": 0.23}","Bolivar|Washington","28011|28151","FALSE","FALSE","America/Chicago"
"38773","33.60455","-90.77388","Shaw","MS","Mississippi","TRUE","","2975","8.9","28011","Bolivar","{""28011"": 71.55, ""28133"": 28.45}","Bolivar|Sunflower","28011|28133","FALSE","FALSE","America/Chicago"
"38774","33.9659","-90.76695","Shelby","MS","Mississippi","TRUE","","1663","10.2","28011","Bolivar","{""28011"": 100}","Bolivar","28011","FALSE","FALSE","America/Chicago"
"38776","33.42466","-90.92752","Stoneville","MS","Mississippi","TRUE","","16","14.8","28151","Washington","{""28151"": 100}","Washington","28151","FALSE","FALSE","America/Chicago"
"38778","33.54564","-90.51832","Sunflower","MS","Mississippi","TRUE","","1295","8.2","28133","Sunflower","{""28133"": 100}","Sunflower","28133","FALSE","FALSE","America/Chicago"
"38781","33.90876","-90.75684","Winstonville","MS","Mississippi","TRUE","","117","66.0","28011","Bolivar","{""28011"": 100}","Bolivar","28011","FALSE","FALSE","America/Chicago"
"38801","34.22256","-88.7762","Tupelo","MS","Mississippi","TRUE","","29901","158.2","28081","Lee","{""28081"": 82.65, ""28115"": 17.35}","Lee|Pontotoc","28081|28115","FALSE","FALSE","America/Chicago"
"38804","34.28094","-88.67246","Tupelo","MS","Mississippi","TRUE","","15714","77.3","28081","Lee","{""28081"": 97.7, ""28057"": 2.3}","Lee|Itawamba","28081|28057","FALSE","FALSE","America/Chicago"
"38821","33.97503","-88.43918","Amory","MS","Mississippi","TRUE","","11828","32.9","28095","Monroe","{""28095"": 100}","Monroe","28095","FALSE","FALSE","America/Chicago"
"38824","34.52303","-88.64334","Baldwyn","MS","Mississippi","TRUE","","8099","21.3","28117","Prentiss","{""28117"": 47.4, ""28081"": 24.64, ""28145"": 14.21, ""28057"": 7.8, ""28139"": 5.96}","Prentiss|Lee|Union|Itawamba|Tippah","28117|28081|28145|28057|28139","FALSE","FALSE","America/Chicago"
"38826","34.30164","-88.84655","Belden","MS","Mississippi","TRUE","","5357","67.4","28115","Pontotoc","{""28115"": 71.77, ""28081"": 28.23}","Pontotoc|Lee","28115|28081","FALSE","FALSE","America/Chicago"
"38827","34.53","-88.20244","Belmont","MS","Mississippi","TRUE","","3472","38.9","28141","Tishomingo","{""28141"": 100}","Tishomingo","28141","FALSE","FALSE","America/Chicago"
"38828","34.42365","-88.86789","Blue Springs","MS","Mississippi","TRUE","","5032","20.8","28145","Union","{""28145"": 80.87, ""28115"": 15.11, ""28081"": 4.02}","Union|Pontotoc|Lee","28145|28115|28081","FALSE","FALSE","America/Chicago"
"38829","34.65229","-88.53639","Booneville","MS","Mississippi","TRUE","","17625","26.5","28117","Prentiss","{""28117"": 92.68, ""28139"": 7.32}","Prentiss|Tippah","28117|28139","FALSE","FALSE","America/Chicago"
"38833","34.82259","-88.34274","Burnsville","MS","Mississippi","TRUE","","2291","17.7","28141","Tishomingo","{""28141"": 77.24, ""28003"": 14.93, ""28117"": 7.83}","Tishomingo|Alcorn|Prentiss","28141|28003|28117","FALSE","FALSE","America/Chicago"
"38834","34.91627","-88.56027","Corinth","MS","Mississippi","TRUE","","27818","48.2","28003","Alcorn","{""28003"": 98.57, ""28141"": 1.43}","Alcorn|Tishomingo","28003|28141","FALSE","FALSE","America/Chicago"
"38838","34.5448","-88.2643","Dennis","MS","Mississippi","TRUE","","1279","10.9","28141","Tishomingo","{""28141"": 99.16, ""28117"": 0.84}","Tishomingo|Prentiss","28141|28117","FALSE","FALSE","America/Chicago"
"38839","33.8558","-89.28404","Derma","MS","Mississippi","TRUE","","29","199.4","28013","Calhoun","{""28013"": 100}","Calhoun","28013","FALSE","FALSE","America/Chicago"
"38841","34.34943","-89.02237","Ecru","MS","Mississippi","TRUE","","3750","43.9","28115","Pontotoc","{""28115"": 90.69, ""28145"": 9.31}","Pontotoc|Union","28115|28145","FALSE","FALSE","America/Chicago"
"38843","34.26753","-88.37437","Fulton","MS","Mississippi","TRUE","","11468","22.6","28057","Itawamba","{""28057"": 99.56, ""28081"": 0.44}","Itawamba|Lee","28057|28081","FALSE","FALSE","America/Chicago"
"38844","33.839","-88.25593","Gattman","MS","Mississippi","TRUE","","241","7.2","28095","Monroe","{""28095"": 100}","Monroe","28095","FALSE","FALSE","America/Chicago"
"38846","34.85135","-88.39501","Glen","MS","Mississippi","TRUE","","1728","19.3","28003","Alcorn","{""28003"": 80.17, ""28141"": 19.83}","Alcorn|Tishomingo","28003|28141","FALSE","FALSE","America/Chicago"
"38847","34.40772","-88.24074","Golden","MS","Mississippi","TRUE","","3625","15.3","28057","Itawamba","{""28057"": 87.07, ""28141"": 12.93}","Itawamba|Tishomingo","28057|28141","FALSE","FALSE","America/Chicago"
"38848","33.94523","-88.27797","Greenwood Springs","MS","Mississippi","TRUE","","802","3.8","28095","Monroe","{""28095"": 100}","Monroe","28095","FALSE","FALSE","America/Chicago"
"38849","34.45442","-88.69319","Guntown","MS","Mississippi","TRUE","","5599","29.8","28081","Lee","{""28081"": 81.11, ""28145"": 17.92, ""28057"": 0.97}","Lee|Union|Itawamba","28081|28145|28057","FALSE","FALSE","America/Chicago"
"38850","34.04792","-89.06705","Houlka","MS","Mississippi","TRUE","","2675","7.4","28017","Chickasaw","{""28017"": 61.28, ""28013"": 21.15, ""28115"": 17.57}","Chickasaw|Calhoun|Pontotoc","28017|28013|28115","FALSE","FALSE","America/Chicago"
"38851","33.90763","-88.9637","Houston","MS","Mississippi","TRUE","","8983","15.9","28017","Chickasaw","{""28017"": 100}","Chickasaw","28017","FALSE","FALSE","America/Chicago"
"38852","34.84484","-88.21598","Iuka","MS","Mississippi","TRUE","","8446","16.5","28141","Tishomingo","{""28141"": 99.7, ""01033"": 0.3}","Tishomingo|Colbert","28141|01033","FALSE","FALSE","America/Chicago"
"38855","34.32646","-88.48659","Mantachie","MS","Mississippi","TRUE","","5202","32.5","28057","Itawamba","{""28057"": 100}","Itawamba","28057","FALSE","FALSE","America/Chicago"
"38856","34.46835","-88.44553","Marietta","MS","Mississippi","TRUE","","1812","11.9","28057","Itawamba","{""28057"": 54.63, ""28117"": 45.37}","Itawamba|Prentiss","28057|28117","FALSE","FALSE","America/Chicago"
"38857","34.28004","-88.57808","Mooreville","MS","Mississippi","TRUE","","4515","91.8","28081","Lee","{""28081"": 100}","Lee","28081","FALSE","FALSE","America/Chicago"
"38858","34.10145","-88.53726","Nettleton","MS","Mississippi","TRUE","","6953","22.0","28057","Itawamba","{""28057"": 44.88, ""28095"": 37.48, ""28081"": 17.64}","Itawamba|Monroe|Lee","28057|28095|28081","FALSE","FALSE","America/Chicago"
"38859","34.52865","-88.37548","New Site","MS","Mississippi","TRUE","","595","5.2","28117","Prentiss","{""28117"": 100}","Prentiss","28117","FALSE","FALSE","America/Chicago"
"38860","33.97649","-88.75879","Okolona","MS","Mississippi","TRUE","","6425","18.0","28017","Chickasaw","{""28017"": 74.43, ""28095"": 21.66, ""28081"": 3.37, ""28115"": 0.54}","Chickasaw|Monroe|Lee|Pontotoc","28017|28095|28081|28115","FALSE","FALSE","America/Chicago"
"38862","34.16871","-88.62048","Plantersville","MS","Mississippi","TRUE","","2504","32.5","28081","Lee","{""28081"": 100}","Lee","28081","FALSE","FALSE","America/Chicago"
"38863","34.2167","-89.02738","Pontotoc","MS","Mississippi","TRUE","","18692","24.9","28115","Pontotoc","{""28115"": 96.06, ""28071"": 3.94}","Pontotoc|Lafayette","28115|28071","FALSE","FALSE","America/Chicago"
"38864","34.14325","-89.20167","Randolph","MS","Mississippi","TRUE","","2208","10.7","28115","Pontotoc","{""28115"": 77.87, ""28013"": 22.13}","Pontotoc|Calhoun","28115|28013","FALSE","FALSE","America/Chicago"
"38865","34.78003","-88.58821","Rienzi","MS","Mississippi","TRUE","","5229","17.0","28003","Alcorn","{""28003"": 78.41, ""28117"": 21.59}","Alcorn|Prentiss","28003|28117","FALSE","FALSE","America/Chicago"
"38866","34.36644","-88.68187","Saltillo","MS","Mississippi","TRUE","","12560","64.3","28081","Lee","{""28081"": 100}","Lee","28081","FALSE","FALSE","America/Chicago"
"38868","34.12168","-88.74692","Shannon","MS","Mississippi","TRUE","","5721","30.2","28081","Lee","{""28081"": 74.24, ""28115"": 15.45, ""28095"": 7.38, ""28017"": 2.93}","Lee|Pontotoc|Monroe|Chickasaw","28081|28115|28095|28017","FALSE","FALSE","America/Chicago"
"38869","34.35627","-88.83635","Sherman","MS","Mississippi","TRUE","","319","116.9","28115","Pontotoc","{""28115"": 100}","Pontotoc","28115","FALSE","FALSE","America/Chicago"
"38870","34.06886","-88.34125","Smithville","MS","Mississippi","TRUE","","2843","16.0","28095","Monroe","{""28095"": 70.67, ""28057"": 29.33}","Monroe|Itawamba","28095|28057","FALSE","FALSE","America/Chicago"
"38871","34.33582","-89.2055","Thaxton","MS","Mississippi","TRUE","","1955","13.7","28115","Pontotoc","{""28115"": 75.05, ""28071"": 17.0, ""28145"": 7.95}","Pontotoc|Lafayette|Union","28115|28071|28145","FALSE","FALSE","America/Chicago"
"38873","34.66169","-88.25141","Tishomingo","MS","Mississippi","TRUE","","3028","12.6","28141","Tishomingo","{""28141"": 93.58, ""28117"": 6.42}","Tishomingo|Prentiss","28141|28117","FALSE","FALSE","America/Chicago"
"38876","34.21457","-88.23112","Tremont","MS","Mississippi","TRUE","","1205","6.2","28057","Itawamba","{""28057"": 100}","Itawamba","28057","FALSE","FALSE","America/Chicago"
"38878","33.88179","-89.19231","Vardaman","MS","Mississippi","TRUE","","2545","11.3","28013","Calhoun","{""28013"": 94.17, ""28017"": 5.83}","Calhoun|Chickasaw","28013|28017","FALSE","FALSE","America/Chicago"
"38879","34.19519","-88.71209","Verona","MS","Mississippi","TRUE","","58","188.3","28081","Lee","{""28081"": 100}","Lee","28081","FALSE","FALSE","America/Chicago"
"38901","33.76275","-89.79799","Grenada","MS","Mississippi","TRUE","","18794","30.0","28043","Grenada","{""28043"": 86.25, ""28015"": 9.33, ""28135"": 3.56, ""28097"": 0.86}","Grenada|Carroll|Tallahatchie|Montgomery","28043|28015|28135|28097","FALSE","FALSE","America/Chicago"
"38913","34.13774","-89.37836","Banner","MS","Mississippi","TRUE","","373","6.3","28013","Calhoun","{""28013"": 97.43, ""28071"": 2.57}","Calhoun|Lafayette","28013|28071","FALSE","FALSE","America/Chicago"
"38914","33.86466","-89.46453","Big Creek","MS","Mississippi","TRUE","","814","6.3","28013","Calhoun","{""28013"": 93.62, ""28043"": 6.38}","Calhoun|Grenada","28013|28043","FALSE","FALSE","America/Chicago"
"38915","34.02807","-89.38957","Bruce","MS","Mississippi","TRUE","","3433","12.0","28013","Calhoun","{""28013"": 100}","Calhoun","28013","FALSE","FALSE","America/Chicago"
"38916","33.81815","-89.35158","Calhoun City","MS","Mississippi","TRUE","","4752","10.4","28013","Calhoun","{""28013"": 95.48, ""28155"": 4.52}","Calhoun|Webster","28013|28155","FALSE","FALSE","America/Chicago"
"38917","33.54902","-89.95501","Carrollton","MS","Mississippi","TRUE","","3832","8.8","28015","Carroll","{""28015"": 100}","Carroll","28015","FALSE","FALSE","America/Chicago"
"38920","33.8823","-90.05018","Cascilla","MS","Mississippi","TRUE","","579","4.4","28135","Tallahatchie","{""28135"": 100}","Tallahatchie","28135","FALSE","FALSE","America/Chicago"
"38921","33.98328","-90.1425","Charleston","MS","Mississippi","TRUE","","4847","12.7","28135","Tallahatchie","{""28135"": 100}","Tallahatchie","28135","FALSE","FALSE","America/Chicago"
"38922","33.93641","-89.64878","Coffeeville","MS","Mississippi","TRUE","","2986","5.2","28161","Yalobusha","{""28161"": 80.37, ""28043"": 19.63}","Yalobusha|Grenada","28161|28043","FALSE","FALSE","America/Chicago"
"38923","33.37829","-89.99354","Coila","MS","Mississippi","TRUE","","816","3.9","28015","Carroll","{""28015"": 100}","Carroll","28015","FALSE","FALSE","America/Chicago"
"38924","33.29342","-90.22392","Cruger","MS","Mississippi","TRUE","","315","1.0","28051","Holmes","{""28051"": 66.48, ""28053"": 15.91, ""28015"": 10.89, ""28083"": 6.72}","Holmes|Humphreys|Carroll|Leflore","28051|28053|28015|28083","FALSE","FALSE","America/Chicago"
"38925","33.62917","-89.61961","Duck Hill","MS","Mississippi","TRUE","","2163","5.3","28097","Montgomery","{""28097"": 78.24, ""28043"": 11.45, ""28155"": 10.31}","Montgomery|Grenada|Webster","28097|28043|28155","FALSE","FALSE","America/Chicago"
"38927","34.13394","-90.01827","Enid","MS","Mississippi","TRUE","","795","5.2","28135","Tallahatchie","{""28135"": 83.62, ""28107"": 15.1, ""28161"": 1.28}","Tallahatchie|Panola|Yalobusha","28135|28107|28161","FALSE","FALSE","America/Chicago"
"38928","33.85405","-90.28731","Glendora","MS","Mississippi","TRUE","","331","3.7","28135","Tallahatchie","{""28135"": 100}","Tallahatchie","28135","FALSE","FALSE","America/Chicago"
"38929","33.74014","-89.52425","Gore Springs","MS","Mississippi","TRUE","","1867","10.1","28043","Grenada","{""28043"": 60.71, ""28155"": 31.95, ""28013"": 7.34}","Grenada|Webster|Calhoun","28043|28155|28013","FALSE","FALSE","America/Chicago"
"38930","33.52845","-90.14245","Greenwood","MS","Mississippi","TRUE","","23908","47.5","28083","Leflore","{""28083"": 62.46, ""28015"": 37.54}","Leflore|Carroll","28083|28015","FALSE","FALSE","America/Chicago"
"38940","33.75145","-90.03505","Holcomb","MS","Mississippi","TRUE","","1632","4.2","28043","Grenada","{""28043"": 72.89, ""28135"": 19.11, ""28015"": 8.0}","Grenada|Tallahatchie|Carroll","28043|28135|28015","FALSE","FALSE","America/Chicago"
"38941","33.48655","-90.35909","Itta Bena","MS","Mississippi","TRUE","","3664","13.4","28083","Leflore","{""28083"": 100}","Leflore","28083","FALSE","FALSE","America/Chicago"
"38943","33.52033","-89.84525","McCarley","MS","Mississippi","TRUE","","692","5.5","28015","Carroll","{""28015"": 100}","Carroll","28015","FALSE","FALSE","America/Chicago"
"38944","33.76106","-90.34242","Minter City","MS","Mississippi","TRUE","","197","0.8","28083","Leflore","{""28083"": 96.71, ""28135"": 3.29}","Leflore|Tallahatchie","28083|28135","FALSE","FALSE","America/Chicago"
"38946","33.37701","-90.35591","Morgan City","MS","Mississippi","TRUE","","254","10.3","28083","Leflore","{""28083"": 100}","Leflore","28083","FALSE","FALSE","America/Chicago"
"38947","33.51718","-89.92128","North Carrollton","MS","Mississippi","TRUE","","30","125.4","28015","Carroll","{""28015"": 100}","Carroll","28015","FALSE","FALSE","America/Chicago"
"38948","34.07635","-89.89364","Oakland","MS","Mississippi","TRUE","","2130","8.0","28161","Yalobusha","{""28161"": 69.27, ""28135"": 30.73}","Yalobusha|Tallahatchie","28161|28135","FALSE","FALSE","America/Chicago"
"38949","34.18542","-89.4151","Paris","MS","Mississippi","TRUE","","335","11.4","28071","Lafayette","{""28071"": 100}","Lafayette","28071","FALSE","FALSE","America/Chicago"
"38950","33.74281","-90.19758","Philipp","MS","Mississippi","TRUE","","765","4.7","28135","Tallahatchie","{""28135"": 71.53, ""28083"": 28.47}","Tallahatchie|Leflore","28135|28083","FALSE","FALSE","America/Chicago"
"38951","33.97605","-89.28802","Pittsboro","MS","Mississippi","TRUE","","812","6.1","28013","Calhoun","{""28013"": 100}","Calhoun","28013","FALSE","FALSE","America/Chicago"
"38952","33.63041","-90.33711","Schlater","MS","Mississippi","TRUE","","412","1.5","28083","Leflore","{""28083"": 100}","Leflore","28083","FALSE","FALSE","America/Chicago"
"38953","33.91821","-89.92325","Scobey","MS","Mississippi","TRUE","","357","3.8","28135","Tallahatchie","{""28135"": 45.77, ""28161"": 41.8, ""28043"": 12.43}","Tallahatchie|Yalobusha|Grenada","28135|28161|28043","FALSE","FALSE","America/Chicago"
"38954","33.41301","-90.21536","Sidon","MS","Mississippi","TRUE","","830","5.0","28083","Leflore","{""28083"": 81.99, ""28015"": 15.61, ""28051"": 2.4}","Leflore|Carroll|Holmes","28083|28015|28051","FALSE","FALSE","America/Chicago"
"38957","33.98747","-90.37296","Sumner","MS","Mississippi","TRUE","","497","17.8","28135","Tallahatchie","{""28135"": 100}","Tallahatchie","28135","FALSE","FALSE","America/Chicago"
