"zip","lat","lng","city","state_id","state_name","zcta","parent_zcta","population","density","county_fips","county_name","county_weights","county_names_all","county_fips_all","imprecise","military","timezone"
"80111","39.6124","-104.88025","Englewood","CO","Colorado","TRUE","","32122","1138.5","08005","Arapahoe","{""08005"": 100}","Arapahoe","08005","FALSE","FALSE","America/Denver"
"80112","39.57288","-104.85854","Englewood","CO","Colorado","TRUE","","35144","760.3","08005","Arapahoe","{""08005"": 73.14, ""08035"": 26.86}","Arapahoe|Douglas","08005|08035","FALSE","FALSE","America/Denver"
"80113","39.64224","-104.96189","Englewood","CO","Colorado","TRUE","","22548","1134.8","08005","Arapahoe","{""08005"": 100}","Arapahoe","08005","FALSE","FALSE","America/Denver"
"80116","39.30711","-104.71947","Franktown","CO","Colorado","TRUE","","4749","19.9","08035","Douglas","{""08035"": 100}","Douglas","08035","FALSE","FALSE","America/Denver"
"80117","39.37203","-104.39978","Kiowa","CO","Colorado","TRUE","","2549","5.2","08039","Elbert","{""08039"": 100}","Elbert","08039","FALSE","FALSE","America/Denver"
"80118","39.19132","-104.8848","Larkspur","CO","Colorado","TRUE","","6141","18.1","08035","Douglas","{""08035"": 100}","Douglas","08035","FALSE","FALSE","America/Denver"
"80120","39.5929","-105.00949","Littleton","CO","Colorado","TRUE","","29840","1377.2","08005","Arapahoe","{""08005"": 98.63, ""08035"": 1.37}","Arapahoe|Douglas","08005|08035","FALSE","FALSE","America/Denver"
"80121","39.61045","-104.95421","Littleton","CO","Colorado","TRUE","","17918","959.3","08005","Arapahoe","{""08005"": 100}","Arapahoe","08005","FALSE","FALSE","America/Denver"
"80122","39.5806","-104.95573","Littleton","CO","Colorado","TRUE","","32145","1744.5","08005","Arapahoe","{""08005"": 100}","Arapahoe","08005","FALSE","FALSE","America/Denver"
"80123","39.61578","-105.0692","Littleton","CO","Colorado","TRUE","","46816","1503.5","08059","Jefferson","{""08059"": 46.53, ""08005"": 29.28, ""08031"": 24.19}","Jefferson|Arapahoe|Denver","08059|08005|08031","FALSE","FALSE","America/Denver"
"80124","39.53197","-104.89173","Lone Tree","CO","Colorado","TRUE","","22071","908.1","08035","Douglas","{""08035"": 100}","Douglas","08035","FALSE","FALSE","America/Denver"
"80125","39.48546","-105.05737","Littleton","CO","Colorado","TRUE","","11458","112.8","08035","Douglas","{""08035"": 99.63, ""08059"": 0.37}","Douglas|Jefferson","08035|08059","FALSE","FALSE","America/Denver"
"80126","39.54127","-104.96251","Littleton","CO","Colorado","TRUE","","44148","1575.8","08035","Douglas","{""08035"": 100}","Douglas","08035","FALSE","FALSE","America/Denver"
"80127","39.52249","-105.15773","Littleton","CO","Colorado","TRUE","","44417","258.3","08059","Jefferson","{""08059"": 100}","Jefferson","08059","FALSE","FALSE","America/Denver"
"80128","39.56167","-105.07914","Littleton","CO","Colorado","TRUE","","37117","1141.0","08059","Jefferson","{""08059"": 87.27, ""08005"": 12.73}","Jefferson|Arapahoe","08059|08005","FALSE","FALSE","America/Denver"
"80129","39.54521","-105.01203","Littleton","CO","Colorado","TRUE","","30340","1663.9","08035","Douglas","{""08035"": 99.49, ""08005"": 0.51}","Douglas|Arapahoe","08035|08005","FALSE","FALSE","America/Denver"
"80130","39.52918","-104.92448","Littleton","CO","Colorado","TRUE","","26643","1496.2","08035","Douglas","{""08035"": 100}","Douglas","08035","FALSE","FALSE","America/Denver"
"80131","39.47627","-105.00899","Louviers","CO","Colorado","TRUE","","265","184.5","08035","Douglas","{""08035"": 100}","Douglas","08035","FALSE","FALSE","America/Denver"
"80132","39.09183","-104.8576","Monument","CO","Colorado","TRUE","","28325","274.2","08041","El Paso","{""08041"": 100}","El Paso","08041","FALSE","FALSE","America/Denver"
"80133","39.1155","-104.90443","Palmer Lake","CO","Colorado","TRUE","","2519","327.6","08041","El Paso","{""08041"": 100}","El Paso","08041","FALSE","FALSE","America/Denver"
"80134","39.48282","-104.77957","Parker","CO","Colorado","TRUE","","73165","492.6","08035","Douglas","{""08035"": 100}","Douglas","08035","FALSE","FALSE","America/Denver"
"80135","39.27763","-105.13494","Sedalia","CO","Colorado","TRUE","","4041","4.2","08035","Douglas","{""08035"": 82.31, ""08059"": 17.69}","Douglas|Jefferson","08035|08059","FALSE","FALSE","America/Denver"
"80136","39.80729","-104.29613","Strasburg","CO","Colorado","TRUE","","5922","10.8","08001","Adams","{""08001"": 68.68, ""08005"": 31.32}","Adams|Arapahoe","08001|08005","FALSE","FALSE","America/Denver"
"80137","39.70901","-104.59235","Watkins","CO","Colorado","TRUE","","2409","8.5","08005","Arapahoe","{""08005"": 59.33, ""08001"": 40.67}","Arapahoe|Adams","08005|08001","FALSE","FALSE","America/Denver"
"80138","39.51649","-104.67114","Parker","CO","Colorado","TRUE","","34259","213.6","08035","Douglas","{""08035"": 55.41, ""08039"": 44.59}","Douglas|Elbert","08035|08039","FALSE","FALSE","America/Denver"
"80202","39.75156","-104.99768","Denver","CO","Colorado","TRUE","","16952","5660.6","08031","Denver","{""08031"": 100}","Denver","08031","FALSE","FALSE","America/Denver"
"80203","39.73142","-104.98274","Denver","CO","Colorado","TRUE","","20972","7410.0","08031","Denver","{""08031"": 100}","Denver","08031","FALSE","FALSE","America/Denver"
"80204","39.73476","-105.0207","Denver","CO","Colorado","TRUE","","33853","2384.7","08031","Denver","{""08031"": 100}","Denver","08031","FALSE","FALSE","America/Denver"
"80205","39.75891","-104.96353","Denver","CO","Colorado","TRUE","","33805","2809.7","08031","Denver","{""08031"": 100}","Denver","08031","FALSE","FALSE","America/Denver"
"80206","39.73041","-104.95258","Denver","CO","Colorado","TRUE","","25046","3903.2","08031","Denver","{""08031"": 100}","Denver","08031","FALSE","FALSE","America/Denver"
"80207","39.76137","-104.91674","Denver","CO","Colorado","TRUE","","22776","2243.5","08031","Denver","{""08031"": 100}","Denver","08031","FALSE","FALSE","America/Denver"
"80209","39.70608","-104.9656","Denver","CO","Colorado","TRUE","","24073","2653.5","08031","Denver","{""08031"": 100}","Denver","08031","FALSE","FALSE","America/Denver"
"80210","39.6781","-104.96275","Denver","CO","Colorado","TRUE","","38059","2413.4","08031","Denver","{""08031"": 100}","Denver","08031","FALSE","FALSE","America/Denver"
"80211","39.76715","-105.02006","Denver","CO","Colorado","TRUE","","36330","3107.4","08031","Denver","{""08031"": 100}","Denver","08031","FALSE","FALSE","America/Denver"
"80212","39.77174","-105.04819","Denver","CO","Colorado","TRUE","","19778","2143.1","08031","Denver","{""08031"": 74.66, ""08059"": 18.07, ""08001"": 7.27}","Denver|Jefferson|Adams","08031|08059|08001","FALSE","FALSE","America/Denver"
"80214","39.74205","-105.07123","Denver","CO","Colorado","TRUE","","26122","2160.3","08059","Jefferson","{""08059"": 99.16, ""08031"": 0.84}","Jefferson|Denver","08059|08031","FALSE","FALSE","America/Denver"
"80215","39.74412","-105.1158","Denver","CO","Colorado","TRUE","","19288","1364.3","08059","Jefferson","{""08059"": 100}","Jefferson","08059","FALSE","FALSE","America/Denver"
"80216","39.78659","-104.96187","Denver","CO","Colorado","TRUE","","15349","584.9","08031","Denver","{""08031"": 71.56, ""08001"": 28.44}","Denver|Adams","08031|08001","FALSE","FALSE","America/Denver"
"80218","39.73119","-104.97073","Denver","CO","Colorado","TRUE","","19013","4638.1","08031","Denver","{""08031"": 100}","Denver","08031","FALSE","FALSE","America/Denver"
"80219","39.69496","-105.03432","Denver","CO","Colorado","TRUE","","67393","3525.1","08031","Denver","{""08031"": 100}","Denver","08031","FALSE","FALSE","America/Denver"
"80220","39.73375","-104.91648","Denver","CO","Colorado","TRUE","","37116","2771.4","08031","Denver","{""08031"": 99.52, ""08001"": 0.31, ""08005"": 0.17}","Denver|Adams|Arapahoe","08031|08001|08005","FALSE","FALSE","America/Denver"
"80221","39.81555","-105.0103","Denver","CO","Colorado","TRUE","","40741","1731.5","08001","Adams","{""08001"": 88.51, ""08031"": 11.49}","Adams|Denver","08001|08031","FALSE","FALSE","America/Denver"
"80222","39.6713","-104.92828","Denver","CO","Colorado","TRUE","","24169","2439.8","08031","Denver","{""08031"": 84.99, ""08005"": 15.01}","Denver|Arapahoe","08031|08005","FALSE","FALSE","America/Denver"
"80223","39.69646","-105.00216","Denver","CO","Colorado","TRUE","","20227","1471.7","08031","Denver","{""08031"": 100}","Denver","08031","FALSE","FALSE","America/Denver"
"80224","39.68803","-104.91161","Denver","CO","Colorado","TRUE","","18995","2236.9","08031","Denver","{""08031"": 97.44, ""08005"": 2.56}","Denver|Arapahoe","08031|08005","FALSE","FALSE","America/Denver"
"80226","39.71081","-105.09155","Denver","CO","Colorado","TRUE","","32232","1533.9","08059","Jefferson","{""08059"": 99.4, ""08031"": 0.6}","Jefferson|Denver","08059|08031","FALSE","FALSE","America/Denver"
"80227","39.66331","-105.10536","Denver","CO","Colorado","TRUE","","35296","1260.3","08059","Jefferson","{""08059"": 86.15, ""08031"": 13.85}","Jefferson|Denver","08059|08031","FALSE","FALSE","America/Denver"
"80228","39.69186","-105.15726","Denver","CO","Colorado","TRUE","","35091","1182.0","08059","Jefferson","{""08059"": 100}","Jefferson","08059","FALSE","FALSE","America/Denver"
"80229","39.85472","-104.95867","Denver","CO","Colorado","TRUE","","56484","1743.2","08001","Adams","{""08001"": 100}","Adams","08001","FALSE","FALSE","America/Denver"
"80230","39.72032","-104.88933","Denver","CO","Colorado","TRUE","","9782","1371.0","08031","Denver","{""08031"": 90.54, ""08005"": 9.46}","Denver|Arapahoe","08031|08005","FALSE","FALSE","America/Denver"
"80231","39.67123","-104.88787","Denver","CO","Colorado","TRUE","","35168","2781.5","08031","Denver","{""08031"": 58.05, ""08005"": 41.95}","Denver|Arapahoe","08031|08005","FALSE","FALSE","America/Denver"
"80232","39.68892","-105.08983","Denver","CO","Colorado","TRUE","","22352","2222.2","08059","Jefferson","{""08059"": 99.29, ""08031"": 0.71}","Jefferson|Denver","08059|08031","FALSE","FALSE","America/Denver"
"80233","39.89937","-104.94697","Denver","CO","Colorado","TRUE","","47810","2019.6","08001","Adams","{""08001"": 100}","Adams","08001","FALSE","FALSE","America/Denver"
"80234","39.91208","-105.00526","Denver","CO","Colorado","TRUE","","28793","1578.5","08001","Adams","{""08001"": 97.9, ""08014"": 2.1}","Adams|Broomfield","08001|08014","FALSE","FALSE","America/Denver"
"80235","39.64615","-105.08909","Denver","CO","Colorado","TRUE","","8752","995.0","08059","Jefferson","{""08059"": 74.92, ""08031"": 25.08}","Jefferson|Denver","08059|08031","FALSE","FALSE","America/Denver"
"80236","39.65169","-105.03966","Denver","CO","Colorado","TRUE","","16416","1973.3","08031","Denver","{""08031"": 96.4, ""08005"": 3.6}","Denver|Arapahoe","08031|08005","FALSE","FALSE","America/Denver"
"80237","39.63996","-104.90178","Denver","CO","Colorado","TRUE","","22149","2360.1","08031","Denver","{""08031"": 99.75, ""08005"": 0.25}","Denver|Arapahoe","08031|08005","FALSE","FALSE","America/Denver"
"80238","39.77722","-104.8808","Denver","CO","Colorado","TRUE","","27921","1587.2","08031","Denver","{""08031"": 100}","Denver","08031","FALSE","FALSE","America/Denver"
"80239","39.78801","-104.8333","Denver","CO","Colorado","TRUE","","46465","1736.3","08031","Denver","{""08031"": 79.67, ""08001"": 20.33}","Denver|Adams","08031|08001","FALSE","FALSE","America/Denver"
"80241","39.92876","-104.95492","Thornton","CO","Colorado","TRUE","","34233","2010.3","08001","Adams","{""08001"": 100}","Adams","08001","FALSE","FALSE","America/Denver"
"80246","39.70461","-104.9314","Denver","CO","Colorado","TRUE","","12878","2975.1","08031","Denver","{""08031"": 65.59, ""08005"": 34.41}","Denver|Arapahoe","08031|08005","FALSE","FALSE","America/Denver"
"80247","39.69684","-104.88127","Denver","CO","Colorado","TRUE","","29066","3853.2","08031","Denver","{""08031"": 54.07, ""08005"": 45.93}","Denver|Arapahoe","08031|08005","FALSE","FALSE","America/Denver"
"80249","39.84964","-104.69496","Denver","CO","Colorado","TRUE","","36640","296.8","08031","Denver","{""08031"": 100}","Denver","08031","FALSE","FALSE","America/Denver"
"80260","39.86705","-105.00569","Denver","CO","Colorado","TRUE","","35291","2860.5","08001","Adams","{""08001"": 100}","Adams","08001","FALSE","FALSE","America/Denver"
"80264","39.74248","-104.98548","Denver","CO","Colorado","TRUE","","0","0.0","08031","Denver","{""08031"": 100}","Denver","08031","FALSE","FALSE","America/Denver"
"80266","39.79002","-104.90021","Denver","CO","Colorado","TRUE","","0","0.0","08031","Denver","{""08031"": 100}","Denver","08031","FALSE","FALSE","America/Denver"
"80290","39.74411","-104.98675","Denver","CO","Colorado","TRUE","","281","14418.4","08031","Denver","{""08031"": 100}","Denver","08031","FALSE","FALSE","America/Denver"
"80293","39.74608","-104.98972","Denver","CO","Colorado","TRUE","","0","0.0","08031","Denver","{""08031"": 100}","Denver","08031","FALSE","FALSE","America/Denver"
"80294","39.74979","-104.98971","Denver","CO","Colorado","TRUE","","0","0.0","08031","Denver","{""08031"": 100}","Denver","08031","FALSE","FALSE","America/Denver"
"80301","40.04795","-105.19876","Boulder","CO","Colorado","TRUE","","25058","337.7","08013","Boulder","{""08013"": 100}","Boulder","08013","FALSE","FALSE","America/Denver"
"80302","40.0306","-105.35542","Boulder","CO","Colorado","TRUE","","29593","121.7","08013","Boulder","{""08013"": 100}","Boulder","08013","FALSE","FALSE","America/Denver"
"80303","39.97422","-105.21206","Boulder","CO","Colorado","TRUE","","24810","437.8","08013","Boulder","{""08013"": 100}","Boulder","08013","FALSE","FALSE","America/Denver"
"80304","40.04557","-105.29006","Boulder","CO","Colorado","TRUE","","25332","1083.6","08013","Boulder","{""08013"": 100}","Boulder","08013","FALSE","FALSE","America/Denver"
"80305","39.97733","-105.24877","Boulder","CO","Colorado","TRUE","","16153","1071.5","08013","Boulder","{""08013"": 100}","Boulder","08013","FALSE","FALSE","America/Denver"
"80310","40.00465","-105.26254","Boulder","CO","Colorado","TRUE","","7664","5427.2","08013","Boulder","{""08013"": 100}","Boulder","08013","FALSE","FALSE","America/Denver"
"80401","39.71672","-105.23286","Golden","CO","Colorado","TRUE","","42397","333.6","08059","Jefferson","{""08059"": 100}","Jefferson","08059","FALSE","FALSE","America/Denver"
"80403","39.83229","-105.32013","Golden","CO","Colorado","TRUE","","20831","56.7","08059","Jefferson","{""08059"": 82.13, ""08047"": 12.44, ""08013"": 5.43}","Jefferson|Gilpin|Boulder","08059|08047|08013","FALSE","FALSE","America/Denver"
"80419","39.7284","-105.20239","Golden","CO","Colorado","TRUE","","0","0.0","08059","Jefferson","{""08059"": 100}","Jefferson","08059","FALSE","FALSE","America/Denver"
"80420","39.31451","-106.10553","Alma","CO","Colorado","TRUE","","803","7.4","08093","Park","{""08093"": 100}","Park","08093","FALSE","FALSE","America/Denver"
"80421","39.48166","-105.50462","Bailey","CO","Colorado","TRUE","","8807","32.6","08093","Park","{""08093"": 97.9, ""08059"": 2.1}","Park|Jefferson","08093|08059","FALSE","FALSE","America/Denver"
"80422","39.8635","-105.53846","Black Hawk","CO","Colorado","TRUE","","4167","15.0","08047","Gilpin","{""08047"": 100}","Gilpin","08047","FALSE","FALSE","America/Denver"
"80423","39.84776","-106.55359","Bond","CO","Colorado","TRUE","","138","0.2","08037","Eagle","{""08037"": 84.94, ""08049"": 15.06}","Eagle|Grand","08037|08049","FALSE","FALSE","America/Denver"
"80424","39.47089","-106.01685","Breckenridge","CO","Colorado","TRUE","","10862","33.3","08117","Summit","{""08117"": 100}","Summit","08117","FALSE","FALSE","America/Denver"
"80425","39.34714","-105.23162","Buffalo Creek","CO","Colorado","TRUE","","137","1.0","08059","Jefferson","{""08059"": 100}","Jefferson","08059","FALSE","FALSE","America/Denver"
"80426","39.87393","-106.98452","Burns","CO","Colorado","TRUE","","73","0.4","08037","Eagle","{""08037"": 100}","Eagle","08037","FALSE","FALSE","America/Denver"
"80427","39.79366","-105.52413","Central City","CO","Colorado","TRUE","","680","18.2","08047","Gilpin","{""08047"": 99.9, ""08019"": 0.1}","Gilpin|Clear Creek","08047|08019","FALSE","FALSE","America/Denver"
"80428","40.85326","-106.91373","Clark","CO","Colorado","TRUE","","509","1.0","08107","Routt","{""08107"": 100}","Routt","08107","FALSE","FALSE","America/Denver"
"80430","40.50925","-106.44688","Coalmont","CO","Colorado","TRUE","","148","0.4","08057","Jackson","{""08057"": 100}","Jackson","08057","FALSE","FALSE","America/Denver"
"80432","39.22256","-105.82969","Como","CO","Colorado","TRUE","","285","0.5","08093","Park","{""08093"": 100}","Park","08093","FALSE","FALSE","America/Denver"
"80433","39.49636","-105.29586","Conifer","CO","Colorado","TRUE","","8531","49.5","08059","Jefferson","{""08059"": 100}","Jefferson","08059","FALSE","FALSE","America/Denver"
"80434","40.91209","-106.28228","Cowdrey","CO","Colorado","TRUE","","23","0.1","08057","Jackson","{""08057"": 100}","Jackson","08057","FALSE","FALSE","America/Denver"
"80435","39.60161","-105.92452","Dillon","CO","Colorado","TRUE","","8004","29.7","08117","Summit","{""08117"": 100}","Summit","08117","FALSE","FALSE","America/Denver"
"80436","39.78203","-105.64349","Dumont","CO","Colorado","TRUE","","403","8.9","08019","Clear Creek","{""08019"": 100}","Clear Creek","08019","FALSE","FALSE","America/Denver"
"80438","39.7602","-105.78356","Empire","CO","Colorado","TRUE","","635","4.4","08019","Clear Creek","{""08019"": 100}","Clear Creek","08019","FALSE","FALSE","America/Denver"
"80439","39.6343","-105.42994","Evergreen","CO","Colorado","TRUE","","25255","57.8","08019","Clear Creek","{""08019"": 58.27, ""08059"": 41.73}","Clear Creek|Jefferson","08019|08059","FALSE","FALSE","America/Denver"
"80440","39.13412","-106.04137","Fairplay","CO","Colorado","TRUE","","2672","3.2","08093","Park","{""08093"": 100}","Park","08093","FALSE","FALSE","America/Denver"
"80442","39.91633","-105.89813","Fraser","CO","Colorado","TRUE","","2311","16.2","08049","Grand","{""08049"": 100}","Grand","08049","FALSE","FALSE","America/Denver"
"80443","39.50165","-106.16673","Frisco","CO","Colorado","TRUE","","4379","16.6","08117","Summit","{""08117"": 100}","Summit","08117","FALSE","FALSE","America/Denver"
"80444","39.63138","-105.73078","Georgetown","CO","Colorado","TRUE","","1098","11.1","08019","Clear Creek","{""08019"": 100}","Clear Creek","08019","FALSE","FALSE","America/Denver"
"80446","40.16335","-105.937","Granby","CO","Colorado","TRUE","","3612","3.8","08049","Grand","{""08049"": 100}","Grand","08049","FALSE","FALSE","America/Denver"
"80447","40.30116","-105.81712","Grand Lake","CO","Colorado","TRUE","","2271","4.3","08049","Grand","{""08049"": 100}","Grand","08049","FALSE","FALSE","America/Denver"
"80448","39.41769","-105.63747","Grant","CO","Colorado","TRUE","","0","0.0","08093","Park","{""08093"": 100}","Park","08093","FALSE","FALSE","America/Denver"
"80449","38.93059","-105.79169","Hartsel","CO","Colorado","TRUE","","1092","1.0","08093","Park","{""08093"": 97.52, ""08015"": 2.48}","Park|Chaffee","08093|08015","FALSE","FALSE","America/Denver"
"80451","40.04007","-106.04456","Hot Sulphur Springs","CO","Colorado","TRUE","","984","10.3","08049","Grand","{""08049"": 100}","Grand","08049","FALSE","FALSE","America/Denver"
"80452","39.70969","-105.59515","Idaho Springs","CO","Colorado","TRUE","","3289","9.8","08019","Clear Creek","{""08019"": 98.1, ""08047"": 1.9}","Clear Creek|Gilpin","08019|08047","FALSE","FALSE","America/Denver"
"80453","39.66477","-105.24285","Idledale","CO","Colorado","TRUE","","277","202.8","08059","Jefferson","{""08059"": 100}","Jefferson","08059","FALSE","FALSE","America/Denver"
"80454","39.63109","-105.25204","Indian Hills","CO","Colorado","TRUE","","1529","117.2","08059","Jefferson","{""08059"": 100}","Jefferson","08059","FALSE","FALSE","America/Denver"
"80455","40.11071","-105.39071","Jamestown","CO","Colorado","TRUE","","431","5.2","08013","Boulder","{""08013"": 100}","Boulder","08013","FALSE","FALSE","America/Denver"
"80456","39.30643","-105.69211","Jefferson","CO","Colorado","TRUE","","307","0.5","08093","Park","{""08093"": 100}","Park","08093","FALSE","FALSE","America/Denver"
"80457","39.65091","-105.29972","Kittredge","CO","Colorado","TRUE","","414","260.0","08059","Jefferson","{""08059"": 100}","Jefferson","08059","FALSE","FALSE","America/Denver"
"80459","40.1843","-106.41877","Kremmling","CO","Colorado","TRUE","","2565","1.6","08049","Grand","{""08049"": 100}","Grand","08049","FALSE","FALSE","America/Denver"
"80461","39.24244","-106.29016","Leadville","CO","Colorado","TRUE","","7191","11.7","08065","Lake","{""08065"": 100}","Lake","08065","FALSE","FALSE","America/Denver"
"80463","39.95523","-106.73888","McCoy","CO","Colorado","TRUE","","137","0.5","08107","Routt","{""08107"": 75.62, ""08037"": 24.38}","Routt|Eagle","08107|08037","FALSE","FALSE","America/Denver"
"80465","39.60437","-105.21521","Morrison","CO","Colorado","TRUE","","15679","139.4","08059","Jefferson","{""08059"": 100}","Jefferson","08059","FALSE","FALSE","America/Denver"
"80466","39.99008","-105.546","Nederland","CO","Colorado","TRUE","","3498","11.7","08013","Boulder","{""08013"": 100}","Boulder","08013","FALSE","FALSE","America/Denver"
"80467","40.25692","-106.87326","Oak Creek","CO","Colorado","TRUE","","2179","3.0","08107","Routt","{""08107"": 93.58, ""08103"": 6.42}","Routt|Rio Blanco","08107|08103","FALSE","FALSE","America/Denver"
"80468","39.91447","-106.10979","Parshall","CO","Colorado","TRUE","","403","0.5","08049","Grand","{""08049"": 100}","Grand","08049","FALSE","FALSE","America/Denver"
"80469","40.21448","-106.96797","Phippsburg","CO","Colorado","TRUE","","354","3.7","08107","Routt","{""08107"": 100}","Routt","08107","FALSE","FALSE","America/Denver"
"80470","39.40104","-105.34527","Pine","CO","Colorado","TRUE","","4006","15.1","08059","Jefferson","{""08059"": 81.35, ""08093"": 18.65}","Jefferson|Park","08059|08093","FALSE","FALSE","America/Denver"
"80471","39.93507","-105.42048","Pinecliffe","CO","Colorado","TRUE","","0","0.0","08013","Boulder","{""08013"": 99.74, ""08047"": 0.26}","Boulder|Gilpin","08013|08047","FALSE","FALSE","America/Denver"
"80473","40.45096","-106.1555","Rand","CO","Colorado","TRUE","","51","0.5","08057","Jackson","{""08057"": 100}","Jackson","08057","FALSE","FALSE","America/Denver"
"80474","39.92353","-105.56404","Rollinsville","CO","Colorado","TRUE","","197","9.2","08047","Gilpin","{""08047"": 100}","Gilpin","08047","FALSE","FALSE","America/Denver"
"80475","39.43012","-105.59234","Shawnee","CO","Colorado","TRUE","","9","0.1","08093","Park","{""08093"": 100}","Park","08093","FALSE","FALSE","America/Denver"
"80476","39.68522","-105.80972","Silver Plume","CO","Colorado","TRUE","","199","1.3","08019","Clear Creek","{""08019"": 100}","Clear Creek","08019","FALSE","FALSE","America/Denver"
"80478","40.02218","-105.85693","Tabernash","CO","Colorado","TRUE","","1479","15.6","08049","Grand","{""08049"": 100}","Grand","08049","FALSE","FALSE","America/Denver"
"80479","40.02078","-106.86356","Toponas","CO","Colorado","TRUE","","0","0.0","08107","Routt","{""08107"": 100}","Routt","08107","FALSE","FALSE","America/Denver"
"80480","40.67188","-106.34175","Walden","CO","Colorado","TRUE","","1153","0.3","08057","Jackson","{""08057"": 100}","Jackson","08057","FALSE","FALSE","America/Denver"
"80481","40.10351","-105.52253","Ward","CO","Colorado","TRUE","","613","5.4","08013","Boulder","{""08013"": 100}","Boulder","08013","FALSE","FALSE","America/Denver"
"80482","39.90429","-105.78404","Winter Park","CO","Colorado","TRUE","","1260","3.4","08049","Grand","{""08049"": 100}","Grand","08049","FALSE","FALSE","America/Denver"
"80483","40.12482","-106.92124","Yampa","CO","Colorado","TRUE","","594","2.3","08107","Routt","{""08107"": 100}","Routt","08107","FALSE","FALSE","America/Denver"
"80487","40.58803","-106.89321","Steamboat Springs","CO","Colorado","TRUE","","18447","8.9","08107","Routt","{""08107"": 100}","Routt","08107","FALSE","FALSE","America/Denver"
"80498","39.7794","-106.22338","Silverthorne","CO","Colorado","TRUE","","8469","11.1","08117","Summit","{""08117"": 93.82, ""08049"": 6.18}","Summit|Grand","08117|08049","FALSE","FALSE","America/Denver"
"80501","40.16479","-105.10208","Longmont","CO","Colorado","TRUE","","43615","1334.6","08013","Boulder","{""08013"": 100}","Boulder","08013","FALSE","FALSE","America/Denver"
"80503","40.16922","-105.20725","Longmont","CO","Colorado","TRUE","","36894","155.3","08013","Boulder","{""08013"": 98.01, ""08069"": 1.99}","Boulder|Larimer","08013|08069","FALSE","FALSE","America/Denver"
"80504","40.16523","-105.03029","Longmont","CO","Colorado","TRUE","","58675","239.6","08123","Weld","{""08123"": 58.58, ""08013"": 40.8, ""08069"": 0.62}","Weld|Boulder|Larimer","08123|08013|08069","FALSE","FALSE","America/Denver"
"80510","40.20964","-105.57878","Allenspark","CO","Colorado","TRUE","","462","2.7","08013","Boulder","{""08013"": 100}","Boulder","08013","FALSE","FALSE","America/Denver"
"80512","40.62989","-105.56828","Bellvue","CO","Colorado","TRUE","","1728","1.4","08069","Larimer","{""08069"": 100}","Larimer","08069","FALSE","FALSE","America/Denver"
"80513","40.29789","-105.10913","Berthoud","CO","Colorado","TRUE","","15408","83.3","08069","Larimer","{""08069"": 65.52, ""08123"": 29.5, ""08013"": 4.98}","Larimer|Weld|Boulder","08069|08123|08013","FALSE","FALSE","America/Denver"
"80514","40.07152","-104.95401","Dacono","CO","Colorado","TRUE","","6097","255.4","08123","Weld","{""08123"": 100}","Weld","08123","FALSE","FALSE","America/Denver"
"80515","40.45659","-105.37726","Drake","CO","Colorado","TRUE","","646","5.1","08069","Larimer","{""08069"": 100}","Larimer","08069","FALSE","FALSE","America/Denver"
"80516","40.05333","-105.01869","Erie","CO","Colorado","TRUE","","33291","317.7","08123","Weld","{""08123"": 76.29, ""08013"": 14.46, ""08014"": 9.25}","Weld|Boulder|Broomfield","08123|08013|08014","FALSE","FALSE","America/Denver"
"80517","40.39731","-105.61165","Estes Park","CO","Colorado","TRUE","","10675","13.9","08069","Larimer","{""08069"": 100}","Larimer","08069","FALSE","FALSE","America/Denver"
"80520","40.11387","-104.93347","Firestone","CO","Colorado","TRUE","","1874","1228.6","08123","Weld","{""08123"": 100}","Weld","08123","FALSE","FALSE","America/Denver"
"80521","40.59372","-105.1268","Fort Collins","CO","Colorado","TRUE","","37867","1042.8","08069","Larimer","{""08069"": 100}","Larimer","08069","FALSE","FALSE","America/Denver"
"80524","40.64814","-105.02155","Fort Collins","CO","Colorado","TRUE","","37236","117.2","08069","Larimer","{""08069"": 77.17, ""08123"": 22.83}","Larimer|Weld","08069|08123","FALSE","FALSE","America/Denver"
"80525","40.52795","-105.04249","Fort Collins","CO","Colorado","TRUE","","54980","908.8","08069","Larimer","{""08069"": 100}","Larimer","08069","FALSE","FALSE","America/Denver"
"80526","40.5174","-105.13262","Fort Collins","CO","Colorado","TRUE","","44566","538.2","08069","Larimer","{""08069"": 100}","Larimer","08069","FALSE","FALSE","America/Denver"
"80528","40.49343","-105.00075","Fort Collins","CO","Colorado","TRUE","","23352","488.2","08069","Larimer","{""08069"": 100}","Larimer","08069","FALSE","FALSE","America/Denver"
"80530","40.10153","-104.92302","Frederick","CO","Colorado","TRUE","","5190","643.2","08123","Weld","{""08123"": 100}","Weld","08123","FALSE","FALSE","America/Denver"
"80532","40.4775","-105.46048","Glen Haven","CO","Colorado","TRUE","","238","2.6","08069","Larimer","{""08069"": 100}","Larimer","08069","FALSE","FALSE","America/Denver"
"80534","40.33192","-104.93522","Johnstown","CO","Colorado","TRUE","","18424","148.0","08123","Weld","{""08123"": 80.58, ""08069"": 19.42}","Weld|Larimer","08123|08069","FALSE","FALSE","America/Denver"
"80535","40.73718","-105.19292","Laporte","CO","Colorado","TRUE","","2263","15.4","08069","Larimer","{""08069"": 100}","Larimer","08069","FALSE","FALSE","America/Denver"
"80536","40.87458","-105.38842","Livermore","CO","Colorado","TRUE","","2137","2.2","08069","Larimer","{""08069"": 100}","Larimer","08069","FALSE","FALSE","America/Denver"
"80537","40.38304","-105.20277","Loveland","CO","Colorado","TRUE","","43256","136.5","08069","Larimer","{""08069"": 97.28, ""08123"": 2.72}","Larimer|Weld","08069|08123","FALSE","FALSE","America/Denver"
"80538","40.48174","-105.16825","Loveland","CO","Colorado","TRUE","","49879","188.5","08069","Larimer","{""08069"": 100}","Larimer","08069","FALSE","FALSE","America/Denver"
"80540","40.23186","-105.39341","Lyons","CO","Colorado","TRUE","","5124","13.0","08013","Boulder","{""08013"": 65.41, ""08069"": 34.59}","Boulder|Larimer","08013|08069","FALSE","FALSE","America/Denver"
"80542","40.23431","-104.99882","Mead","CO","Colorado","TRUE","","4782","200.7","08123","Weld","{""08123"": 100}","Weld","08123","FALSE","FALSE","America/Denver"
"80543","40.34645","-104.8532","Milliken","CO","Colorado","TRUE","","8167","102.0","08123","Weld","{""08123"": 100}","Weld","08123","FALSE","FALSE","America/Denver"
"80544","40.10305","-105.17178","Niwot","CO","Colorado","TRUE","","33","228.7","08013","Boulder","{""08013"": 100}","Boulder","08013","FALSE","FALSE","America/Denver"
"80545","40.85911","-105.69644","Red Feather Lakes","CO","Colorado","TRUE","","1076","1.5","08069","Larimer","{""08069"": 100}","Larimer","08069","FALSE","FALSE","America/Denver"
"80546","40.52415","-104.84986","Severance","CO","Colorado","TRUE","","189","652.6","08123","Weld","{""08123"": 100}","Weld","08123","FALSE","FALSE","America/Denver"
"80547","40.52948","-104.96347","Timnath","CO","Colorado","TRUE","","6289","428.4","08069","Larimer","{""08069"": 100}","Larimer","08069","FALSE","FALSE","America/Denver"
"80549","40.84341","-105.05499","Wellington","CO","Colorado","TRUE","","13582","28.0","08069","Larimer","{""08069"": 94.93, ""08123"": 5.07}","Larimer|Weld","08069|08123","FALSE","FALSE","America/Denver"
"80550","40.48213","-104.90223","Windsor","CO","Colorado","TRUE","","38494","283.5","08123","Weld","{""08123"": 91.04, ""08069"": 8.96}","Weld|Larimer","08123|08069","FALSE","FALSE","America/Denver"
"80601","39.96288","-104.80777","Brighton","CO","Colorado","TRUE","","40346","594.7","08001","Adams","{""08001"": 100}","Adams","08001","FALSE","FALSE","America/Denver"
"80602","39.96369","-104.90661","Brighton","CO","Colorado","TRUE","","39215","492.6","08001","Adams","{""08001"": 100}","Adams","08001","FALSE","FALSE","America/Denver"
"80603","39.9845","-104.74539","Brighton","CO","Colorado","TRUE","","15116","78.8","08001","Adams","{""08001"": 56.13, ""08123"": 43.87}","Adams|Weld","08001|08123","FALSE","FALSE","America/Denver"
"80610","40.66996","-104.58269","Ault","CO","Colorado","TRUE","","3559","7.6","08123","Weld","{""08123"": 100}","Weld","08123","FALSE","FALSE","America/Denver"
"80611","40.62015","-104.24964","Briggsdale","CO","Colorado","TRUE","","844","0.8","08123","Weld","{""08123"": 100}","Weld","08123","FALSE","FALSE","America/Denver"
"80612","40.89924","-104.82287","Carr","CO","Colorado","TRUE","","268","0.4","08123","Weld","{""08123"": 84.85, ""08069"": 15.15}","Weld|Larimer","08123|08069","FALSE","FALSE","America/Denver"
"80615","40.5444","-104.64236","Eaton","CO","Colorado","TRUE","","8931","32.6","08123","Weld","{""08123"": 100}","Weld","08123","FALSE","FALSE","America/Denver"
"80620","40.37425","-104.71337","Evans","CO","Colorado","TRUE","","20828","1358.5","08123","Weld","{""08123"": 100}","Weld","08123","FALSE","FALSE","America/Denver"
"80621","40.10732","-104.79841","Fort Lupton","CO","Colorado","TRUE","","13534","41.3","08123","Weld","{""08123"": 100}","Weld","08123","FALSE","FALSE","America/Denver"
"80622","40.54235","-104.44732","Galeton","CO","Colorado","TRUE","","207","7.1","08123","Weld","{""08123"": 100}","Weld","08123","FALSE","FALSE","America/Denver"
"80623","40.28531","-104.78253","Gilcrest","CO","Colorado","TRUE","","1171","675.1","08123","Weld","{""08123"": 100}","Weld","08123","FALSE","FALSE","America/Denver"
"80624","40.45683","-104.45635","Gill","CO","Colorado","TRUE","","928","4.9","08123","Weld","{""08123"": 100}","Weld","08123","FALSE","FALSE","America/Denver"
"80631","40.44216","-104.67809","Greeley","CO","Colorado","TRUE","","55089","205.3","08123","Weld","{""08123"": 100}","Weld","08123","FALSE","FALSE","America/Denver"
"80634","40.40075","-104.79222","Greeley","CO","Colorado","TRUE","","60350","608.1","08123","Weld","{""08123"": 100}","Weld","08123","FALSE","FALSE","America/Denver"
"80640","39.88536","-104.88202","Henderson","CO","Colorado","TRUE","","13344","396.0","08001","Adams","{""08001"": 100}","Adams","08001","FALSE","FALSE","America/Denver"
"80642","40.05353","-104.61565","Hudson","CO","Colorado","TRUE","","5140","20.0","08123","Weld","{""08123"": 70.39, ""08001"": 29.61}","Weld|Adams","08123|08001","FALSE","FALSE","America/Denver"
"80643","40.11186","-104.47164","Keenesburg","CO","Colorado","TRUE","","3745","6.7","08123","Weld","{""08123"": 88.68, ""08001"": 11.32}","Weld|Adams","08123|08001","FALSE","FALSE","America/Denver"
"80644","40.3371","-104.43866","Kersey","CO","Colorado","TRUE","","2686","6.5","08123","Weld","{""08123"": 100}","Weld","08123","FALSE","FALSE","America/Denver"
"80645","40.28409","-104.64731","La Salle","CO","Colorado","TRUE","","5132","21.4","08123","Weld","{""08123"": 100}","Weld","08123","FALSE","FALSE","America/Denver"
"80646","40.47537","-104.69761","Lucerne","CO","Colorado","TRUE","","0","0.0","08123","Weld","{""08123"": 100}","Weld","08123","FALSE","FALSE","America/Denver"
"80648","40.76559","-104.72816","Nunn","CO","Colorado","TRUE","","1306","3.3","08123","Weld","{""08123"": 100}","Weld","08123","FALSE","FALSE","America/Denver"
"80649","40.37924","-104.17595","Orchard","CO","Colorado","TRUE","","429","0.9","08123","Weld","{""08123"": 65.66, ""08087"": 34.34}","Weld|Morgan","08123|08087","FALSE","FALSE","America/Denver"
"80650","40.6484","-104.77666","Pierce","CO","Colorado","TRUE","","1843","12.6","08123","Weld","{""08123"": 100}","Weld","08123","FALSE","FALSE","America/Denver"
"80651","40.23717","-104.81409","Platteville","CO","Colorado","TRUE","","4145","16.8","08123","Weld","{""08123"": 100}","Weld","08123","FALSE","FALSE","America/Denver"
"80652","40.11048","-104.2751","Roggen","CO","Colorado","TRUE","","207","0.5","08123","Weld","{""08123"": 100}","Weld","08123","FALSE","FALSE","America/Denver"
"80653","40.3931","-103.97685","Weldona","CO","Colorado","TRUE","","802","2.3","08087","Morgan","{""08087"": 100}","Morgan","08087","FALSE","FALSE","America/Denver"
"80654","40.13501","-104.07642","Wiggins","CO","Colorado","TRUE","","2961","4.9","08087","Morgan","{""08087"": 83.16, ""08001"": 9.11, ""08123"": 7.73}","Morgan|Adams|Weld","08087|08001|08123","FALSE","FALSE","America/Denver"
"80701","40.13494","-103.81102","Fort Morgan","CO","Colorado","TRUE","","16547","10.4","08087","Morgan","{""08087"": 74.23, ""08001"": 25.77}","Morgan|Adams","08087|08001","FALSE","FALSE","America/Denver"
"80705","40.27116","-103.83428","Log Lane Village","CO","Colorado","TRUE","","1017","1184.3","08087","Morgan","{""08087"": 100}","Morgan","08087","FALSE","FALSE","America/Denver"
"80720","40.07457","-103.18878","Akron","CO","Colorado","TRUE","","2485","1.0","08121","Washington","{""08121"": 100}","Washington","08121","FALSE","FALSE","America/Denver"
"80721","40.68821","-102.15297","Amherst","CO","Colorado","TRUE","","477","2.1","08095","Phillips","{""08095"": 100}","Phillips","08095","FALSE","FALSE","America/Denver"
"80722","40.49515","-103.23833","Atwood","CO","Colorado","TRUE","","485","2.8","08075","Logan","{""08075"": 100}","Logan","08075","FALSE","FALSE","America/Denver"
"80723","40.15981","-103.55046","Brush","CO","Colorado","TRUE","","6838","9.9","08087","Morgan","{""08087"": 83.51, ""08121"": 16.49}","Morgan|Washington","08087|08121","FALSE","FALSE","America/Denver"
"80726","40.91044","-102.7773","Crook","CO","Colorado","TRUE","","389","1.0","08075","Logan","{""08075"": 100}","Logan","08075","FALSE","FALSE","America/Denver"
"80727","40.02185","-102.51484","Eckley","CO","Colorado","TRUE","","532","0.8","08125","Yuma","{""08125"": 100}","Yuma","08125","FALSE","FALSE","America/Denver"
"80728","40.64","-102.87285","Fleming","CO","Colorado","TRUE","","1128","1.2","08075","Logan","{""08075"": 100}","Logan","08075","FALSE","FALSE","America/Denver"
"80729","40.87439","-104.22632","Grover","CO","Colorado","TRUE","","429","0.3","08123","Weld","{""08123"": 100}","Weld","08123","FALSE","FALSE","America/Denver"
"80731","40.58734","-102.60558","Haxtun","CO","Colorado","TRUE","","1328","1.4","08095","Phillips","{""08095"": 59.86, ""08075"": 28.3, ""08125"": 9.47, ""08115"": 2.37}","Phillips|Logan|Yuma|Sedgwick","08095|08075|08125|08115","FALSE","FALSE","America/Denver"
"80732","40.9884","-104.30525","Hereford","CO","Colorado","TRUE","","16","3.5","08123","Weld","{""08123"": 100}","Weld","08123","FALSE","FALSE","America/Denver"
"80733","40.35695","-103.47989","Hillrose","CO","Colorado","TRUE","","580","9.5","08087","Morgan","{""08087"": 60.28, ""08121"": 39.72}","Morgan|Washington","08087|08121","FALSE","FALSE","America/Denver"
"80734","40.52472","-102.29259","Holyoke","CO","Colorado","TRUE","","2956","2.4","08095","Phillips","{""08095"": 77.06, ""08125"": 22.94}","Phillips|Yuma","08095|08125","FALSE","FALSE","America/Denver"
"80735","39.71549","-102.25029","Idalia","CO","Colorado","TRUE","","316","0.4","08125","Yuma","{""08125"": 100}","Yuma","08125","FALSE","FALSE","America/Denver"
"80736","40.81635","-103.01907","Iliff","CO","Colorado","TRUE","","530","1.5","08075","Logan","{""08075"": 100}","Logan","08075","FALSE","FALSE","America/Denver"
"80737","40.88974","-102.19267","Julesburg","CO","Colorado","TRUE","","1699","2.6","08115","Sedgwick","{""08115"": 96.16, ""31049"": 3.84}","Sedgwick|Deuel","08115|31049","FALSE","FALSE","America/Denver"
"80740","39.74256","-103.38744","Lindon","CO","Colorado","TRUE","","71","0.2","08121","Washington","{""08121"": 100}","Washington","08121","FALSE","FALSE","America/Denver"
"80741","40.5598","-103.47339","Merino","CO","Colorado","TRUE","","1020","1.8","08075","Logan","{""08075"": 76.99, ""08087"": 14.37, ""08121"": 8.64}","Logan|Morgan|Washington","08075|08087|08121","FALSE","FALSE","America/Denver"
"80742","40.74855","-103.81371","New Raymer","CO","Colorado","TRUE","","251","0.2","08123","Weld","{""08123"": 92.74, ""08087"": 7.26}","Weld|Morgan","08123|08087","FALSE","FALSE","America/Denver"
"80743","40.21588","-102.95679","Otis","CO","Colorado","TRUE","","1194","1.1","08121","Washington","{""08121"": 100}","Washington","08121","FALSE","FALSE","America/Denver"
"80744","40.87471","-102.38355","Ovid","CO","Colorado","TRUE","","461","1.5","08115","Sedgwick","{""08115"": 100}","Sedgwick","08115","FALSE","FALSE","America/Denver"
"80745","40.88801","-103.40077","Padroni","CO","Colorado","TRUE","","68","0.2","08075","Logan","{""08075"": 100}","Logan","08075","FALSE","FALSE","America/Denver"
"80746","40.60706","-102.45695","Paoli","CO","Colorado","TRUE","","45","11.1","08095","Phillips","{""08095"": 100}","Phillips","08095","FALSE","FALSE","America/Denver"
"80747","40.94709","-103.16392","Peetz","CO","Colorado","TRUE","","454","0.8","08075","Logan","{""08075"": 100}","Logan","08075","FALSE","FALSE","America/Denver"
"80749","40.87574","-102.55354","Sedgwick","CO","Colorado","TRUE","","294","0.6","08115","Sedgwick","{""08115"": 100}","Sedgwick","08115","FALSE","FALSE","America/Denver"
"80750","40.41144","-103.60681","Snyder","CO","Colorado","TRUE","","230","0.7","08087","Morgan","{""08087"": 100}","Morgan","08087","FALSE","FALSE","America/Denver"
"80751","40.65263","-103.24504","Sterling","CO","Colorado","TRUE","","17718","14.4","08075","Logan","{""08075"": 100}","Logan","08075","FALSE","FALSE","America/Denver"
"80754","40.69052","-103.64694","Stoneham","CO","Colorado","TRUE","","151","0.3","08123","Weld","{""08123"": 100}","Weld","08123","FALSE","FALSE","America/Denver"
"80755","39.89966","-102.35155","Vernon","CO","Colorado","TRUE","","103","0.4","08125","Yuma","{""08125"": 100}","Yuma","08125","FALSE","FALSE","America/Denver"
"80757","39.79244","-103.58588","Woodrow","CO","Colorado","TRUE","","187","0.2","08121","Washington","{""08121"": 100}","Washington","08121","FALSE","FALSE","America/Denver"
"80758","40.11998","-102.2122","Wray","CO","Colorado","TRUE","","3412","1.9","08125","Yuma","{""08125"": 100}","Yuma","08125","FALSE","FALSE","America/Denver"
"80759","40.10892","-102.68759","Yuma","CO","Colorado","TRUE","","4845","3.0","08125","Yuma","{""08125"": 92.07, ""08121"": 7.93}","Yuma|Washington","08125|08121","FALSE","FALSE","America/Denver"
"80801","39.73943","-103.11354","Anton","CO","Colorado","TRUE","","90","0.2","08121","Washington","{""08121"": 100}","Washington","08121","FALSE","FALSE","America/Denver"
"80802","38.84317","-102.16393","Arapahoe","CO","Colorado","TRUE","","162","0.2","08017","Cheyenne","{""08017"": 100}","Cheyenne","08017","FALSE","FALSE","America/Denver"
"80804","39.35644","-103.26331","Arriba","CO","Colorado","TRUE","","300","0.4","08073","Lincoln","{""08073"": 100}","Lincoln","08073","FALSE","FALSE","America/Denver"
"80805","39.29378","-102.44923","Bethune","CO","Colorado","TRUE","","394","1.1","08063","Kit Carson","{""08063"": 100}","Kit Carson","08063","FALSE","FALSE","America/Denver"
"80807","39.31575","-102.23303","Burlington","CO","Colorado","TRUE","","4376","2.3","08063","Kit Carson","{""08063"": 94.53, ""08125"": 5.47}","Kit Carson|Yuma","08063|08125","FALSE","FALSE","America/Denver"
"80808","39.00043","-104.30638","Calhan","CO","Colorado","TRUE","","6550","6.5","08041","El Paso","{""08041"": 83.69, ""08039"": 16.31}","El Paso|Elbert","08041|08039","FALSE","FALSE","America/Denver"
"80809","38.86503","-104.99733","Cascade","CO","Colorado","TRUE","","947","7.4","08041","El Paso","{""08041"": 100}","El Paso","08041","FALSE","FALSE","America/Denver"
"80810","38.82589","-102.4454","Cheyenne Wells","CO","Colorado","TRUE","","1116","0.8","08017","Cheyenne","{""08017"": 100}","Cheyenne","08017","FALSE","FALSE","America/Denver"
"80812","39.67901","-102.89161","Cope","CO","Colorado","TRUE","","288","0.7","08121","Washington","{""08121"": 95.54, ""08125"": 4.46}","Washington|Yuma","08121|08125","FALSE","FALSE","America/Denver"
"80813","38.76307","-105.09278","Cripple Creek","CO","Colorado","TRUE","","1528","5.2","08119","Teller","{""08119"": 100}","Teller","08119","FALSE","FALSE","America/Denver"
"80814","38.94731","-105.17604","Divide","CO","Colorado","TRUE","","3554","13.5","08119","Teller","{""08119"": 100}","Teller","08119","FALSE","FALSE","America/Denver"
"80815","39.40174","-103.08191","Flagler","CO","Colorado","TRUE","","770","0.6","08063","Kit Carson","{""08063"": 73.08, ""08121"": 26.92}","Kit Carson|Washington","08063|08121","FALSE","FALSE","America/Denver"
"80816","38.85162","-105.31591","Florissant","CO","Colorado","TRUE","","6614","14.0","08119","Teller","{""08119"": 62.65, ""08093"": 37.35}","Teller|Park","08119|08093","FALSE","FALSE","America/Denver"
"80817","38.58347","-104.67412","Fountain","CO","Colorado","TRUE","","31450","105.5","08041","El Paso","{""08041"": 76.51, ""08101"": 23.49}","El Paso|Pueblo","08041|08101","FALSE","FALSE","America/Denver"
"80818","39.41539","-103.48119","Genoa","CO","Colorado","TRUE","","471","0.6","08073","Lincoln","{""08073"": 87.22, ""08121"": 12.78}","Lincoln|Washington","08073|08121","FALSE","FALSE","America/Denver"
"80819","38.94076","-105.00249","Green Mountain Falls","CO","Colorado","TRUE","","831","54.2","08041","El Paso","{""08041"": 93.68, ""08119"": 6.32}","El Paso|Teller","08041|08119","FALSE","FALSE","America/Denver"
"80820","38.77781","-105.56613","Guffey","CO","Colorado","TRUE","","709","1.1","08093","Park","{""08093"": 100}","Park","08093","FALSE","FALSE","America/Denver"
"80821","38.97366","-103.43248","Hugo","CO","Colorado","TRUE","","1270","0.6","08073","Lincoln","{""08073"": 100}","Lincoln","08073","FALSE","FALSE","America/Denver"
"80822","39.67088","-102.67815","Joes","CO","Colorado","TRUE","","223","0.8","08125","Yuma","{""08125"": 100}","Yuma","08125","FALSE","FALSE","America/Denver"
"80823","38.69026","-103.46738","Karval","CO","Colorado","TRUE","","215","0.3","08073","Lincoln","{""08073"": 100}","Lincoln","08073","FALSE","FALSE","America/Denver"
"80824","39.66302","-102.49943","Kirk","CO","Colorado","TRUE","","380","1.1","08125","Yuma","{""08125"": 100}","Yuma","08125","FALSE","FALSE","America/Denver"
"80825","38.81864","-102.80624","Kit Carson","CO","Colorado","TRUE","","375","0.3","08017","Cheyenne","{""08017"": 100}","Cheyenne","08017","FALSE","FALSE","America/Denver"
"80826","39.21874","-103.69129","Limon","CO","Colorado","TRUE","","1595","2514.3","08073","Lincoln","{""08073"": 100}","Lincoln","08073","FALSE","FALSE","America/Denver"
"80827","39.05821","-105.46272","Lake George","CO","Colorado","TRUE","","611","0.8","08093","Park","{""08093"": 87.73, ""08119"": 12.27}","Park|Teller","08093|08119","FALSE","FALSE","America/Denver"
"80828","39.26643","-103.70983","Limon","CO","Colorado","TRUE","","1878","1.7","08073","Lincoln","{""08073"": 53.55, ""08039"": 46.45}","Lincoln|Elbert","08073|08039","FALSE","FALSE","America/Denver"
"80829","38.82922","-104.93289","Manitou Springs","CO","Colorado","TRUE","","5620","107.9","08041","El Paso","{""08041"": 100}","El Paso","08041","FALSE","FALSE","America/Denver"
"80830","39.11313","-103.91139","Matheson","CO","Colorado","TRUE","","101","0.2","08039","Elbert","{""08039"": 100}","Elbert","08039","FALSE","FALSE","America/Denver"
"80831","38.98867","-104.51172","Peyton","CO","Colorado","TRUE","","30879","63.2","08041","El Paso","{""08041"": 94.85, ""08039"": 5.15}","El Paso|Elbert","08041|08039","FALSE","FALSE","America/Denver"
"80832","39.06344","-104.02769","Ramah","CO","Colorado","TRUE","","851","1.1","08039","Elbert","{""08039"": 80.88, ""08041"": 14.45, ""08073"": 4.67}","Elbert|El Paso|Lincoln","08039|08041|08073","FALSE","FALSE","America/Denver"
"80833","38.73874","-103.93699","Rush","CO","Colorado","TRUE","","921","0.7","08073","Lincoln","{""08073"": 77.5, ""08041"": 19.95, ""08039"": 2.55}","Lincoln|El Paso|Elbert","08073|08041|08039","FALSE","FALSE","America/Denver"
"80834","39.29735","-102.88617","Seibert","CO","Colorado","TRUE","","295","0.4","08063","Kit Carson","{""08063"": 100}","Kit Carson","08063","FALSE","FALSE","America/Denver"
"80835","39.20933","-104.07223","Simla","CO","Colorado","TRUE","","755","2.1","08039","Elbert","{""08039"": 94.15, ""08041"": 5.85}","Elbert|El Paso","08039|08041","FALSE","FALSE","America/Denver"
"80836","39.30518","-102.58239","Stratton","CO","Colorado","TRUE","","1110","1.0","08063","Kit Carson","{""08063"": 99.24, ""08125"": 0.76}","Kit Carson|Yuma","08063|08125","FALSE","FALSE","America/Denver"
"80840","39.00041","-104.85446","Usaf Academy","CO","Colorado","TRUE","","6170","101.2","08041","El Paso","{""08041"": 100}","El Paso","08041","FALSE","FALSE","America/Denver"
"80860","38.69307","-105.09876","Victor","CO","Colorado","TRUE","","439","2.4","08119","Teller","{""08119"": 100}","Teller","08119","FALSE","FALSE","America/Denver"
"80861","39.32645","-102.74844","Vona","CO","Colorado","TRUE","","216","0.3","08063","Kit Carson","{""08063"": 99.17, ""08125"": 0.83}","Kit Carson|Yuma","08063|08125","FALSE","FALSE","America/Denver"
"80862","38.90926","-103.06782","Wild Horse","CO","Colorado","TRUE","","34","0.1","08017","Cheyenne","{""08017"": 100}","Cheyenne","08017","FALSE","FALSE","America/Denver"
"80863","39.03004","-105.07132","Woodland Park","CO","Colorado","TRUE","","13165","29.3","08119","Teller","{""08119"": 71.15, ""08041"": 28.85}","Teller|El Paso","08119|08041","FALSE","FALSE","America/Denver"
"80864","38.69923","-104.18757","Yoder","CO","Colorado","TRUE","","1305","2.1","08041","El Paso","{""08041"": 100}","El Paso","08041","FALSE","FALSE","America/Denver"
"80902","38.68683","-104.8127","Colorado Springs","CO","Colorado","TRUE","","11756","250.4","08041","El Paso","{""08041"": 100}","El Paso","08041","FALSE","FALSE","America/Denver"
"80903","38.83249","-104.81342","Colorado Springs","CO","Colorado","TRUE","","16844","1209.5","08041","El Paso","{""08041"": 100}","El Paso","08041","FALSE","FALSE","America/Denver"
"80904","38.86321","-104.87197","Colorado Springs","CO","Colorado","TRUE","","21162","731.7","08041","El Paso","{""08041"": 100}","El Paso","08041","FALSE","FALSE","America/Denver"
"80905","38.81855","-104.83649","Colorado Springs","CO","Colorado","TRUE","","16717","1261.9","08041","El Paso","{""08041"": 100}","El Paso","08041","FALSE","FALSE","America/Denver"
"80906","38.76744","-104.87023","Colorado Springs","CO","Colorado","TRUE","","38046","322.3","08041","El Paso","{""08041"": 100}","El Paso","08041","FALSE","FALSE","America/Denver"
"80907","38.87912","-104.82137","Colorado Springs","CO","Colorado","TRUE","","28549","1119.8","08041","El Paso","{""08041"": 100}","El Paso","08041","FALSE","FALSE","America/Denver"
"80908","39.0463","-104.69094","Colorado Springs","CO","Colorado","TRUE","","20622","84.1","08041","El Paso","{""08041"": 100}","El Paso","08041","FALSE","FALSE","America/Denver"
"80909","38.85255","-104.77434","Colorado Springs","CO","Colorado","TRUE","","37821","1841.6","08041","El Paso","{""08041"": 100}","El Paso","08041","FALSE","FALSE","America/Denver"
"80910","38.81178","-104.7743","Colorado Springs","CO","Colorado","TRUE","","31827","2011.2","08041","El Paso","{""08041"": 100}","El Paso","08041","FALSE","FALSE","America/Denver"
"80911","38.75325","-104.71955","Colorado Springs","CO","Colorado","TRUE","","36496","1268.3","08041","El Paso","{""08041"": 100}","El Paso","08041","FALSE","FALSE","America/Denver"
"80913","38.70005","-104.76268","Colorado Springs","CO","Colorado","TRUE","","5667","91.6","08041","El Paso","{""08041"": 100}","El Paso","08041","FALSE","FALSE","America/Denver"
"80914","38.82401","-104.70546","Colorado Springs","CO","Colorado","TRUE","","384","224.1","08041","El Paso","{""08041"": 100}","El Paso","08041","FALSE","FALSE","America/Denver"
"80915","38.85271","-104.71652","Colorado Springs","CO","Colorado","TRUE","","22382","1099.9","08041","El Paso","{""08041"": 100}","El Paso","08041","FALSE","FALSE","America/Denver"
"80916","38.80327","-104.71208","Colorado Springs","CO","Colorado","TRUE","","41087","862.7","08041","El Paso","{""08041"": 100}","El Paso","08041","FALSE","FALSE","America/Denver"
"80917","38.88684","-104.74049","Colorado Springs","CO","Colorado","TRUE","","31614","2174.4","08041","El Paso","{""08041"": 100}","El Paso","08041","FALSE","FALSE","America/Denver"
"80918","38.91156","-104.78032","Colorado Springs","CO","Colorado","TRUE","","48404","1559.6","08041","El Paso","{""08041"": 100}","El Paso","08041","FALSE","FALSE","America/Denver"
"80919","38.92797","-104.88025","Colorado Springs","CO","Colorado","TRUE","","27788","392.0","08041","El Paso","{""08041"": 100}","El Paso","08041","FALSE","FALSE","America/Denver"
"80920","38.95579","-104.77191","Colorado Springs","CO","Colorado","TRUE","","38988","1212.4","08041","El Paso","{""08041"": 100}","El Paso","08041","FALSE","FALSE","America/Denver"
"80921","39.02648","-104.88156","Colorado Springs","CO","Colorado","TRUE","","22725","179.0","08041","El Paso","{""08041"": 100}","El Paso","08041","FALSE","FALSE","America/Denver"
"80922","38.88996","-104.70084","Colorado Springs","CO","Colorado","TRUE","","29623","1962.6","08041","El Paso","{""08041"": 100}","El Paso","08041","FALSE","FALSE","America/Denver"
"80923","38.92673","-104.71433","Colorado Springs","CO","Colorado","TRUE","","32050","1771.6","08041","El Paso","{""08041"": 100}","El Paso","08041","FALSE","FALSE","America/Denver"
"80924","38.96727","-104.72199","Colorado Springs","CO","Colorado","TRUE","","13607","897.9","08041","El Paso","{""08041"": 100}","El Paso","08041","FALSE","FALSE","America/Denver"
"80925","38.76156","-104.64441","Colorado Springs","CO","Colorado","TRUE","","14084","189.4","08041","El Paso","{""08041"": 100}","El Paso","08041","FALSE","FALSE","America/Denver"
"80926","38.64318","-104.92439","Colorado Springs","CO","Colorado","TRUE","","2029","10.0","08041","El Paso","{""08041"": 63.47, ""08043"": 36.53}","El Paso|Fremont","08041|08043","FALSE","FALSE","America/Denver"
"80927","38.92833","-104.65878","Colorado Springs","CO","Colorado","TRUE","","5231","449.4","08041","El Paso","{""08041"": 100}","El Paso","08041","FALSE","FALSE","America/Denver"
"80928","38.64517","-104.44268","Colorado Springs","CO","Colorado","TRUE","","831","1.1","08041","El Paso","{""08041"": 100}","El Paso","08041","FALSE","FALSE","America/Denver"
"80929","38.82453","-104.60833","Colorado Springs","CO","Colorado","TRUE","","39","0.6","08041","El Paso","{""08041"": 100}","El Paso","08041","FALSE","FALSE","America/Denver"
"80930","38.80507","-104.50644","Colorado Springs","CO","Colorado","TRUE","","1691","19.0","08041","El Paso","{""08041"": 100}","El Paso","08041","FALSE","FALSE","America/Denver"
"80938","38.90157","-104.65926","Colorado Springs","CO","Colorado","TRUE","","565","41.0","08041","El Paso","{""08041"": 100}","El Paso","08041","FALSE","FALSE","America/Denver"
"80939","38.87772","-104.67742","Colorado Springs","CO","Colorado","TRUE","","0","0.0","08041","El Paso","{""08041"": 100}","El Paso","08041","FALSE","FALSE","America/Denver"
"80951","38.88396","-104.6558","Colorado Springs","CO","Colorado","TRUE","","5357","706.9","08041","El Paso","{""08041"": 100}","El Paso","08041","FALSE","FALSE","America/Denver"
"81001","38.29525","-104.5378","Pueblo","CO","Colorado","TRUE","","30678","369.7","08101","Pueblo","{""08101"": 100}","Pueblo","08101","FALSE","FALSE","America/Denver"
"81003","38.27782","-104.65668","Pueblo","CO","Colorado","TRUE","","14889","470.6","08101","Pueblo","{""08101"": 100}","Pueblo","08101","FALSE","FALSE","America/Denver"
"81004","38.05121","-104.71595","Pueblo","CO","Colorado","TRUE","","26641","63.9","08101","Pueblo","{""08101"": 100}","Pueblo","08101","FALSE","FALSE","America/Denver"
"81005","38.21054","-104.84608","Pueblo","CO","Colorado","TRUE","","32106","62.4","08101","Pueblo","{""08101"": 100}","Pueblo","08101","FALSE","FALSE","America/Denver"
"81006","38.24059","-104.47413","Pueblo","CO","Colorado","TRUE","","11361","39.0","08101","Pueblo","{""08101"": 100}","Pueblo","08101","FALSE","FALSE","America/Denver"
"81007","38.35858","-104.78472","Pueblo","CO","Colorado","TRUE","","32991","93.3","08101","Pueblo","{""08101"": 100}","Pueblo","08101","FALSE","FALSE","America/Denver"
"81008","38.40765","-104.59354","Pueblo","CO","Colorado","TRUE","","11239","42.5","08101","Pueblo","{""08101"": 98.14, ""08041"": 1.86}","Pueblo|El Paso","08101|08041","FALSE","FALSE","America/Denver"
"81019","37.94152","-104.83714","Colorado City","CO","Colorado","TRUE","","1943","57.3","08101","Pueblo","{""08101"": 100}","Pueblo","08101","FALSE","FALSE","America/Denver"
"81020","37.43821","-104.6253","Aguilar","CO","Colorado","TRUE","","984","1.0","08071","Las Animas","{""08071"": 100}","Las Animas","08071","FALSE","FALSE","America/Denver"
"81021","38.43332","-103.36732","Arlington","CO","Colorado","TRUE","","8","0.0","08061","Kiowa","{""08061"": 68.0, ""08073"": 32.0}","Kiowa|Lincoln","08061|08073","FALSE","FALSE","America/Denver"
"81022","38.03279","-104.43768","Avondale","CO","Colorado","TRUE","","1452","1.5","08101","Pueblo","{""08101"": 100}","Pueblo","08101","FALSE","FALSE","America/Denver"
"81023","38.06352","-104.92966","Beulah","CO","Colorado","TRUE","","1356","3.4","08101","Pueblo","{""08101"": 100}","Pueblo","08101","FALSE","FALSE","America/Denver"
"81024","37.2293","-104.71162","Boncarbo","CO","Colorado","TRUE","","244","1.8","08071","Las Animas","{""08071"": 100}","Las Animas","08071","FALSE","FALSE","America/Denver"
"81025","38.34567","-104.26422","Boone","CO","Colorado","TRUE","","783","0.6","08101","Pueblo","{""08101"": 100}","Pueblo","08101","FALSE","FALSE","America/Denver"
"81027","37.24687","-103.72308","Branson","CO","Colorado","TRUE","","136","0.1","08071","Las Animas","{""08071"": 100}","Las Animas","08071","FALSE","FALSE","America/Denver"
"81029","37.08921","-102.48274","Campo","CO","Colorado","TRUE","","363","0.2","08009","Baca","{""08009"": 100}","Baca","08009","FALSE","FALSE","America/Denver"
"81030","38.10322","-103.51876","Cheraw","CO","Colorado","TRUE","","131","137.7","08089","Otero","{""08089"": 100}","Otero","08089","FALSE","FALSE","America/Denver"
"81033","38.19575","-103.85557","Crowley","CO","Colorado","TRUE","","306","191.9","08025","Crowley","{""08025"": 100}","Crowley","08025","FALSE","FALSE","America/Denver"
"81036","38.42984","-102.79292","Eads","CO","Colorado","TRUE","","1074","0.6","08061","Kiowa","{""08061"": 100}","Kiowa","08061","FALSE","FALSE","America/Denver"
"81039","37.94079","-104.08615","Fowler","CO","Colorado","TRUE","","1602","1.1","08101","Pueblo","{""08101"": 57.12, ""08089"": 42.28, ""08025"": 0.6}","Pueblo|Otero|Crowley","08101|08089|08025","FALSE","FALSE","America/Denver"
"81040","37.79283","-105.2493","Gardner","CO","Colorado","TRUE","","201","0.2","08055","Huerfano","{""08055"": 100}","Huerfano","08055","FALSE","FALSE","America/Denver"
"81041","37.844","-102.3839","Granada","CO","Colorado","TRUE","","618","0.5","08099","Prowers","{""08099"": 96.27, ""08009"": 3.73}","Prowers|Baca","08099|08009","FALSE","FALSE","America/Denver"
"81043","38.11982","-102.22312","Hartman","CO","Colorado","TRUE","","56","61.6","08099","Prowers","{""08099"": 100}","Prowers","08099","FALSE","FALSE","America/Denver"
"81044","37.90328","-102.93628","Hasty","CO","Colorado","TRUE","","148","0.2","08011","Bent","{""08011"": 100}","Bent","08011","FALSE","FALSE","America/Denver"
"81045","38.55956","-103.16093","Haswell","CO","Colorado","TRUE","","94","0.1","08061","Kiowa","{""08061"": 58.38, ""08017"": 24.99, ""08073"": 16.63}","Kiowa|Cheyenne|Lincoln","08061|08017|08073","FALSE","FALSE","America/Denver"
"81046","37.29597","-104.36867","Hoehne","CO","Colorado","TRUE","","0","0.0","08071","Las Animas","{""08071"": 100}","Las Animas","08071","FALSE","FALSE","America/Denver"
"81047","38.03226","-102.19206","Holly","CO","Colorado","TRUE","","1617","1.0","08099","Prowers","{""08099"": 96.36, ""08061"": 3.64}","Prowers|Kiowa","08099|08061","FALSE","FALSE","America/Denver"
"81049","37.31338","-103.36308","Kim","CO","Colorado","TRUE","","165","0.1","08071","Las Animas","{""08071"": 100}","Las Animas","08071","FALSE","FALSE","America/Denver"
"81050","37.92266","-103.51528","La Junta","CO","Colorado","TRUE","","9925","7.5","08089","Otero","{""08089"": 96.64, ""08011"": 3.36}","Otero|Bent","08089|08011","FALSE","FALSE","America/Denver"
"81052","37.94242","-102.65625","Lamar","CO","Colorado","TRUE","","9073","5.2","08099","Prowers","{""08099"": 75.83, ""08011"": 24.17}","Prowers|Bent","08099|08011","FALSE","FALSE","America/Denver"
"81054","37.88583","-103.19493","Las Animas","CO","Colorado","TRUE","","5138","2.1","08011","Bent","{""08011"": 84.82, ""08071"": 7.85, ""08009"": 7.33}","Bent|Las Animas|Baca","08011|08071|08009","FALSE","FALSE","America/Denver"
"81055","37.47727","-105.06635","La Veta","CO","Colorado","TRUE","","1663","2.6","08055","Huerfano","{""08055"": 98.79, ""08023"": 1.21}","Huerfano|Costilla","08055|08023","FALSE","FALSE","America/Denver"
"81057","38.12525","-102.89675","McClave","CO","Colorado","TRUE","","322","2.6","08011","Bent","{""08011"": 100}","Bent","08011","FALSE","FALSE","America/Denver"
"81058","38.10727","-103.88161","Manzanola","CO","Colorado","TRUE","","1242","9.8","08089","Otero","{""08089"": 70.12, ""08025"": 29.88}","Otero|Crowley","08089|08025","FALSE","FALSE","America/Denver"
"81059","37.56259","-103.99322","Model","CO","Colorado","TRUE","","34","0.0","08071","Las Animas","{""08071"": 73.77, ""08089"": 26.23}","Las Animas|Otero","08071|08089","FALSE","FALSE","America/Denver"
"81062","38.29345","-103.94995","Olney Springs","CO","Colorado","TRUE","","1641","2.7","08025","Crowley","{""08025"": 100}","Crowley","08025","FALSE","FALSE","America/Denver"
"81063","38.45232","-103.78494","Ordway","CO","Colorado","TRUE","","3260","3.2","08025","Crowley","{""08025"": 63.14, ""08073"": 36.86}","Crowley|Lincoln","08025|08073","FALSE","FALSE","America/Denver"
"81064","37.24593","-102.99753","Pritchett","CO","Colorado","TRUE","","250","0.2","08009","Baca","{""08009"": 80.62, ""08071"": 19.38}","Baca|Las Animas","08009|08071","FALSE","FALSE","America/Denver"
"81067","38.01674","-103.72326","Rocky Ford","CO","Colorado","TRUE","","5444","9.7","08089","Otero","{""08089"": 100}","Otero","08089","FALSE","FALSE","America/Denver"
"81069","37.88998","-104.88951","Rye","CO","Colorado","TRUE","","2215","2.9","08055","Huerfano","{""08055"": 48.37, ""08101"": 36.28, ""08027"": 15.35}","Huerfano|Pueblo|Custer","08055|08101|08027","FALSE","FALSE","America/Denver"
"81071","38.44838","-102.2816","Sheridan Lake","CO","Colorado","TRUE","","244","0.2","08061","Kiowa","{""08061"": 100}","Kiowa","08061","FALSE","FALSE","America/Denver"
"81073","37.42414","-102.71496","Springfield","CO","Colorado","TRUE","","1726","1.0","08009","Baca","{""08009"": 100}","Baca","08009","FALSE","FALSE","America/Denver"
"81076","38.32338","-103.6167","Sugar City","CO","Colorado","TRUE","","745","1.0","08025","Crowley","{""08025"": 100}","Crowley","08025","FALSE","FALSE","America/Denver"
"81077","38.01374","-103.60985","Swink","CO","Colorado","TRUE","","617","107.4","08089","Otero","{""08089"": 100}","Otero","08089","FALSE","FALSE","America/Denver"
"81081","37.07295","-104.14954","Trinchera","CO","Colorado","TRUE","","157","0.2","08071","Las Animas","{""08071"": 100}","Las Animas","08071","FALSE","FALSE","America/Denver"
"81082","37.20343","-104.41717","Trinidad","CO","Colorado","TRUE","","11818","5.9","08071","Las Animas","{""08071"": 100}","Las Animas","08071","FALSE","FALSE","America/Denver"
"81084","37.57031","-102.41929","Two Buttes","CO","Colorado","TRUE","","67","0.1","08009","Baca","{""08009"": 83.65, ""08099"": 16.35}","Baca|Prowers","08009|08099","FALSE","FALSE","America/Denver"
"81087","37.39168","-102.41277","Vilas","CO","Colorado","TRUE","","169","2.2","08009","Baca","{""08009"": 100}","Baca","08009","FALSE","FALSE","America/Denver"
"81089","37.6642","-104.66427","Walsenburg","CO","Colorado","TRUE","","4759","2.0","08055","Huerfano","{""08055"": 77.99, ""08071"": 22.01}","Huerfano|Las Animas","08055|08071","FALSE","FALSE","America/Denver"
"81090","37.36311","-102.22434","Walsh","CO","Colorado","TRUE","","949","0.6","08009","Baca","{""08009"": 100}","Baca","08009","FALSE","FALSE","America/Denver"
"81091","37.14869","-104.97774","Weston","CO","Colorado","TRUE","","969","0.9","08071","Las Animas","{""08071"": 100}","Las Animas","08071","FALSE","FALSE","America/Denver"
"81092","38.20283","-102.86779","Wiley","CO","Colorado","TRUE","","803","1.6","08011","Bent","{""08011"": 79.24, ""08099"": 19.18, ""08061"": 1.58}","Bent|Prowers|Kiowa","08011|08099|08061","FALSE","FALSE","America/Denver"
"81101","37.47197","-105.85243","Alamosa","CO","Colorado","TRUE","","15110","15.8","08003","Alamosa","{""08003"": 94.45, ""08021"": 5.55}","Alamosa|Conejos","08003|08021","FALSE","FALSE","America/Denver"
"81120","37.14248","-106.26715","Antonito","CO","Colorado","TRUE","","2204","1.0","08021","Conejos","{""08021"": 92.11, ""35039"": 7.89}","Conejos|Rio Arriba","08021|35039","FALSE","FALSE","America/Denver"
"81121","37.01861","-107.42041","Arboles","CO","Colorado","TRUE","","362","31.2","08007","Archuleta","{""08007"": 100}","Archuleta","08007","FALSE","FALSE","America/Denver"
"81122","37.31839","-107.50574","Bayfield","CO","Colorado","TRUE","","8896","7.1","08067","La Plata","{""08067"": 60.76, ""08007"": 39.24}","La Plata|Archuleta","08067|08007","FALSE","FALSE","America/Denver"
"81123","37.40469","-105.5659","Blanca","CO","Colorado","TRUE","","820","2.2","08023","Costilla","{""08023"": 100}","Costilla","08023","FALSE","FALSE","America/Denver"
"81124","37.28543","-106.10688","Capulin","CO","Colorado","TRUE","","164","21.7","08021","Conejos","{""08021"": 100}","Conejos","08021","FALSE","FALSE","America/Denver"
"81125","37.81745","-106.06678","Center","CO","Colorado","TRUE","","3573","5.3","08109","Saguache","{""08109"": 82.0, ""08105"": 16.45, ""08003"": 1.55}","Saguache|Rio Grande|Alamosa","08109|08105|08003","FALSE","FALSE","America/Denver"
"81126","37.16146","-105.34724","Chama","CO","Colorado","TRUE","","387","15.0","08023","Costilla","{""08023"": 100}","Costilla","08023","FALSE","FALSE","America/Denver"
"81128","37.06529","-106.65223","Chromo","CO","Colorado","TRUE","","45","0.1","08007","Archuleta","{""08007"": 100}","Archuleta","08007","FALSE","FALSE","America/Denver"
"81129","37.10495","-106.02167","Conejos","CO","Colorado","TRUE","","7","1.0","08021","Conejos","{""08021"": 100}","Conejos","08021","FALSE","FALSE","America/Denver"
"81130","37.7179","-107.04471","Creede","CO","Colorado","TRUE","","745","0.3","08079","Mineral","{""08079"": 70.47, ""08053"": 29.53}","Mineral|Hinsdale","08079|08053","FALSE","FALSE","America/Denver"
"81131","37.87706","-105.66651","Crestone","CO","Colorado","TRUE","","1042","1.1","08109","Saguache","{""08109"": 100}","Saguache","08109","FALSE","FALSE","America/Denver"
"81132","37.71656","-106.41009","Del Norte","CO","Colorado","TRUE","","3338","1.8","08105","Rio Grande","{""08105"": 51.26, ""08109"": 48.74}","Rio Grande|Saguache","08105|08109","FALSE","FALSE","America/Denver"
"81133","37.44964","-105.32747","Fort Garland","CO","Colorado","TRUE","","1072","1.0","08023","Costilla","{""08023"": 100}","Costilla","08023","FALSE","FALSE","America/Denver"
"81136","37.72672","-105.85355","Hooper","CO","Colorado","TRUE","","328","1.5","08003","Alamosa","{""08003"": 80.39, ""08109"": 19.61}","Alamosa|Saguache","08003|08109","FALSE","FALSE","America/Denver"
"81137","37.05555","-107.61596","Ignacio","CO","Colorado","TRUE","","5662","8.5","08067","La Plata","{""08067"": 77.76, ""35045"": 19.2, ""08007"": 3.04}","La Plata|San Juan|Archuleta","08067|35045|08007","FALSE","FALSE","America/Denver"
"81138","37.02302","-105.62737","Jaroso","CO","Colorado","TRUE","","37","0.7","08023","Costilla","{""08023"": 100}","Costilla","08023","FALSE","FALSE","America/Denver"
"81140","37.28692","-106.1543","La Jara","CO","Colorado","TRUE","","1969","2.7","08021","Conejos","{""08021"": 100}","Conejos","08021","FALSE","FALSE","America/Denver"
"81141","37.16256","-105.89507","Manassa","CO","Colorado","TRUE","","1049","15.7","08021","Conejos","{""08021"": 100}","Conejos","08021","FALSE","FALSE","America/Denver"
"81143","38.14477","-105.87112","Moffat","CO","Colorado","TRUE","","769","0.8","08109","Saguache","{""08109"": 100}","Saguache","08109","FALSE","FALSE","America/Denver"
"81144","37.5516","-106.14851","Monte Vista","CO","Colorado","TRUE","","6881","9.2","08105","Rio Grande","{""08105"": 91.56, ""08003"": 8.44}","Rio Grande|Alamosa","08105|08003","FALSE","FALSE","America/Denver"
"81146","37.64616","-105.6776","Mosca","CO","Colorado","TRUE","","1039","1.4","08003","Alamosa","{""08003"": 100}","Alamosa","08003","FALSE","FALSE","America/Denver"
"81147","37.28675","-107.08333","Pagosa Springs","CO","Colorado","TRUE","","12599","3.6","08007","Archuleta","{""08007"": 73.81, ""08053"": 21.98, ""08079"": 4.21}","Archuleta|Hinsdale|Mineral","08007|08053|08079","FALSE","FALSE","America/Denver"
"81148","37.17183","-105.98542","Romeo","CO","Colorado","TRUE","","313","517.8","08021","Conejos","{""08021"": 100}","Conejos","08021","FALSE","FALSE","America/Denver"
"81149","38.1035","-106.33858","Saguache","CO","Colorado","TRUE","","939","0.5","08109","Saguache","{""08109"": 100}","Saguache","08109","FALSE","FALSE","America/Denver"
"81151","37.23376","-105.71506","Sanford","CO","Colorado","TRUE","","1777","2.3","08023","Costilla","{""08023"": 56.74, ""08021"": 43.26}","Costilla|Conejos","08023|08021","FALSE","FALSE","America/Denver"
"81152","37.12609","-105.39411","San Luis","CO","Colorado","TRUE","","1089","0.9","08023","Costilla","{""08023"": 100}","Costilla","08023","FALSE","FALSE","America/Denver"
"81154","37.63473","-106.67179","South Fork","CO","Colorado","TRUE","","1105","1.1","08105","Rio Grande","{""08105"": 65.39, ""08079"": 34.61}","Rio Grande|Mineral","08105|08079","FALSE","FALSE","America/Denver"
"81155","38.26671","-106.09603","Villa Grove","CO","Colorado","TRUE","","239","0.3","08109","Saguache","{""08109"": 100}","Saguache","08109","FALSE","FALSE","America/Denver"
"81201","38.55129","-106.08157","Salida","CO","Colorado","TRUE","","9054","8.7","08015","Chaffee","{""08015"": 84.46, ""08043"": 15.54}","Chaffee|Fremont","08015|08043","FALSE","FALSE","America/Denver"
"81210","38.81898","-106.62219","Almont","CO","Colorado","TRUE","","283","0.2","08051","Gunnison","{""08051"": 100}","Gunnison","08051","FALSE","FALSE","America/Denver"
"81211","38.89548","-106.24128","Buena Vista","CO","Colorado","TRUE","","8156","6.6","08015","Chaffee","{""08015"": 100}","Chaffee","08015","FALSE","FALSE","America/Denver"
"81212","38.54409","-105.42498","Canon City","CO","Colorado","TRUE","","31899","18.3","08043","Fremont","{""08043"": 100}","Fremont","08043","FALSE","FALSE","America/Denver"
"81220","38.29861","-107.48414","Cimarron","CO","Colorado","TRUE","","139","0.2","08051","Gunnison","{""08051"": 74.43, ""08085"": 25.57}","Gunnison|Montrose","08051|08085","FALSE","FALSE","America/Denver"
"81221","38.36243","-105.14238","Coal Creek","CO","Colorado","TRUE","","414","139.4","08043","Fremont","{""08043"": 100}","Fremont","08043","FALSE","FALSE","America/Denver"
"81222","38.35492","-105.81612","Coaldale","CO","Colorado","TRUE","","425","5.1","08043","Fremont","{""08043"": 100}","Fremont","08043","FALSE","FALSE","America/Denver"
"81223","38.39372","-105.6031","Cotopaxi","CO","Colorado","TRUE","","1822","1.8","08043","Fremont","{""08043"": 100}","Fremont","08043","FALSE","FALSE","America/Denver"
"81224","38.87985","-106.90957","Crested Butte","CO","Colorado","TRUE","","3468","5.1","08051","Gunnison","{""08051"": 100}","Gunnison","08051","FALSE","FALSE","America/Denver"
"81225","38.94115","-107.00664","Crested Butte","CO","Colorado","TRUE","","1052","14.1","08051","Gunnison","{""08051"": 100}","Gunnison","08051","FALSE","FALSE","America/Denver"
"81226","38.32213","-105.10193","Florence","CO","Colorado","TRUE","","9266","27.6","08043","Fremont","{""08043"": 88.43, ""08027"": 11.57}","Fremont|Custer","08043|08027","FALSE","FALSE","America/Denver"
"81227","38.54934","-106.29009","Monarch","CO","Colorado","TRUE","","0","0.0","08015","Chaffee","{""08015"": 100}","Chaffee","08015","FALSE","FALSE","America/Denver"
"81228","39.03402","-106.27723","Granite","CO","Colorado","TRUE","","0","0.0","08015","Chaffee","{""08015"": 100}","Chaffee","08015","FALSE","FALSE","America/Denver"
"81230","38.40752","-106.98372","Gunnison","CO","Colorado","TRUE","","10676","2.4","08051","Gunnison","{""08051"": 61.48, ""08109"": 38.52}","Gunnison|Saguache","08051|08109","FALSE","FALSE","America/Denver"
"81232","38.27535","-105.60895","Hillside","CO","Colorado","TRUE","","45","21.3","08043","Fremont","{""08043"": 100}","Fremont","08043","FALSE","FALSE","America/Denver"
"81233","38.49244","-105.81369","Howard","CO","Colorado","TRUE","","1006","6.7","08043","Fremont","{""08043"": 100}","Fremont","08043","FALSE","FALSE","America/Denver"
"81235","37.99363","-107.33098","Lake City","CO","Colorado","TRUE","","800","0.6","08053","Hinsdale","{""08053"": 100}","Hinsdale","08053","FALSE","FALSE","America/Denver"
"81236","38.6955","-106.25424","Nathrop","CO","Colorado","TRUE","","1096","2.6","08015","Chaffee","{""08015"": 100}","Chaffee","08015","FALSE","FALSE","America/Denver"
"81237","38.62842","-106.59108","Ohio City","CO","Colorado","TRUE","","115","0.8","08051","Gunnison","{""08051"": 100}","Gunnison","08051","FALSE","FALSE","America/Denver"
"81239","38.53667","-106.60825","Parlin","CO","Colorado","TRUE","","161","1.4","08051","Gunnison","{""08051"": 100}","Gunnison","08051","FALSE","FALSE","America/Denver"
"81240","38.4995","-105.03076","Penrose","CO","Colorado","TRUE","","3749","10.4","08043","Fremont","{""08043"": 100}","Fremont","08043","FALSE","FALSE","America/Denver"
"81241","38.62675","-106.48848","Pitkin","CO","Colorado","TRUE","","196","1.8","08051","Gunnison","{""08051"": 100}","Gunnison","08051","FALSE","FALSE","America/Denver"
"81242","38.47181","-106.07288","Poncha Springs","CO","Colorado","TRUE","","1146","21.6","08015","Chaffee","{""08015"": 99.85, ""08109"": 0.15}","Chaffee|Saguache","08015|08109","FALSE","FALSE","America/Denver"
"81243","38.26041","-107.17654","Powderhorn","CO","Colorado","TRUE","","65","0.1","08051","Gunnison","{""08051"": 100}","Gunnison","08051","FALSE","FALSE","America/Denver"
"81244","38.36393","-105.16495","Rockvale","CO","Colorado","TRUE","","513","103.1","08043","Fremont","{""08043"": 100}","Fremont","08043","FALSE","FALSE","America/Denver"
"81248","38.3991","-106.47763","Sargents","CO","Colorado","TRUE","","184","0.2","08109","Saguache","{""08109"": 65.65, ""08051"": 34.35}","Saguache|Gunnison","08109|08051","FALSE","FALSE","America/Denver"
"81251","39.13482","-106.43723","Twin Lakes","CO","Colorado","TRUE","","226","0.6","08065","Lake","{""08065"": 100}","Lake","08065","FALSE","FALSE","America/Denver"
"81252","38.10891","-105.42143","Westcliffe","CO","Colorado","TRUE","","3931","2.5","08027","Custer","{""08027"": 100}","Custer","08027","FALSE","FALSE","America/Denver"
"81253","38.18763","-105.07497","Wetmore","CO","Colorado","TRUE","","405","1.7","08027","Custer","{""08027"": 70.02, ""08043"": 23.75, ""08101"": 6.23}","Custer|Fremont|Pueblo","08027|08043|08101","FALSE","FALSE","America/Denver"
"81301","37.51095","-107.82066","Durango","CO","Colorado","TRUE","","29385","15.0","08067","La Plata","{""08067"": 78.31, ""08111"": 21.69}","La Plata|San Juan","08067|08111","FALSE","FALSE","America/Denver"
"81303","37.12903","-107.85677","Durango","CO","Colorado","TRUE","","9587","25.5","08067","La Plata","{""08067"": 100}","La Plata","08067","FALSE","FALSE","America/Denver"
"81320","37.70115","-108.72654","Cahone","CO","Colorado","TRUE","","503","1.3","08033","Dolores","{""08033"": 100}","Dolores","08033","FALSE","FALSE","America/Denver"
"81321","37.31826","-108.76267","Cortez","CO","Colorado","TRUE","","15050","13.8","08083","Montezuma","{""08083"": 100}","Montezuma","08083","FALSE","FALSE","America/Denver"
"81323","37.64874","-108.27823","Dolores","CO","Colorado","TRUE","","4854","2.5","08033","Dolores","{""08033"": 51.67, ""08083"": 48.33}","Dolores|Montezuma","08033|08083","FALSE","FALSE","America/Denver"
"81324","37.63734","-109.02911","Dove Creek","CO","Colorado","TRUE","","1506","1.4","08033","Dolores","{""08033"": 52.99, ""49037"": 47.01}","Dolores|San Juan","08033|49037","FALSE","FALSE","America/Denver"
"81325","37.89605","-108.72011","Egnar","CO","Colorado","TRUE","","109","0.1","08033","Dolores","{""08033"": 51.12, ""08113"": 48.88}","Dolores|San Miguel","08033|08113","FALSE","FALSE","America/Denver"
"81326","37.14635","-108.11525","Hesperus","CO","Colorado","TRUE","","2783","2.6","08067","La Plata","{""08067"": 100}","La Plata","08067","FALSE","FALSE","America/Denver"
"81327","37.5155","-108.66488","Lewis","CO","Colorado","TRUE","","357","4.5","08083","Montezuma","{""08083"": 100}","Montezuma","08083","FALSE","FALSE","America/Denver"
"81328","37.30054","-108.3101","Mancos","CO","Colorado","TRUE","","3750","2.9","08083","Montezuma","{""08083"": 90.91, ""08067"": 9.09}","Montezuma|La Plata","08083|08067","FALSE","FALSE","America/Denver"
"81330","37.23484","-108.47828","Mesa Verde National Park","CO","Colorado","TRUE","","116","0.7","08083","Montezuma","{""08083"": 100}","Montezuma","08083","FALSE","FALSE","America/Denver"
"81331","37.51387","-108.86252","Pleasant View","CO","Colorado","TRUE","","117","0.2","08083","Montezuma","{""08083"": 100}","Montezuma","08083","FALSE","FALSE","America/Denver"
"81332","37.69857","-107.99292","Rico","CO","Colorado","TRUE","","377","4.5","08033","Dolores","{""08033"": 100}","Dolores","08033","FALSE","FALSE","America/Denver"
"81334","37.11594","-108.63674","Towaoc","CO","Colorado","TRUE","","1633","3.0","08083","Montezuma","{""08083"": 100}","Montezuma","08083","FALSE","FALSE","America/Denver"
"81335","37.54381","-108.71978","Yellow Jacket","CO","Colorado","TRUE","","55","4.8","08083","Montezuma","{""08083"": 100}","Montezuma","08083","FALSE","FALSE","America/Denver"
"81401","38.51559","-107.78472","Montrose","CO","Colorado","TRUE","","23497","45.3","08085","Montrose","{""08085"": 100}","Montrose","08085","FALSE","FALSE","America/Denver"
"81403","38.32308","-107.92816","Montrose","CO","Colorado","TRUE","","11254","8.6","08085","Montrose","{""08085"": 66.88, ""08091"": 33.12}","Montrose|Ouray","08085|08091","FALSE","FALSE","America/Denver"
"81410","38.81261","-107.97595","Austin","CO","Colorado","TRUE","","1769","20.0","08029","Delta","{""08029"": 100}","Delta","08029","FALSE","FALSE","America/Denver"
"81411","38.25188","-108.97862","Bedrock","CO","Colorado","TRUE","","35","0.1","08085","Montrose","{""08085"": 100}","Montrose","08085","FALSE","FALSE","America/Denver"
"81413","38.97171","-107.90845","Cedaredge","CO","Colorado","TRUE","","5802","14.6","08029","Delta","{""08029"": 100}","Delta","08029","FALSE","FALSE","America/Denver"
"81415","38.64027","-107.6368","Crawford","CO","Colorado","TRUE","","1687","2.3","08085","Montrose","{""08085"": 60.44, ""08029"": 39.56}","Montrose|Delta","08085|08029","FALSE","FALSE","America/Denver"
"81416","38.66482","-108.20403","Delta","CO","Colorado","TRUE","","14258","9.6","08029","Delta","{""08029"": 56.93, ""08085"": 43.07}","Delta|Montrose","08029|08085","FALSE","FALSE","America/Denver"
"81418","38.90479","-108.05687","Eckert","CO","Colorado","TRUE","","1505","8.2","08029","Delta","{""08029"": 100}","Delta","08029","FALSE","FALSE","America/Denver"
"81419","38.86332","-107.74872","Hotchkiss","CO","Colorado","TRUE","","3064","5.6","08029","Delta","{""08029"": 100}","Delta","08029","FALSE","FALSE","America/Denver"
"81422","38.32039","-108.70843","Naturita","CO","Colorado","TRUE","","483","0.8","08085","Montrose","{""08085"": 100}","Montrose","08085","FALSE","FALSE","America/Denver"
"81423","38.03835","-108.45816","Norwood","CO","Colorado","TRUE","","1675","1.1","08113","San Miguel","{""08113"": 89.97, ""08085"": 10.03}","San Miguel|Montrose","08113|08085","FALSE","FALSE","America/Denver"
"81424","38.34098","-108.47346","Nucla","CO","Colorado","TRUE","","1034","1.2","08085","Montrose","{""08085"": 100}","Montrose","08085","FALSE","FALSE","America/Denver"
"81425","38.49363","-108.10469","Olathe","CO","Colorado","TRUE","","5497","9.7","08085","Montrose","{""08085"": 100}","Montrose","08085","FALSE","FALSE","America/Denver"
"81426","37.87339","-107.83191","Ophir","CO","Colorado","TRUE","","198","7.8","08113","San Miguel","{""08113"": 100}","San Miguel","08113","FALSE","FALSE","America/Denver"
"81427","37.99301","-107.64387","Ouray","CO","Colorado","TRUE","","1247","6.4","08091","Ouray","{""08091"": 100}","Ouray","08091","FALSE","FALSE","America/Denver"
"81428","38.95928","-107.59899","Paonia","CO","Colorado","TRUE","","3522","7.2","08029","Delta","{""08029"": 100}","Delta","08029","FALSE","FALSE","America/Denver"
"81429","38.34121","-108.90732","Paradox","CO","Colorado","TRUE","","115","0.2","08085","Montrose","{""08085"": 100}","Montrose","08085","FALSE","FALSE","America/Denver"
"81430","38.04013","-108.05764","Placerville","CO","Colorado","TRUE","","714","1.3","08113","San Miguel","{""08113"": 100}","San Miguel","08113","FALSE","FALSE","America/Denver"
"81431","38.13808","-108.51429","Redvale","CO","Colorado","TRUE","","425","1.2","08113","San Miguel","{""08113"": 65.09, ""08085"": 34.91}","San Miguel|Montrose","08113|08085","FALSE","FALSE","America/Denver"
"81432","38.12494","-107.74273","Ridgway","CO","Colorado","TRUE","","3010","3.9","08091","Ouray","{""08091"": 99.31, ""08113"": 0.69}","Ouray|San Miguel","08091|08113","FALSE","FALSE","America/Denver"
"81433","37.79346","-107.59448","Silverton","CO","Colorado","TRUE","","649","1.1","08111","San Juan","{""08111"": 100}","San Juan","08111","FALSE","FALSE","America/Denver"
"81434","38.95384","-107.35954","Somerset","CO","Colorado","TRUE","","153","0.1","08051","Gunnison","{""08051"": 91.77, ""08029"": 8.23}","Gunnison|Delta","08051|08029","FALSE","FALSE","America/Denver"
"81435","37.90014","-107.92397","Telluride","CO","Colorado","TRUE","","5508","11.1","08113","San Miguel","{""08113"": 100}","San Miguel","08113","FALSE","FALSE","America/Denver"
"81501","39.07174","-108.54569","Grand Junction","CO","Colorado","TRUE","","23803","1059.5","08077","Mesa","{""08077"": 100}","Mesa","08077","FALSE","FALSE","America/Denver"
"81503","39.03094","-108.48682","Grand Junction","CO","Colorado","TRUE","","15941","279.6","08077","Mesa","{""08077"": 100}","Mesa","08077","FALSE","FALSE","America/Denver"
"81504","39.1198","-108.49542","Grand Junction","CO","Colorado","TRUE","","31094","446.0","08077","Mesa","{""08077"": 100}","Mesa","08077","FALSE","FALSE","America/Denver"
"81505","39.18593","-108.59997","Grand Junction","CO","Colorado","TRUE","","12009","64.3","08077","Mesa","{""08077"": 100}","Mesa","08077","FALSE","FALSE","America/Denver"
"81506","39.15785","-108.53454","Grand Junction","CO","Colorado","TRUE","","11504","185.6","08077","Mesa","{""08077"": 100}","Mesa","08077","FALSE","FALSE","America/Denver"
"81507","39.0079","-108.62644","Grand Junction","CO","Colorado","TRUE","","15911","54.8","08077","Mesa","{""08077"": 100}","Mesa","08077","FALSE","FALSE","America/Denver"
"81520","39.10962","-108.43561","Clifton","CO","Colorado","TRUE","","14023","263.5","08077","Mesa","{""08077"": 100}","Mesa","08077","FALSE","FALSE","America/Denver"
"81521","39.12529","-108.85049","Fruita","CO","Colorado","TRUE","","15859","33.7","08077","Mesa","{""08077"": 100}","Mesa","08077","FALSE","FALSE","America/Denver"
"81522","38.66026","-108.93025","Gateway","CO","Colorado","TRUE","","104","0.1","08077","Mesa","{""08077"": 100}","Mesa","08077","FALSE","FALSE","America/Denver"
"81523","38.93803","-108.87362","Glade Park","CO","Colorado","TRUE","","668","0.9","08077","Mesa","{""08077"": 100}","Mesa","08077","FALSE","FALSE","America/Denver"
"81524","39.2842","-108.73257","Loma","CO","Colorado","TRUE","","2577","7.2","08077","Mesa","{""08077"": 100}","Mesa","08077","FALSE","FALSE","America/Denver"
"81525","39.26984","-108.95075","Mack","CO","Colorado","TRUE","","1406","3.5","08077","Mesa","{""08077"": 100}","Mesa","08077","FALSE","FALSE","America/Denver"
"81526","39.07741","-108.33056","Palisade","CO","Colorado","TRUE","","5065","27.0","08077","Mesa","{""08077"": 100}","Mesa","08077","FALSE","FALSE","America/Denver"
"81527","38.75758","-108.52466","Whitewater","CO","Colorado","TRUE","","1678","0.8","08077","Mesa","{""08077"": 100}","Mesa","08077","FALSE","FALSE","America/Denver"
"81601","39.59357","-107.32815","Glenwood Springs","CO","Colorado","TRUE","","16485","17.3","08045","Garfield","{""08045"": 100}","Garfield","08045","FALSE","FALSE","America/Denver"
"81610","40.29418","-108.82468","Dinosaur","CO","Colorado","TRUE","","290","0.5","08081","Moffat","{""08081"": 100}","Moffat","08081","FALSE","FALSE","America/Denver"
"81611","39.14561","-106.74885","Aspen","CO","Colorado","TRUE","","10497","13.3","08097","Pitkin","{""08097"": 100}","Pitkin","08097","FALSE","FALSE","America/Denver"
"81612","39.05048","-106.82335","Aspen","CO","Colorado","TRUE","","91","0.7","08097","Pitkin","{""08097"": 100}","Pitkin","08097","FALSE","FALSE","America/Denver"
"81615","39.21437","-106.94172","Snowmass Village","CO","Colorado","TRUE","","3089","47.1","08097","Pitkin","{""08097"": 100}","Pitkin","08097","FALSE","FALSE","America/Denver"
"81620","39.61485","-106.50555","Avon","CO","Colorado","TRUE","","11131","79.5","08037","Eagle","{""08037"": 100}","Eagle","08037","FALSE","FALSE","America/Denver"
"81621","39.37803","-106.8772","Basalt","CO","Colorado","TRUE","","6122","9.1","08037","Eagle","{""08037"": 64.85, ""08097"": 35.15}","Eagle|Pitkin","08037|08097","FALSE","FALSE","America/Denver"
"81623","39.2451","-107.20921","Carbondale","CO","Colorado","TRUE","","16520","14.7","08097","Pitkin","{""08097"": 53.89, ""08051"": 23.92, ""08045"": 16.55, ""08037"": 5.64}","Pitkin|Gunnison|Garfield|Eagle","08097|08051|08045|08037","FALSE","FALSE","America/Denver"
"81624","39.24611","-107.77259","Collbran","CO","Colorado","TRUE","","1458","1.0","08077","Mesa","{""08077"": 100}","Mesa","08077","FALSE","FALSE","America/Denver"
"81625","40.70295","-107.74652","Craig","CO","Colorado","TRUE","","12740","3.3","08081","Moffat","{""08081"": 100}","Moffat","08081","FALSE","FALSE","America/Denver"
"81630","39.45769","-108.54627","De Beque","CO","Colorado","TRUE","","1156","0.4","08045","Garfield","{""08045"": 76.6, ""08077"": 23.4}","Garfield|Mesa","08045|08077","FALSE","FALSE","America/Denver"
"81631","39.63116","-106.77136","Eagle","CO","Colorado","TRUE","","8271","14.5","08037","Eagle","{""08037"": 100}","Eagle","08037","FALSE","FALSE","America/Denver"
"81632","39.62015","-106.61132","Edwards","CO","Colorado","TRUE","","10493","35.0","08037","Eagle","{""08037"": 100}","Eagle","08037","FALSE","FALSE","America/Denver"
"81633","40.37644","-108.50983","Dinosaur","CO","Colorado","TRUE","","0","0.0","08081","Moffat","{""08081"": 100}","Moffat","08081","FALSE","FALSE","America/Denver"
"81635","39.53722","-108.06022","Parachute","CO","Colorado","TRUE","","7084","8.3","08045","Garfield","{""08045"": 97.09, ""08077"": 2.91}","Garfield|Mesa","08045|08077","FALSE","FALSE","America/Denver"
"81637","39.77162","-107.10065","Gypsum","CO","Colorado","TRUE","","9307","4.6","08045","Garfield","{""08045"": 53.97, ""08037"": 46.03}","Garfield|Eagle","08045|08037","FALSE","FALSE","America/Denver"
"81638","40.30589","-107.64205","Hamilton","CO","Colorado","TRUE","","67","0.1","08081","Moffat","{""08081"": 77.29, ""08107"": 22.71}","Moffat|Routt","08081|08107","FALSE","FALSE","America/Denver"
"81639","40.52636","-107.24457","Hayden","CO","Colorado","TRUE","","2696","2.2","08107","Routt","{""08107"": 100}","Routt","08107","FALSE","FALSE","America/Denver"
"81640","40.69357","-108.51791","Maybell","CO","Colorado","TRUE","","123","0.0","08081","Moffat","{""08081"": 100}","Moffat","08081","FALSE","FALSE","America/Denver"
"81641","40.09112","-107.84699","Meeker","CO","Colorado","TRUE","","3903","0.8","08103","Rio Blanco","{""08103"": 83.0, ""08081"": 17.0}","Rio Blanco|Moffat","08103|08081","FALSE","FALSE","America/Denver"
"81642","39.31202","-106.58448","Meredith","CO","Colorado","TRUE","","12","0.0","08097","Pitkin","{""08097"": 100}","Pitkin","08097","FALSE","FALSE","America/Denver"
"81643","39.11968","-108.15001","Mesa","CO","Colorado","TRUE","","368","0.9","08077","Mesa","{""08077"": 100}","Mesa","08077","FALSE","FALSE","America/Denver"
"81645","39.47634","-106.46779","Minturn","CO","Colorado","TRUE","","1098","4.1","08037","Eagle","{""08037"": 100}","Eagle","08037","FALSE","FALSE","America/Denver"
"81646","39.10875","-107.99199","Molina","CO","Colorado","TRUE","","192","1.1","08077","Mesa","{""08077"": 100}","Mesa","08077","FALSE","FALSE","America/Denver"
"81647","39.57972","-107.5364","New Castle","CO","Colorado","TRUE","","6605","9.0","08045","Garfield","{""08045"": 100}","Garfield","08045","FALSE","FALSE","America/Denver"
"81648","39.95096","-108.78498","Rangely","CO","Colorado","TRUE","","2530","0.9","08103","Rio Blanco","{""08103"": 100}","Rio Blanco","08103","FALSE","FALSE","America/Denver"
"81649","39.46433","-106.31954","Red Cliff","CO","Colorado","TRUE","","281","0.8","08037","Eagle","{""08037"": 100}","Eagle","08037","FALSE","FALSE","America/Denver"
"81650","39.75926","-108.11201","Rifle","CO","Colorado","TRUE","","14323","5.4","08103","Rio Blanco","{""08103"": 59.93, ""08045"": 40.07}","Rio Blanco|Garfield","08103|08045","FALSE","FALSE","America/Denver"
"81652","39.472","-107.67082","Silt","CO","Colorado","TRUE","","6038","22.1","08045","Garfield","{""08045"": 100}","Garfield","08045","FALSE","FALSE","America/Denver"
"81653","40.9144","-107.2242","Slater","CO","Colorado","TRUE","","0","0.0","08107","Routt","{""08107"": 87.48, ""08081"": 12.52}","Routt|Moffat","08107|08081","FALSE","FALSE","America/Denver"
"81654","39.21462","-107.02597","Snowmass","CO","Colorado","TRUE","","1458","5.4","08097","Pitkin","{""08097"": 100}","Pitkin","08097","FALSE","FALSE","America/Denver"
"81655","39.7477","-106.67821","Wolcott","CO","Colorado","TRUE","","307","1.9","08037","Eagle","{""08037"": 100}","Eagle","08037","FALSE","FALSE","America/Denver"
"81656","39.27948","-106.78711","Woody Creek","CO","Colorado","TRUE","","299","1.9","08097","Pitkin","{""08097"": 100}","Pitkin","08097","FALSE","FALSE","America/Denver"
"81657","39.64864","-106.32608","Vail","CO","Colorado","TRUE","","5164","17.1","08037","Eagle","{""08037"": 100}","Eagle","08037","FALSE","FALSE","America/Denver"
"82001","41.095","-104.93265","Cheyenne","WY","Wyoming","TRUE","","37286","261.2","56021","Laramie","{""56021"": 100}","Laramie","56021","FALSE","FALSE","America/Denver"
"82005","41.14631","-104.86787","Fe Warren Afb","WY","Wyoming","TRUE","","641","95.6","56021","Laramie","{""56021"": 100}","Laramie","56021","FALSE","FALSE","America/Denver"
"82007","41.06231","-104.75591","Cheyenne","WY","Wyoming","TRUE","","22436","44.7","56021","Laramie","{""56021"": 100}","Laramie","56021","FALSE","FALSE","America/Denver"
"82009","41.38431","-104.85415","Cheyenne","WY","Wyoming","TRUE","","34509","10.4","56021","Laramie","{""56021"": 100}","Laramie","56021","FALSE","FALSE","America/Denver"
"82050","41.43517","-104.21477","Albin","WY","Wyoming","TRUE","","298","0.9","56021","Laramie","{""56021"": 100}","Laramie","56021","FALSE","FALSE","America/Denver"
"82051","41.60053","-105.64743","Bosler","WY","Wyoming","TRUE","","12","0.0","56001","Albany","{""56001"": 100}","Albany","56001","FALSE","FALSE","America/Denver"
"82052","41.12399","-105.34802","Buford","WY","Wyoming","TRUE","","77","1.3","56001","Albany","{""56001"": 100}","Albany","56001","FALSE","FALSE","America/Denver"
"82053","41.24392","-104.348","Burns","WY","Wyoming","TRUE","","1112","2.0","56021","Laramie","{""56021"": 100}","Laramie","56021","FALSE","FALSE","America/Denver"
