"zip","lat","lng","city","state_id","state_name","zcta","parent_zcta","population","density","county_fips","county_name","county_weights","county_names_all","county_fips_all","imprecise","military","timezone"
"71065","31.81028","-93.49957","Pleasant Hill","LA","Louisiana","TRUE","","927","5.9","22085","Sabine","{""22085"": 84.06, ""22069"": 15.35, ""22031"": 0.59}","Sabine|Natchitoches|De Soto","22085|22069|22031","FALSE","FALSE","America/Chicago"
"71066","31.87478","-93.19829","Powhatan","LA","Louisiana","TRUE","","46","279.3","22069","Natchitoches","{""22069"": 100}","Natchitoches","22069","FALSE","FALSE","America/Chicago"
"71067","32.59836","-93.49118","Princeton","LA","Louisiana","TRUE","","3485","35.3","22015","Bossier","{""22015"": 92.26, ""22119"": 7.74}","Bossier|Webster","22015|22119","FALSE","FALSE","America/Chicago"
"71068","32.28464","-93.32186","Ringgold","LA","Louisiana","TRUE","","3684","9.9","22013","Bienville","{""22013"": 75.15, ""22081"": 24.85}","Bienville|Red River","22013|22081","FALSE","FALSE","America/Chicago"
"71069","32.9726","-93.9887","Rodessa","LA","Louisiana","TRUE","","513","6.7","22017","Caddo","{""22017"": 100}","Caddo","22017","FALSE","FALSE","America/Chicago"
"71070","32.08629","-92.99618","Saline","LA","Louisiana","TRUE","","1173","2.3","22069","Natchitoches","{""22069"": 70.4, ""22013"": 29.6}","Natchitoches|Bienville","22069|22013","FALSE","FALSE","America/Chicago"
"71071","32.91747","-93.45099","Sarepta","LA","Louisiana","TRUE","","2255","16.5","22119","Webster","{""22119"": 80.73, ""22015"": 19.27}","Webster|Bossier","22119|22015","FALSE","FALSE","America/Chicago"
"71072","32.9373","-93.31141","Shongaloo","LA","Louisiana","TRUE","","1480","5.9","22119","Webster","{""22119"": 100}","Webster","22119","FALSE","FALSE","America/Chicago"
"71073","32.5241","-93.30547","Sibley","LA","Louisiana","TRUE","","2390","30.9","22119","Webster","{""22119"": 100}","Webster","22119","FALSE","FALSE","America/Chicago"
"71075","32.99349","-93.49199","Springhill","LA","Louisiana","TRUE","","5884","64.5","22119","Webster","{""22119"": 71.39, ""22015"": 28.61}","Webster|Bossier","22119|22015","FALSE","FALSE","America/Chicago"
"71078","32.27721","-93.7976","Stonewall","LA","Louisiana","TRUE","","7295","69.8","22031","De Soto","{""22031"": 100}","De Soto","22031","FALSE","FALSE","America/Chicago"
"71079","32.94811","-92.81941","Summerfield","LA","Louisiana","TRUE","","35","0.4","22027","Claiborne","{""22027"": 100}","Claiborne","22027","FALSE","FALSE","America/Chicago"
"71082","32.84389","-93.97763","Vivian","LA","Louisiana","TRUE","","3941","19.4","22017","Caddo","{""22017"": 100}","Caddo","22017","FALSE","FALSE","America/Chicago"
"71101","32.5062","-93.74822","Shreveport","LA","Louisiana","TRUE","","6920","634.7","22017","Caddo","{""22017"": 100}","Caddo","22017","FALSE","FALSE","America/Chicago"
"71103","32.49154","-93.7717","Shreveport","LA","Louisiana","TRUE","","6093","603.6","22017","Caddo","{""22017"": 100}","Caddo","22017","FALSE","FALSE","America/Chicago"
"71104","32.48525","-93.73171","Shreveport","LA","Louisiana","TRUE","","13239","1304.1","22017","Caddo","{""22017"": 95.12, ""22015"": 4.88}","Caddo|Bossier","22017|22015","FALSE","FALSE","America/Chicago"
"71105","32.45512","-93.71012","Shreveport","LA","Louisiana","TRUE","","20701","844.6","22017","Caddo","{""22017"": 95.39, ""22015"": 4.61}","Caddo|Bossier","22017|22015","FALSE","FALSE","America/Chicago"
"71106","32.38507","-93.73558","Shreveport","LA","Louisiana","TRUE","","33849","393.7","22017","Caddo","{""22017"": 100}","Caddo","22017","FALSE","FALSE","America/Chicago"
"71107","32.59509","-93.85909","Shreveport","LA","Louisiana","TRUE","","34777","97.9","22017","Caddo","{""22017"": 99.23, ""22015"": 0.77}","Caddo|Bossier","22017|22015","FALSE","FALSE","America/Chicago"
"71108","32.44236","-93.78881","Shreveport","LA","Louisiana","TRUE","","19944","908.8","22017","Caddo","{""22017"": 100}","Caddo","22017","FALSE","FALSE","America/Chicago"
"71109","32.46859","-93.814","Shreveport","LA","Louisiana","TRUE","","18530","560.0","22017","Caddo","{""22017"": 100}","Caddo","22017","FALSE","FALSE","America/Chicago"
"71110","32.50289","-93.63027","Barksdale Afb","LA","Louisiana","TRUE","","3719","80.3","22015","Bossier","{""22015"": 100}","Bossier","22015","FALSE","FALSE","America/Chicago"
"71111","32.57904","-93.70379","Bossier City","LA","Louisiana","TRUE","","42217","360.3","22015","Bossier","{""22015"": 100}","Bossier","22015","FALSE","FALSE","America/Chicago"
"71112","32.44373","-93.63874","Bossier City","LA","Louisiana","TRUE","","33240","307.5","22015","Bossier","{""22015"": 100}","Bossier","22015","FALSE","FALSE","America/Chicago"
"71115","32.26472","-93.56247","Shreveport","LA","Louisiana","TRUE","","14066","46.7","22017","Caddo","{""22017"": 58.62, ""22081"": 41.38}","Caddo|Red River","22017|22081","FALSE","FALSE","America/Chicago"
"71118","32.39262","-93.80498","Shreveport","LA","Louisiana","TRUE","","23876","705.1","22017","Caddo","{""22017"": 100}","Caddo","22017","FALSE","FALSE","America/Chicago"
"71119","32.48542","-93.92296","Shreveport","LA","Louisiana","TRUE","","10679","102.6","22017","Caddo","{""22017"": 100}","Caddo","22017","FALSE","FALSE","America/Chicago"
"71129","32.38697","-93.92685","Shreveport","LA","Louisiana","TRUE","","13419","121.3","22017","Caddo","{""22017"": 100}","Caddo","22017","FALSE","FALSE","America/Chicago"
"71201","32.53915","-92.1069","Monroe","LA","Louisiana","TRUE","","21490","557.6","22073","Ouachita","{""22073"": 100}","Ouachita","22073","FALSE","FALSE","America/Chicago"
"71202","32.39549","-92.05663","Monroe","LA","Louisiana","TRUE","","27503","92.0","22073","Ouachita","{""22073"": 100}","Ouachita","22073","FALSE","FALSE","America/Chicago"
"71203","32.58398","-92.01351","Monroe","LA","Louisiana","TRUE","","39830","129.7","22073","Ouachita","{""22073"": 100}","Ouachita","22073","FALSE","FALSE","America/Chicago"
"71209","32.53036","-92.07206","Monroe","LA","Louisiana","TRUE","","1294","9603.8","22073","Ouachita","{""22073"": 100}","Ouachita","22073","FALSE","FALSE","America/Chicago"
"71212","32.52725","-92.0734","Monroe","LA","Louisiana","TRUE","","0","0.0","22073","Ouachita","{""22073"": 100}","Ouachita","22073","FALSE","FALSE","America/Chicago"
"71218","32.35081","-91.78739","Archibald","LA","Louisiana","TRUE","","0","0.0","22083","Richland","{""22083"": 100}","Richland","22083","FALSE","FALSE","America/Chicago"
"71219","32.32344","-91.6842","Baskin","LA","Louisiana","TRUE","","998","6.4","22041","Franklin","{""22041"": 100}","Franklin","22041","FALSE","FALSE","America/Chicago"
"71220","32.8622","-91.91236","Bastrop","LA","Louisiana","TRUE","","21160","21.9","22067","Morehouse","{""22067"": 99.06, ""22073"": 0.94}","Morehouse|Ouachita","22067|22073","FALSE","FALSE","America/Chicago"
"71222","32.82859","-92.65918","Bernice","LA","Louisiana","TRUE","","2638","7.1","22111","Union","{""22111"": 73.72, ""22027"": 26.28}","Union|Claiborne","22111|22027","FALSE","FALSE","America/Chicago"
"71223","32.90084","-91.67443","Bonita","LA","Louisiana","TRUE","","420","3.2","22067","Morehouse","{""22067"": 100}","Morehouse","22067","FALSE","FALSE","America/Chicago"
"71225","32.50784","-92.3477","Calhoun","LA","Louisiana","TRUE","","6948","44.8","22073","Ouachita","{""22073"": 100}","Ouachita","22073","FALSE","FALSE","America/Chicago"
"71226","32.24729","-92.44234","Chatham","LA","Louisiana","TRUE","","1977","5.2","22049","Jackson","{""22049"": 100}","Jackson","22049","FALSE","FALSE","America/Chicago"
"71227","32.52866","-92.48353","Choudrant","LA","Louisiana","TRUE","","4237","14.2","22061","Lincoln","{""22061"": 60.38, ""22049"": 36.81, ""22073"": 2.81}","Lincoln|Jackson|Ouachita","22061|22049|22073","FALSE","FALSE","America/Chicago"
"71229","32.6374","-91.89251","Collinston","LA","Louisiana","TRUE","","1303","9.2","22067","Morehouse","{""22067"": 90.58, ""22073"": 9.42}","Morehouse|Ouachita","22067|22073","FALSE","FALSE","America/Chicago"
"71230","32.2403","-91.59269","Crowville","LA","Louisiana","TRUE","","0","0.0","22041","Franklin","{""22041"": 100}","Franklin","22041","FALSE","FALSE","America/Chicago"
"71232","32.41554","-91.493","Delhi","LA","Louisiana","TRUE","","5706","8.9","22065","Madison","{""22065"": 45.64, ""22083"": 32.31, ""22041"": 22.04}","Madison|Richland|Franklin","22065|22083|22041","FALSE","FALSE","America/Chicago"
"71233","32.32509","-90.93177","Delta","LA","Louisiana","TRUE","","197","129.2","22065","Madison","{""22065"": 100}","Madison","22065","FALSE","FALSE","America/Chicago"
"71234","32.64306","-92.33954","Downsville","LA","Louisiana","TRUE","","4674","15.4","22111","Union","{""22111"": 86.22, ""22073"": 7.47, ""22061"": 6.31}","Union|Ouachita|Lincoln","22111|22073|22061","FALSE","FALSE","America/Chicago"
"71235","32.68988","-92.6726","Dubach","LA","Louisiana","TRUE","","3807","9.0","22061","Lincoln","{""22061"": 95.55, ""22111"": 3.23, ""22027"": 1.22}","Lincoln|Union|Claiborne","22061|22111|22027","FALSE","FALSE","America/Chicago"
"71237","32.58413","-91.48024","Epps","LA","Louisiana","TRUE","","1271","6.0","22123","West Carroll","{""22123"": 48.17, ""22035"": 25.95, ""22083"": 16.66, ""22065"": 9.22}","West Carroll|East Carroll|Richland|Madison","22123|22035|22083|22065","FALSE","FALSE","America/Chicago"
"71238","32.36716","-92.38139","Eros","LA","Louisiana","TRUE","","2512","9.0","22049","Jackson","{""22049"": 64.81, ""22073"": 35.19}","Jackson|Ouachita","22049|22073","FALSE","FALSE","America/Chicago"
"71241","32.77107","-92.36531","Farmerville","LA","Louisiana","TRUE","","8751","17.5","22111","Union","{""22111"": 100}","Union","22111","FALSE","FALSE","America/Chicago"
"71242","32.79223","-91.41291","Forest","LA","Louisiana","TRUE","","35","475.8","22123","West Carroll","{""22123"": 100}","West Carroll","22123","FALSE","FALSE","America/Chicago"
"71243","31.96055","-91.80745","Fort Necessity","LA","Louisiana","TRUE","","201","3.0","22041","Franklin","{""22041"": 100}","Franklin","22041","FALSE","FALSE","America/Chicago"
"71245","32.52697","-92.7145","Grambling","LA","Louisiana","TRUE","","4520","321.9","22061","Lincoln","{""22061"": 100}","Lincoln","22061","FALSE","FALSE","America/Chicago"
"71247","32.27255","-92.72077","Hodge","LA","Louisiana","TRUE","","1246","350.6","22049","Jackson","{""22049"": 100}","Jackson","22049","FALSE","FALSE","America/Chicago"
"71250","32.95983","-91.57327","Jones","LA","Louisiana","TRUE","","43","0.2","22067","Morehouse","{""22067"": 100}","Morehouse","22067","FALSE","FALSE","America/Chicago"
"71251","32.21891","-92.67162","Jonesboro","LA","Louisiana","TRUE","","7909","16.5","22049","Jackson","{""22049"": 86.5, ""22013"": 13.5}","Jackson|Bienville","22049|22013","FALSE","FALSE","America/Chicago"
"71253","32.99597","-91.31576","Kilbourne","LA","Louisiana","TRUE","","358","142.6","22123","West Carroll","{""22123"": 100}","West Carroll","22123","FALSE","FALSE","America/Chicago"
"71254","32.79429","-91.23914","Lake Providence","LA","Louisiana","TRUE","","7113","9.9","22035","East Carroll","{""22035"": 100}","East Carroll","22035","FALSE","FALSE","America/Chicago"
"71256","32.94852","-92.71471","Lillie","LA","Louisiana","TRUE","","1024","7.5","22111","Union","{""22111"": 61.64, ""22027"": 38.36}","Union|Claiborne","22111|22027","FALSE","FALSE","America/Chicago"
"71259","32.2713","-91.84558","Mangham","LA","Louisiana","TRUE","","1898","8.0","22083","Richland","{""22083"": 100}","Richland","22083","FALSE","FALSE","America/Chicago"
"71260","32.90615","-92.23793","Marion","LA","Louisiana","TRUE","","2802","3.8","22111","Union","{""22111"": 100}","Union","22111","FALSE","FALSE","America/Chicago"
"71261","32.77802","-91.69515","Mer Rouge","LA","Louisiana","TRUE","","1397","3.9","22067","Morehouse","{""22067"": 100}","Morehouse","22067","FALSE","FALSE","America/Chicago"
"71263","32.87497","-91.428","Oak Grove","LA","Louisiana","TRUE","","6702","13.2","22123","West Carroll","{""22123"": 100}","West Carroll","22123","FALSE","FALSE","America/Chicago"
"71264","32.6029","-91.7734","Oak Ridge","LA","Louisiana","TRUE","","1300","4.5","22067","Morehouse","{""22067"": 80.64, ""22083"": 19.36}","Morehouse|Richland","22067|22083","FALSE","FALSE","America/Chicago"
"71266","32.70359","-91.48362","Pioneer","LA","Louisiana","TRUE","","1686","5.3","22123","West Carroll","{""22123"": 100}","West Carroll","22123","FALSE","FALSE","America/Chicago"
"71268","32.34696","-92.74418","Quitman","LA","Louisiana","TRUE","","2682","8.5","22049","Jackson","{""22049"": 57.53, ""22013"": 42.47}","Jackson|Bienville","22049|22013","FALSE","FALSE","America/Chicago"
"71269","32.44592","-91.78718","Rayville","LA","Louisiana","TRUE","","12724","15.1","22083","Richland","{""22083"": 100}","Richland","22083","FALSE","FALSE","America/Chicago"
"71270","32.49378","-92.64139","Ruston","LA","Louisiana","TRUE","","32707","61.0","22061","Lincoln","{""22061"": 61.36, ""22049"": 38.64}","Lincoln|Jackson","22061|22049","FALSE","FALSE","America/Chicago"
"71272","32.52928","-92.6517","Ruston","LA","Louisiana","TRUE","","1521","1579.6","22061","Lincoln","{""22061"": 100}","Lincoln","22061","FALSE","FALSE","America/Chicago"
"71275","32.51276","-92.81991","Simsboro","LA","Louisiana","TRUE","","2841","11.3","22061","Lincoln","{""22061"": 76.95, ""22013"": 23.05}","Lincoln|Bienville","22061|22013","FALSE","FALSE","America/Chicago"
"71276","32.57727","-91.16277","Sondheimer","LA","Louisiana","TRUE","","69","0.4","22035","East Carroll","{""22035"": 100}","East Carroll","22035","FALSE","FALSE","America/Chicago"
"71277","32.94902","-92.55554","Spearsville","LA","Louisiana","TRUE","","1836","6.6","22111","Union","{""22111"": 100}","Union","22111","FALSE","FALSE","America/Chicago"
"71279","32.48667","-91.85671","Start","LA","Louisiana","TRUE","","56","286.6","22083","Richland","{""22083"": 100}","Richland","22083","FALSE","FALSE","America/Chicago"
"71280","32.72344","-92.10389","Sterlington","LA","Louisiana","TRUE","","5053","32.8","22111","Union","{""22111"": 71.15, ""22073"": 22.63, ""22067"": 6.22}","Union|Ouachita|Morehouse","22111|22073|22067","FALSE","FALSE","America/Chicago"
"71282","32.35662","-91.20042","Tallulah","LA","Louisiana","TRUE","","9728","7.5","22065","Madison","{""22065"": 99.18, ""22107"": 0.82}","Madison|Tensas","22065|22107","FALSE","FALSE","America/Chicago"
"71286","32.65244","-91.23397","Transylvania","LA","Louisiana","TRUE","","297","1.9","22035","East Carroll","{""22035"": 100}","East Carroll","22035","FALSE","FALSE","America/Chicago"
"71291","32.56977","-92.18277","West Monroe","LA","Louisiana","TRUE","","35592","210.0","22073","Ouachita","{""22073"": 100}","Ouachita","22073","FALSE","FALSE","America/Chicago"
"71292","32.40147","-92.21569","West Monroe","LA","Louisiana","TRUE","","21157","53.1","22073","Ouachita","{""22073"": 100}","Ouachita","22073","FALSE","FALSE","America/Chicago"
"71295","32.14565","-91.70795","Winnsboro","LA","Louisiana","TRUE","","14354","17.6","22041","Franklin","{""22041"": 100}","Franklin","22041","FALSE","FALSE","America/Chicago"
"71301","31.27446","-92.46864","Alexandria","LA","Louisiana","TRUE","","20226","625.5","22079","Rapides","{""22079"": 100}","Rapides","22079","FALSE","FALSE","America/Chicago"
"71302","31.2053","-92.36667","Alexandria","LA","Louisiana","TRUE","","13726","91.7","22079","Rapides","{""22079"": 100}","Rapides","22079","FALSE","FALSE","America/Chicago"
"71303","31.28081","-92.54308","Alexandria","LA","Louisiana","TRUE","","22581","137.5","22079","Rapides","{""22079"": 100}","Rapides","22079","FALSE","FALSE","America/Chicago"
"71316","31.27665","-91.76231","Acme","LA","Louisiana","TRUE","","74","0.5","22029","Concordia","{""22029"": 100}","Concordia","22029","FALSE","FALSE","America/Chicago"
"71320","31.09114","-91.76985","Bordelonville","LA","Louisiana","TRUE","","99","0.7","22009","Avoyelles","{""22009"": 100}","Avoyelles","22009","FALSE","FALSE","America/Chicago"
"71322","30.86731","-92.15188","Bunkie","LA","Louisiana","TRUE","","5140","10.1","22009","Avoyelles","{""22009"": 49.54, ""22097"": 44.15, ""22079"": 6.31}","Avoyelles|St. Landry|Rapides","22009|22097|22079","FALSE","FALSE","America/Chicago"
"71323","31.26656","-92.21037","Center Point","LA","Louisiana","TRUE","","985","18.4","22009","Avoyelles","{""22009"": 94.85, ""22079"": 5.15}","Avoyelles|Rapides","22009|22079","FALSE","FALSE","America/Chicago"
"71325","31.01153","-92.32434","Cheneyville","LA","Louisiana","TRUE","","1883","11.0","22079","Rapides","{""22079"": 71.1, ""22039"": 28.9}","Rapides|Evangeline","22079|22039","FALSE","FALSE","America/Chicago"
"71326","31.77363","-91.58702","Clayton","LA","Louisiana","TRUE","","732","4.2","22025","Catahoula","{""22025"": 73.7, ""22029"": 26.3}","Catahoula|Concordia","22025|22029","FALSE","FALSE","America/Chicago"
"71327","30.97895","-92.03863","Cottonport","LA","Louisiana","TRUE","","6100","48.6","22009","Avoyelles","{""22009"": 100}","Avoyelles","22009","FALSE","FALSE","America/Chicago"
"71328","31.35276","-92.19097","Deville","LA","Louisiana","TRUE","","7244","23.7","22079","Rapides","{""22079"": 82.6, ""22009"": 17.4}","Rapides|Avoyelles","22079|22009","FALSE","FALSE","America/Chicago"
"71330","31.11002","-92.24145","Echo","LA","Louisiana","TRUE","","39","51.9","22079","Rapides","{""22079"": 100}","Rapides","22079","FALSE","FALSE","America/Chicago"
"71331","31.2578","-92.07969","Effie","LA","Louisiana","TRUE","","1016","6.6","22009","Avoyelles","{""22009"": 100}","Avoyelles","22009","FALSE","FALSE","America/Chicago"
"71333","30.90315","-92.0754","Evergreen","LA","Louisiana","TRUE","","753","8.2","22009","Avoyelles","{""22009"": 100}","Avoyelles","22009","FALSE","FALSE","America/Chicago"
"71334","31.66978","-91.56864","Ferriday","LA","Louisiana","TRUE","","10223","28.2","22029","Concordia","{""22029"": 100}","Concordia","22029","FALSE","FALSE","America/Chicago"
"71336","32.02126","-91.5935","Gilbert","LA","Louisiana","TRUE","","1395","4.5","22041","Franklin","{""22041"": 100}","Franklin","22041","FALSE","FALSE","America/Chicago"
"71339","31.0058","-91.93637","Hamburg","LA","Louisiana","TRUE","","14","0.8","22009","Avoyelles","{""22009"": 100}","Avoyelles","22009","FALSE","FALSE","America/Chicago"
"71340","31.7553","-91.80696","Harrisonburg","LA","Louisiana","TRUE","","2208","6.4","22025","Catahoula","{""22025"": 100}","Catahoula","22025","FALSE","FALSE","America/Chicago"
"71341","31.05969","-92.16267","Hessmer","LA","Louisiana","TRUE","","3446","50.5","22009","Avoyelles","{""22009"": 100}","Avoyelles","22009","FALSE","FALSE","America/Chicago"
"71342","31.60042","-92.1403","Jena","LA","Louisiana","TRUE","","7018","17.0","22059","LaSalle","{""22059"": 100}","LaSalle","22059","FALSE","FALSE","America/Chicago"
"71343","31.51117","-91.90723","Jonesville","LA","Louisiana","TRUE","","6321","4.5","22025","Catahoula","{""22025"": 63.23, ""22059"": 19.39, ""22029"": 17.38}","Catahoula|LaSalle|Concordia","22025|22059|22029","FALSE","FALSE","America/Chicago"
"71345","30.72867","-91.97531","Lebeau","LA","Louisiana","TRUE","","223","592.0","22097","St. Landry","{""22097"": 100}","St. Landry","22097","FALSE","FALSE","America/Chicago"
"71346","31.11686","-92.38446","Lecompte","LA","Louisiana","TRUE","","1980","8.3","22079","Rapides","{""22079"": 100}","Rapides","22079","FALSE","FALSE","America/Chicago"
"71350","31.06871","-92.06053","Mansura","LA","Louisiana","TRUE","","3896","43.0","22009","Avoyelles","{""22009"": 100}","Avoyelles","22009","FALSE","FALSE","America/Chicago"
"71351","31.17227","-91.9604","Marksville","LA","Louisiana","TRUE","","11739","20.2","22009","Avoyelles","{""22009"": 99.25, ""22079"": 0.75}","Avoyelles|Rapides","22009|22079","FALSE","FALSE","America/Chicago"
"71353","30.67949","-91.79664","Melville","LA","Louisiana","TRUE","","1490","7.1","22097","St. Landry","{""22097"": 100}","St. Landry","22097","FALSE","FALSE","America/Chicago"
"71354","31.38364","-91.73548","Monterey","LA","Louisiana","TRUE","","1535","4.3","22029","Concordia","{""22029"": 100}","Concordia","22029","FALSE","FALSE","America/Chicago"
"71355","31.05257","-91.88531","Moreauville","LA","Louisiana","TRUE","","2437","14.1","22009","Avoyelles","{""22009"": 100}","Avoyelles","22009","FALSE","FALSE","America/Chicago"
"71356","30.83423","-92.02988","Morrow","LA","Louisiana","TRUE","","656","12.9","22097","St. Landry","{""22097"": 87.46, ""22009"": 12.54}","St. Landry|Avoyelles","22097|22009","FALSE","FALSE","America/Chicago"
"71357","32.1084","-91.29717","Newellton","LA","Louisiana","TRUE","","1735","2.3","22107","Tensas","{""22107"": 100}","Tensas","22107","FALSE","FALSE","America/Chicago"
"71358","30.72631","-91.87553","Palmetto","LA","Louisiana","TRUE","","1075","3.8","22097","St. Landry","{""22097"": 100}","St. Landry","22097","FALSE","FALSE","America/Chicago"
"71359","31.32468","-92.4264","Pineville","LA","Louisiana","TRUE","","356","1038.4","22079","Rapides","{""22079"": 100}","Rapides","22079","FALSE","FALSE","America/Chicago"
"71360","31.31597","-92.34593","Pineville","LA","Louisiana","TRUE","","36582","73.2","22079","Rapides","{""22079"": 88.19, ""22009"": 10.7, ""22043"": 1.11}","Rapides|Avoyelles|Grant","22079|22009|22043","FALSE","FALSE","America/Chicago"
"71362","30.88839","-91.95225","Plaucheville","LA","Louisiana","TRUE","","1996","11.0","22009","Avoyelles","{""22009"": 77.84, ""22097"": 22.16}","Avoyelles|St. Landry","22009|22097","FALSE","FALSE","America/Chicago"
"71366","31.95051","-91.35591","Saint Joseph","LA","Louisiana","TRUE","","1429","3.8","22107","Tensas","{""22107"": 100}","Tensas","22107","FALSE","FALSE","America/Chicago"
"71367","30.88784","-92.29426","Saint Landry","LA","Louisiana","TRUE","","1523","9.5","22039","Evangeline","{""22039"": 93.54, ""22079"": 6.46}","Evangeline|Rapides","22039|22079","FALSE","FALSE","America/Chicago"
"71368","31.86392","-91.68494","Sicily Island","LA","Louisiana","TRUE","","1251","5.7","22025","Catahoula","{""22025"": 100}","Catahoula","22025","FALSE","FALSE","America/Chicago"
"71369","30.92949","-91.85605","Simmesport","LA","Louisiana","TRUE","","2127","13.5","22009","Avoyelles","{""22009"": 99.9, ""22097"": 0.1}","Avoyelles|St. Landry","22009|22097","FALSE","FALSE","America/Chicago"
"71371","31.67542","-92.2587","Trout","LA","Louisiana","TRUE","","2527","7.0","22059","LaSalle","{""22059"": 100}","LaSalle","22059","FALSE","FALSE","America/Chicago"
"71373","31.35934","-91.58607","Vidalia","LA","Louisiana","TRUE","","5702","10.2","22029","Concordia","{""22029"": 100}","Concordia","22029","FALSE","FALSE","America/Chicago"
"71375","31.84632","-91.47226","Waterproof","LA","Louisiana","TRUE","","1105","3.3","22107","Tensas","{""22107"": 100}","Tensas","22107","FALSE","FALSE","America/Chicago"
"71378","31.95481","-91.71211","Wisner","LA","Louisiana","TRUE","","2254","17.8","22041","Franklin","{""22041"": 100}","Franklin","22041","FALSE","FALSE","America/Chicago"
"71401","31.79477","-91.94461","Aimwell","LA","Louisiana","TRUE","","27","0.6","22025","Catahoula","{""22025"": 100}","Catahoula","22025","FALSE","FALSE","America/Chicago"
"71403","31.21047","-93.44061","Anacoco","LA","Louisiana","TRUE","","4052","11.9","22115","Vernon","{""22115"": 93.11, ""22085"": 6.89}","Vernon|Sabine","22115|22085","FALSE","FALSE","America/Chicago"
"71404","31.75404","-92.75257","Atlanta","LA","Louisiana","TRUE","","579","2.1","22127","Winn","{""22127"": 75.05, ""22043"": 24.95}","Winn|Grant","22127|22043","FALSE","FALSE","America/Chicago"
"71405","31.40971","-92.39771","Ball","LA","Louisiana","TRUE","","5954","141.0","22079","Rapides","{""22079"": 100}","Rapides","22079","FALSE","FALSE","America/Chicago"
"71406","31.73425","-93.50536","Belmont","LA","Louisiana","TRUE","","156","7.4","22085","Sabine","{""22085"": 100}","Sabine","22085","FALSE","FALSE","America/Chicago"
"71407","31.51837","-92.48402","Bentley","LA","Louisiana","TRUE","","1003","21.9","22043","Grant","{""22043"": 100}","Grant","22043","FALSE","FALSE","America/Chicago"
"71409","31.31287","-92.69954","Boyce","LA","Louisiana","TRUE","","5222","14.8","22079","Rapides","{""22079"": 100}","Rapides","22079","FALSE","FALSE","America/Chicago"
"71410","31.96419","-92.77125","Calvin","LA","Louisiana","TRUE","","100","48.6","22127","Winn","{""22127"": 100}","Winn","22127","FALSE","FALSE","America/Chicago"
"71411","31.90466","-93.08894","Campti","LA","Louisiana","TRUE","","3166","18.4","22069","Natchitoches","{""22069"": 100}","Natchitoches","22069","FALSE","FALSE","America/Chicago"
"71414","31.82593","-93.02515","Clarence","LA","Louisiana","TRUE","","231","129.3","22069","Natchitoches","{""22069"": 100}","Natchitoches","22069","FALSE","FALSE","America/Chicago"
"71415","32.0253","-92.14241","Clarks","LA","Louisiana","TRUE","","313","283.5","22021","Caldwell","{""22021"": 100}","Caldwell","22021","FALSE","FALSE","America/Chicago"
"71416","31.53875","-92.89558","Cloutierville","LA","Louisiana","TRUE","","853","4.4","22069","Natchitoches","{""22069"": 100}","Natchitoches","22069","FALSE","FALSE","America/Chicago"
"71417","31.51611","-92.65361","Colfax","LA","Louisiana","TRUE","","5283","14.5","22043","Grant","{""22043"": 100}","Grant","22043","FALSE","FALSE","America/Chicago"
"71418","32.13405","-92.04589","Columbia","LA","Louisiana","TRUE","","5300","5.8","22021","Caldwell","{""22021"": 83.74, ""22083"": 7.06, ""22025"": 6.09, ""22073"": 2.92, ""22041"": 0.19}","Caldwell|Richland|Catahoula|Ouachita|Franklin","22021|22083|22025|22073|22041","FALSE","FALSE","America/Chicago"
"71419","31.80188","-93.72614","Converse","LA","Louisiana","TRUE","","1863","5.1","22085","Sabine","{""22085"": 79.05, ""22031"": 20.95}","Sabine|De Soto","22085|22031","FALSE","FALSE","America/Chicago"
"71422","32.07653","-92.65767","Dodson","LA","Louisiana","TRUE","","1675","4.1","22127","Winn","{""22127"": 100}","Winn","22127","FALSE","FALSE","America/Chicago"
"71423","31.60012","-92.56341","Dry Prong","LA","Louisiana","TRUE","","4250","12.6","22043","Grant","{""22043"": 96.51, ""22079"": 3.49}","Grant|Rapides","22043|22079","FALSE","FALSE","America/Chicago"
"71424","31.17976","-92.69207","Elmer","LA","Louisiana","TRUE","","1354","14.2","22079","Rapides","{""22079"": 100}","Rapides","22079","FALSE","FALSE","America/Chicago"
"71425","31.89017","-91.89786","Enterprise","LA","Louisiana","TRUE","","20","0.3","22025","Catahoula","{""22025"": 100}","Catahoula","22025","FALSE","FALSE","America/Chicago"
"71426","31.49182","-93.46165","Fisher","LA","Louisiana","TRUE","","164","169.9","22085","Sabine","{""22085"": 100}","Sabine","22085","FALSE","FALSE","America/Chicago"
"71427","31.38879","-92.89388","Flatwoods","LA","Louisiana","TRUE","","256","5.5","22079","Rapides","{""22079"": 60.47, ""22069"": 39.53}","Rapides|Natchitoches","22079|22069","FALSE","FALSE","America/Chicago"
"71428","31.60921","-93.08855","Flora","LA","Louisiana","TRUE","","0","0.0","22069","Natchitoches","{""22069"": 100}","Natchitoches","22069","FALSE","FALSE","America/Chicago"
"71429","31.39843","-93.43218","Florien","LA","Louisiana","TRUE","","3042","4.7","22085","Sabine","{""22085"": 98.0, ""22115"": 2.0}","Sabine|Vernon","22085|22115","FALSE","FALSE","America/Chicago"
"71430","31.06764","-92.53135","Forest Hill","LA","Louisiana","TRUE","","3121","9.9","22079","Rapides","{""22079"": 100}","Rapides","22079","FALSE","FALSE","America/Chicago"
"71432","31.75368","-92.47435","Georgetown","LA","Louisiana","TRUE","","1039","4.1","22043","Grant","{""22043"": 95.08, ""22127"": 4.92}","Grant|Winn","22043|22127","FALSE","FALSE","America/Chicago"
"71433","31.00208","-92.64803","Glenmora","LA","Louisiana","TRUE","","3585","8.7","22079","Rapides","{""22079"": 100}","Rapides","22079","FALSE","FALSE","America/Chicago"
"71434","31.44618","-92.944","Gorum","LA","Louisiana","TRUE","","37","5.7","22069","Natchitoches","{""22069"": 100}","Natchitoches","22069","FALSE","FALSE","America/Chicago"
"71435","32.02456","-92.1539","Grayson","LA","Louisiana","TRUE","","3776","6.9","22021","Caldwell","{""22021"": 83.76, ""22025"": 13.43, ""22059"": 2.33, ""22127"": 0.48}","Caldwell|Catahoula|LaSalle|Winn","22021|22025|22059|22127","FALSE","FALSE","America/Chicago"
"71438","31.10092","-92.87511","Hineston","LA","Louisiana","TRUE","","1225","3.4","22115","Vernon","{""22115"": 70.28, ""22079"": 29.72}","Vernon|Rapides","22115|22079","FALSE","FALSE","America/Chicago"
"71439","31.33707","-93.36597","Hornbeck","LA","Louisiana","TRUE","","2110","12.9","22115","Vernon","{""22115"": 66.95, ""22085"": 33.05}","Vernon|Sabine","22115|22085","FALSE","FALSE","America/Chicago"
"71441","31.94706","-92.13805","Kelly","LA","Louisiana","TRUE","","795","6.0","22021","Caldwell","{""22021"": 69.07, ""22059"": 30.93}","Caldwell|LaSalle","22021|22059","FALSE","FALSE","America/Chicago"
"71446","31.15585","-93.17187","Leesville","LA","Louisiana","TRUE","","21469","12.6","22115","Vernon","{""22115"": 100}","Vernon","22115","FALSE","FALSE","America/Chicago"
"71447","31.43202","-92.8073","Lena","LA","Louisiana","TRUE","","1293","3.6","22079","Rapides","{""22079"": 58.15, ""22069"": 41.39, ""22115"": 0.46}","Rapides|Natchitoches|Vernon","22079|22069|22115","FALSE","FALSE","America/Chicago"
"71449","31.5153","-93.54383","Many","LA","Louisiana","TRUE","","8444","13.8","22085","Sabine","{""22085"": 100}","Sabine","22085","FALSE","FALSE","America/Chicago"
"71450","31.78137","-93.40367","Marthaville","LA","Louisiana","TRUE","","849","5.2","22069","Natchitoches","{""22069"": 78.87, ""22085"": 21.13}","Natchitoches|Sabine","22069|22085","FALSE","FALSE","America/Chicago"
"71452","31.58021","-92.9414","Melrose","LA","Louisiana","TRUE","","169","6.0","22069","Natchitoches","{""22069"": 100}","Natchitoches","22069","FALSE","FALSE","America/Chicago"
"71454","31.69334","-92.86131","Montgomery","LA","Louisiana","TRUE","","2200","8.0","22043","Grant","{""22043"": 61.87, ""22127"": 38.13}","Grant|Winn","22043|22127","FALSE","FALSE","America/Chicago"
"71455","31.40125","-92.98074","Mora","LA","Louisiana","TRUE","","319","2.3","22069","Natchitoches","{""22069"": 85.03, ""22079"": 14.97}","Natchitoches|Rapides","22069|22079","FALSE","FALSE","America/Chicago"
"71456","31.63534","-92.97429","Natchez","LA","Louisiana","TRUE","","878","9.4","22069","Natchitoches","{""22069"": 100}","Natchitoches","22069","FALSE","FALSE","America/Chicago"
"71457","31.74045","-93.09375","Natchitoches","LA","Louisiana","TRUE","","26128","37.4","22069","Natchitoches","{""22069"": 95.97, ""22127"": 4.03}","Natchitoches|Winn","22069|22127","FALSE","FALSE","America/Chicago"
"71459","31.07854","-93.21723","Fort Polk","LA","Louisiana","TRUE","","11363","392.7","22115","Vernon","{""22115"": 100}","Vernon","22115","FALSE","FALSE","America/Chicago"
"71461","31.12099","-93.29775","New Llano","LA","Louisiana","TRUE","","2377","381.8","22115","Vernon","{""22115"": 100}","Vernon","22115","FALSE","FALSE","America/Chicago"
"71462","31.66625","-93.7324","Noble","LA","Louisiana","TRUE","","1848","15.5","22085","Sabine","{""22085"": 100}","Sabine","22085","FALSE","FALSE","America/Chicago"
"71463","30.80854","-92.64853","Oakdale","LA","Louisiana","TRUE","","9285","14.2","22003","Allen","{""22003"": 59.92, ""22039"": 29.58, ""22079"": 10.5}","Allen|Evangeline|Rapides","22003|22039|22079","FALSE","FALSE","America/Chicago"
"71465","31.86499","-92.19408","Olla","LA","Louisiana","TRUE","","3483","5.4","22059","LaSalle","{""22059"": 73.2, ""22127"": 17.25, ""22021"": 7.26, ""22025"": 2.29}","LaSalle|Winn|Caldwell|Catahoula","22059|22127|22021|22025","FALSE","FALSE","America/Chicago"
"71466","31.21593","-92.74886","Otis","LA","Louisiana","TRUE","","703","33.2","22079","Rapides","{""22079"": 100}","Rapides","22079","FALSE","FALSE","America/Chicago"
"71467","31.55789","-92.39338","Pollock","LA","Louisiana","TRUE","","8581","19.1","22043","Grant","{""22043"": 99.2, ""22079"": 0.8}","Grant|Rapides","22043|22079","FALSE","FALSE","America/Chicago"
"71468","31.48086","-93.14518","Provencal","LA","Louisiana","TRUE","","613","1.3","22069","Natchitoches","{""22069"": 100}","Natchitoches","22069","FALSE","FALSE","America/Chicago"
"71469","31.67755","-93.2671","Robeline","LA","Louisiana","TRUE","","2346","4.1","22069","Natchitoches","{""22069"": 84.32, ""22085"": 15.68}","Natchitoches|Sabine","22069|22085","FALSE","FALSE","America/Chicago"
"71472","31.19834","-92.79216","Sieper","LA","Louisiana","TRUE","","352","6.6","22079","Rapides","{""22079"": 100}","Rapides","22079","FALSE","FALSE","America/Chicago"
"71473","32.06989","-92.42748","Sikes","LA","Louisiana","TRUE","","407","1.3","22127","Winn","{""22127"": 99.87, ""22049"": 0.13}","Winn|Jackson","22127|22049","FALSE","FALSE","America/Chicago"
"71474","31.27724","-93.01394","Simpson","LA","Louisiana","TRUE","","431","7.8","22115","Vernon","{""22115"": 100}","Vernon","22115","FALSE","FALSE","America/Chicago"
"71475","31.20123","-93.12461","Slagle","LA","Louisiana","TRUE","","9","47.8","22115","Vernon","{""22115"": 100}","Vernon","22115","FALSE","FALSE","America/Chicago"
"71479","31.85129","-92.36106","Tullos","LA","Louisiana","TRUE","","727","3.5","22127","Winn","{""22127"": 68.83, ""22059"": 31.17}","Winn|LaSalle","22127|22059","FALSE","FALSE","America/Chicago"
"71480","31.86661","-92.28415","Urania","LA","Louisiana","TRUE","","1338","131.3","22059","LaSalle","{""22059"": 100}","LaSalle","22059","FALSE","FALSE","America/Chicago"
"71483","31.89482","-92.66373","Winnfield","LA","Louisiana","TRUE","","9860","10.5","22127","Winn","{""22127"": 100}","Winn","22127","FALSE","FALSE","America/Chicago"
"71485","31.17811","-92.53186","Woodworth","LA","Louisiana","TRUE","","2958","24.8","22079","Rapides","{""22079"": 100}","Rapides","22079","FALSE","FALSE","America/Chicago"
"71486","31.62679","-93.65876","Zwolle","LA","Louisiana","TRUE","","5352","20.6","22085","Sabine","{""22085"": 100}","Sabine","22085","FALSE","FALSE","America/Chicago"
"71497","31.74902","-93.09795","Natchitoches","LA","Louisiana","TRUE","","1213","936.2","22069","Natchitoches","{""22069"": 100}","Natchitoches","22069","FALSE","FALSE","America/Chicago"
"71601","34.17409","-91.89811","Pine Bluff","AR","Arkansas","TRUE","","14037","47.0","05069","Jefferson","{""05069"": 99.53, ""05079"": 0.47}","Jefferson|Lincoln","05069|05079","FALSE","FALSE","America/Chicago"
"71602","34.27463","-92.13302","White Hall","AR","Arkansas","TRUE","","16094","47.4","05069","Jefferson","{""05069"": 83.32, ""05053"": 16.68}","Jefferson|Grant","05069|05053","FALSE","FALSE","America/Chicago"
"71603","34.12881","-92.08492","Pine Bluff","AR","Arkansas","TRUE","","30376","69.9","05069","Jefferson","{""05069"": 84.6, ""05079"": 7.69, ""05025"": 5.23, ""05053"": 2.48}","Jefferson|Lincoln|Cleveland|Grant","05069|05079|05025|05053","FALSE","FALSE","America/Chicago"
"71630","33.61827","-91.23004","Arkansas City","AR","Arkansas","TRUE","","451","7.4","05041","Desha","{""05041"": 100}","Desha","05041","FALSE","FALSE","America/Chicago"
"71631","33.58205","-92.26415","Banks","AR","Arkansas","TRUE","","628","2.0","05011","Bradley","{""05011"": 100}","Bradley","05011","FALSE","FALSE","America/Chicago"
"71635","33.1369","-92.00133","Crossett","AR","Arkansas","TRUE","","10879","19.0","05003","Ashley","{""05003"": 99.84, ""05011"": 0.16}","Ashley|Bradley","05003|05011","FALSE","FALSE","America/Chicago"
"71638","33.52008","-91.47927","Dermott","AR","Arkansas","TRUE","","3251","5.1","05043","Drew","{""05043"": 66.05, ""05017"": 25.43, ""05041"": 8.52}","Drew|Chicot|Desha","05043|05017|05041","FALSE","FALSE","America/Chicago"
"71639","33.89143","-91.54414","Dumas","AR","Arkansas","TRUE","","5640","11.8","05079","Lincoln","{""05079"": 52.26, ""05041"": 47.74}","Lincoln|Desha","05079|05041","FALSE","FALSE","America/Chicago"
"71640","33.1253","-91.24753","Eudora","AR","Arkansas","TRUE","","2800","4.7","05017","Chicot","{""05017"": 100}","Chicot","05017","FALSE","FALSE","America/Chicago"
"71642","33.38842","-91.8788","Fountain Hill","AR","Arkansas","TRUE","","787","4.4","05003","Ashley","{""05003"": 57.96, ""05043"": 42.04}","Ashley|Drew","05003|05043","FALSE","FALSE","America/Chicago"
"71643","34.01953","-91.57945","Gould","AR","Arkansas","TRUE","","5654","15.8","05079","Lincoln","{""05079"": 92.81, ""05041"": 7.19}","Lincoln|Desha","05079|05041","FALSE","FALSE","America/Chicago"
"71644","34.11045","-91.71213","Grady","AR","Arkansas","TRUE","","387","2.6","05079","Lincoln","{""05079"": 69.0, ""05069"": 31.0}","Lincoln|Jefferson","05079|05069","FALSE","FALSE","America/Chicago"
"71646","33.20444","-91.77837","Hamburg","AR","Arkansas","TRUE","","6575","6.7","05003","Ashley","{""05003"": 96.31, ""05043"": 3.69}","Ashley|Drew","05003|05043","FALSE","FALSE","America/Chicago"
"71647","33.36678","-92.12219","Hermitage","AR","Arkansas","TRUE","","1817","2.7","05011","Bradley","{""05011"": 100}","Bradley","05011","FALSE","FALSE","America/Chicago"
"71651","33.31472","-92.28377","Jersey","AR","Arkansas","TRUE","","35","0.2","05011","Bradley","{""05011"": 100}","Bradley","05011","FALSE","FALSE","America/Chicago"
"71652","33.89338","-92.31562","Kingsland","AR","Arkansas","TRUE","","1104","3.8","05025","Cleveland","{""05025"": 100}","Cleveland","05025","FALSE","FALSE","America/Chicago"
"71653","33.36919","-91.27676","Lake Village","AR","Arkansas","TRUE","","4489","6.7","05017","Chicot","{""05017"": 100}","Chicot","05017","FALSE","FALSE","America/Chicago"
"71654","33.62476","-91.37234","McGehee","AR","Arkansas","TRUE","","4647","25.8","05041","Desha","{""05041"": 100}","Desha","05041","FALSE","FALSE","America/Chicago"
"71655","33.62874","-91.7486","Monticello","AR","Arkansas","TRUE","","14286","15.1","05043","Drew","{""05043"": 99.32, ""05079"": 0.68}","Drew|Lincoln","05043|05079","FALSE","FALSE","America/Chicago"
"71658","33.32018","-91.57635","Montrose","AR","Arkansas","TRUE","","561","1.8","05003","Ashley","{""05003"": 97.36, ""05043"": 2.64}","Ashley|Drew","05003|05043","FALSE","FALSE","America/Chicago"
"71659","34.13505","-91.78071","Moscow","AR","Arkansas","TRUE","","11","21.1","05069","Jefferson","{""05069"": 100}","Jefferson","05069","FALSE","FALSE","America/Chicago"
"71660","33.7627","-92.19728","New Edinburg","AR","Arkansas","TRUE","","869","2.9","05025","Cleveland","{""05025"": 99.62, ""05011"": 0.38}","Cleveland|Bradley","05025|05011","FALSE","FALSE","America/Chicago"
"71661","33.14338","-91.51333","Parkdale","AR","Arkansas","TRUE","","287","1.3","05003","Ashley","{""05003"": 75.8, ""05017"": 24.2}","Ashley|Chicot","05003|05017","FALSE","FALSE","America/Chicago"
"71662","33.82355","-91.50391","Pickens","AR","Arkansas","TRUE","","87","1.5","05041","Desha","{""05041"": 100}","Desha","05041","FALSE","FALSE","America/Chicago"
"71663","33.22755","-91.42665","Portland","AR","Arkansas","TRUE","","607","2.9","05017","Chicot","{""05017"": 63.95, ""05003"": 36.05}","Chicot|Ashley","05017|05003","FALSE","FALSE","America/Chicago"
"71665","33.93812","-92.13163","Rison","AR","Arkansas","TRUE","","5186","6.2","05025","Cleveland","{""05025"": 97.25, ""05069"": 2.75}","Cleveland|Jefferson","05025|05069","FALSE","FALSE","America/Chicago"
"71666","33.7372","-91.24736","Rohwer","AR","Arkansas","TRUE","","8","0.2","05041","Desha","{""05041"": 100}","Desha","05041","FALSE","FALSE","America/Chicago"
"71667","33.93588","-91.84412","Star City","AR","Arkansas","TRUE","","6600","9.2","05079","Lincoln","{""05079"": 94.73, ""05025"": 5.27}","Lincoln|Cleveland","05079|05025","FALSE","FALSE","America/Chicago"
"71670","33.74439","-91.40974","Tillar","AR","Arkansas","TRUE","","987","1.9","05041","Desha","{""05041"": 70.25, ""05043"": 29.75}","Desha|Drew","05041|05043","FALSE","FALSE","America/Chicago"
"71671","33.60652","-92.10006","Warren","AR","Arkansas","TRUE","","8552","18.3","05011","Bradley","{""05011"": 92.99, ""05025"": 3.98, ""05043"": 3.03}","Bradley|Cleveland|Drew","05011|05025|05043","FALSE","FALSE","America/Chicago"
"71674","33.82694","-91.18261","Watson","AR","Arkansas","TRUE","","564","1.0","05041","Desha","{""05041"": 100}","Desha","05041","FALSE","FALSE","America/Chicago"
"71675","33.60424","-91.93805","Wilmar","AR","Arkansas","TRUE","","1808","4.1","05043","Drew","{""05043"": 83.71, ""05011"": 10.34, ""05079"": 5.95}","Drew|Bradley|Lincoln","05043|05011|05079","FALSE","FALSE","America/Chicago"
"71676","33.05156","-91.56023","Wilmot","AR","Arkansas","TRUE","","527","2.2","05003","Ashley","{""05003"": 86.8, ""05017"": 13.2}","Ashley|Chicot","05003|05017","FALSE","FALSE","America/Chicago"
"71677","33.76572","-91.4884","Winchester","AR","Arkansas","TRUE","","100","6.5","05043","Drew","{""05043"": 100}","Drew","05043","FALSE","FALSE","America/Chicago"
"71678","34.0254","-91.81548","Yorktown","AR","Arkansas","TRUE","","0","0.0","05079","Lincoln","{""05079"": 100}","Lincoln","05079","FALSE","FALSE","America/Chicago"
"71701","33.57837","-92.81309","Camden","AR","Arkansas","TRUE","","17730","23.8","05103","Ouachita","{""05103"": 81.16, ""05013"": 18.84}","Ouachita|Calhoun","05103|05013","FALSE","FALSE","America/Chicago"
"71720","33.79075","-92.64163","Bearden","AR","Arkansas","TRUE","","2011","5.4","05103","Ouachita","{""05103"": 54.19, ""05039"": 39.88, ""05013"": 5.93}","Ouachita|Dallas|Calhoun","05103|05039|05013","FALSE","FALSE","America/Chicago"
"71721","33.89091","-93.20635","Beirne","AR","Arkansas","TRUE","","0","0.0","05019","Clark","{""05019"": 100}","Clark","05019","FALSE","FALSE","America/Chicago"
"71722","33.71045","-93.15537","Bluff City","AR","Arkansas","TRUE","","37","0.8","05099","Nevada","{""05099"": 100}","Nevada","05099","FALSE","FALSE","America/Chicago"
"71724","33.326","-92.54053","Calion","AR","Arkansas","TRUE","","363","77.5","05139","Union","{""05139"": 100}","Union","05139","FALSE","FALSE","America/Chicago"
"71725","34.03791","-92.53252","Carthage","AR","Arkansas","TRUE","","274","0.6","05039","Dallas","{""05039"": 84.24, ""05025"": 15.76}","Dallas|Cleveland","05039|05025","FALSE","FALSE","America/Chicago"
"71726","33.68016","-92.99584","Chidester","AR","Arkansas","TRUE","","1029","2.0","05103","Ouachita","{""05103"": 99.0, ""05099"": 1.0}","Ouachita|Nevada","05103|05099","FALSE","FALSE","America/Chicago"
"71728","34.0089","-93.1053","Curtis","AR","Arkansas","TRUE","","59","21.8","05019","Clark","{""05019"": 100}","Clark","05019","FALSE","FALSE","America/Chicago"
"71730","33.20303","-92.63458","El Dorado","AR","Arkansas","TRUE","","29344","24.8","05139","Union","{""05139"": 100}","Union","05139","FALSE","FALSE","America/Chicago"
"71740","33.08121","-93.16268","Emerson","AR","Arkansas","TRUE","","1511","3.2","05027","Columbia","{""05027"": 100}","Columbia","05027","FALSE","FALSE","America/Chicago"
"71742","33.83435","-92.44545","Fordyce","AR","Arkansas","TRUE","","4780","10.9","05039","Dallas","{""05039"": 68.66, ""05013"": 31.34}","Dallas|Calhoun","05039|05013","FALSE","FALSE","America/Chicago"
"71743","33.88674","-93.11724","Gurdon","AR","Arkansas","TRUE","","3351","6.2","05019","Clark","{""05019"": 100}","Clark","05019","FALSE","FALSE","America/Chicago"
"71744","33.49201","-92.47536","Hampton","AR","Arkansas","TRUE","","3049","3.0","05013","Calhoun","{""05013"": 100}","Calhoun","05013","FALSE","FALSE","America/Chicago"
"71745","33.4997","-92.39496","Harrell","AR","Arkansas","TRUE","","191","55.1","05013","Calhoun","{""05013"": 100}","Calhoun","05013","FALSE","FALSE","America/Chicago"
"71747","33.05892","-92.22238","Huttig","AR","Arkansas","TRUE","","1206","5.4","05139","Union","{""05139"": 100}","Union","05139","FALSE","FALSE","America/Chicago"
"71748","33.90296","-92.43322","Ivan","AR","Arkansas","TRUE","","75","8.2","05039","Dallas","{""05039"": 100}","Dallas","05039","FALSE","FALSE","America/Chicago"
"71749","33.07049","-92.81964","Junction City","AR","Arkansas","TRUE","","3366","8.1","05139","Union","{""05139"": 98.24, ""22027"": 1.63, ""22111"": 0.13}","Union|Claiborne|Union","05139|22027|22111","FALSE","FALSE","America/Chicago"
"71751","33.40835","-92.77252","Louann","AR","Arkansas","TRUE","","897","4.3","05103","Ouachita","{""05103"": 100}","Ouachita","05103","FALSE","FALSE","America/Chicago"
"71752","33.40061","-93.19454","McNeil","AR","Arkansas","TRUE","","672","6.8","05027","Columbia","{""05027"": 98.6, ""05099"": 1.4}","Columbia|Nevada","05027|05099","FALSE","FALSE","America/Chicago"
"71753","33.22974","-93.18461","Magnolia","AR","Arkansas","TRUE","","16707","20.7","05027","Columbia","{""05027"": 95.91, ""05139"": 4.09}","Columbia|Union","05027|05139","FALSE","FALSE","America/Chicago"
"71758","33.30899","-92.91435","Mount Holly","AR","Arkansas","TRUE","","183","1.0","05139","Union","{""05139"": 100}","Union","05139","FALSE","FALSE","America/Chicago"
"71759","33.31506","-92.65967","Norphlet","AR","Arkansas","TRUE","","415","181.0","05139","Union","{""05139"": 100}","Union","05139","FALSE","FALSE","America/Chicago"
"71762","33.33668","-92.76767","Smackover","AR","Arkansas","TRUE","","2881","18.5","05139","Union","{""05139"": 90.71, ""05103"": 9.29}","Union|Ouachita","05139|05103","FALSE","FALSE","America/Chicago"
"71763","33.90885","-92.80648","Sparkman","AR","Arkansas","TRUE","","1704","2.7","05039","Dallas","{""05039"": 85.21, ""05103"": 11.03, ""05019"": 3.76}","Dallas|Ouachita|Clark","05039|05103|05019","FALSE","FALSE","America/Chicago"
"71764","33.43041","-93.04475","Stephens","AR","Arkansas","TRUE","","1663","3.5","05103","Ouachita","{""05103"": 63.16, ""05027"": 23.27, ""05099"": 13.05, ""05139"": 0.52}","Ouachita|Columbia|Nevada|Union","05103|05027|05099|05139","FALSE","FALSE","America/Chicago"
"71765","33.13358","-92.33628","Strong","AR","Arkansas","TRUE","","2182","4.2","05139","Union","{""05139"": 100}","Union","05139","FALSE","FALSE","America/Chicago"
"71766","33.7362","-92.50205","Thornton","AR","Arkansas","TRUE","","624","4.7","05013","Calhoun","{""05013"": 100}","Calhoun","05013","FALSE","FALSE","America/Chicago"
"71770","33.38847","-93.31607","Waldo","AR","Arkansas","TRUE","","3053","7.9","05027","Columbia","{""05027"": 73.53, ""05099"": 26.47}","Columbia|Nevada","05027|05099","FALSE","FALSE","America/Chicago"
"71772","33.83379","-93.12646","Whelen Springs","AR","Arkansas","TRUE","","17","34.7","05019","Clark","{""05019"": 100}","Clark","05019","FALSE","FALSE","America/Chicago"
"71801","33.63306","-93.59833","Hope","AR","Arkansas","TRUE","","15972","20.7","05057","Hempstead","{""05057"": 97.91, ""05073"": 2.09}","Hempstead|Lafayette","05057|05073","FALSE","FALSE","America/Chicago"
"71820","33.78886","-94.24421","Alleene","AR","Arkansas","TRUE","","129","4.3","05081","Little River","{""05081"": 100}","Little River","05081","FALSE","FALSE","America/Chicago"
"71822","33.66946","-94.14755","Ashdown","AR","Arkansas","TRUE","","7895","12.3","05081","Little River","{""05081"": 100}","Little River","05081","FALSE","FALSE","America/Chicago"
"71823","33.83101","-94.12547","Ben Lomond","AR","Arkansas","TRUE","","66","20.1","05133","Sevier","{""05133"": 100}","Sevier","05133","FALSE","FALSE","America/Chicago"
"71825","33.87554","-93.56489","Blevins","AR","Arkansas","TRUE","","415","6.0","05057","Hempstead","{""05057"": 100}","Hempstead","05057","FALSE","FALSE","America/Chicago"
"71826","33.08994","-93.72536","Bradley","AR","Arkansas","TRUE","","994","3.1","05073","Lafayette","{""05073"": 100}","Lafayette","05073","FALSE","FALSE","America/Chicago"
"71827","33.41186","-93.41463","Buckner","AR","Arkansas","TRUE","","925","5.6","05073","Lafayette","{""05073"": 63.35, ""05099"": 36.65}","Lafayette|Nevada","05073|05099","FALSE","FALSE","America/Chicago"
"71831","33.7762","-93.85971","Columbus","AR","Arkansas","TRUE","","76","1.9","05061","Howard","{""05061"": 81.35, ""05057"": 18.65}","Howard|Hempstead","05061|05057","FALSE","FALSE","America/Chicago"
"71832","34.0397","-94.34791","De Queen","AR","Arkansas","TRUE","","10617","22.5","05133","Sevier","{""05133"": 100}","Sevier","05133","FALSE","FALSE","America/Chicago"
"71833","34.13409","-94.02665","Dierks","AR","Arkansas","TRUE","","1781","4.7","05061","Howard","{""05061"": 89.46, ""05133"": 10.54}","Howard|Sevier","05061|05133","FALSE","FALSE","America/Chicago"
"71834","33.11552","-93.9577","Doddridge","AR","Arkansas","TRUE","","1516","4.1","05091","Miller","{""05091"": 100}","Miller","05091","FALSE","FALSE","America/Chicago"
"71835","33.66724","-93.4425","Emmet","AR","Arkansas","TRUE","","1024","4.5","05099","Nevada","{""05099"": 81.66, ""05057"": 18.34}","Nevada|Hempstead","05099|05057","FALSE","FALSE","America/Chicago"
"71836","33.71297","-94.39584","Foreman","AR","Arkansas","TRUE","","2965","6.5","05081","Little River","{""05081"": 100}","Little River","05081","FALSE","FALSE","America/Chicago"
"71837","33.25543","-93.85693","Fouke","AR","Arkansas","TRUE","","4752","11.4","05091","Miller","{""05091"": 100}","Miller","05091","FALSE","FALSE","America/Chicago"
"71838","33.64916","-93.79753","Fulton","AR","Arkansas","TRUE","","1007","3.2","05057","Hempstead","{""05057"": 94.05, ""05091"": 5.95}","Hempstead|Miller","05057|05091","FALSE","FALSE","America/Chicago"
"71839","33.30619","-93.73891","Garland City","AR","Arkansas","TRUE","","443","4.0","05091","Miller","{""05091"": 100}","Miller","05091","FALSE","FALSE","America/Chicago"
"71841","34.1639","-94.34718","Gillham","AR","Arkansas","TRUE","","793","4.7","05133","Sevier","{""05133"": 87.35, ""05113"": 12.65}","Sevier|Polk","05133|05113","FALSE","FALSE","America/Chicago"
"71842","33.90051","-94.29297","Horatio","AR","Arkansas","TRUE","","2106","11.9","05133","Sevier","{""05133"": 100}","Sevier","05133","FALSE","FALSE","America/Chicago"
"71845","33.32005","-93.63365","Lewisville","AR","Arkansas","TRUE","","1945","3.7","05073","Lafayette","{""05073"": 100}","Lafayette","05073","FALSE","FALSE","America/Chicago"
"71846","33.9265","-94.12367","Lockesburg","AR","Arkansas","TRUE","","2552","4.3","05133","Sevier","{""05133"": 95.91, ""05081"": 4.09}","Sevier|Little River","05133|05081","FALSE","FALSE","America/Chicago"
"71847","33.92616","-93.63361","McCaskill","AR","Arkansas","TRUE","","354","2.4","05057","Hempstead","{""05057"": 100}","Hempstead","05057","FALSE","FALSE","America/Chicago"
"71851","33.85728","-93.94658","Mineral Springs","AR","Arkansas","TRUE","","2044","9.8","05061","Howard","{""05061"": 100}","Howard","05061","FALSE","FALSE","America/Chicago"
"71852","33.99489","-93.85831","Nashville","AR","Arkansas","TRUE","","10137","15.5","05061","Howard","{""05061"": 62.82, ""05109"": 18.89, ""05057"": 18.29}","Howard|Pike|Hempstead","05061|05109|05057","FALSE","FALSE","America/Chicago"
"71853","33.59442","-93.95635","Ogden","AR","Arkansas","TRUE","","243","2.5","05081","Little River","{""05081"": 100}","Little River","05081","FALSE","FALSE","America/Chicago"
"71854","33.44445","-93.90504","Texarkana","AR","Arkansas","TRUE","","36164","51.8","05091","Miller","{""05091"": 100}","Miller","05091","FALSE","FALSE","America/Chicago"
"71855","33.86612","-93.74351","Ozan","AR","Arkansas","TRUE","","283","2.0","05057","Hempstead","{""05057"": 100}","Hempstead","05057","FALSE","FALSE","America/Chicago"
"71857","33.80422","-93.34795","Prescott","AR","Arkansas","TRUE","","5160","7.2","05099","Nevada","{""05099"": 86.83, ""05057"": 13.17}","Nevada|Hempstead","05099|05057","FALSE","FALSE","America/Chicago"
"71858","33.58543","-93.26706","Rosston","AR","Arkansas","TRUE","","1854","3.7","05099","Nevada","{""05099"": 100}","Nevada","05099","FALSE","FALSE","America/Chicago"
"71859","33.7143","-93.92379","Saratoga","AR","Arkansas","TRUE","","346","5.5","05057","Hempstead","{""05057"": 81.64, ""05061"": 18.36}","Hempstead|Howard","05057|05061","FALSE","FALSE","America/Chicago"
"71860","33.307","-93.49286","Stamps","AR","Arkansas","TRUE","","2027","7.4","05073","Lafayette","{""05073"": 74.66, ""05027"": 22.99, ""05099"": 2.35}","Lafayette|Columbia|Nevada","05073|05027|05099","FALSE","FALSE","America/Chicago"
"71861","33.1039","-93.4941","Taylor","AR","Arkansas","TRUE","","1884","5.0","05073","Lafayette","{""05073"": 55.47, ""05027"": 44.53}","Lafayette|Columbia","05073|05027","FALSE","FALSE","America/Chicago"
"71862","33.76814","-93.72321","Washington","AR","Arkansas","TRUE","","631","3.8","05057","Hempstead","{""05057"": 100}","Hempstead","05057","FALSE","FALSE","America/Chicago"
"71864","33.50997","-93.28868","Willisville","AR","Arkansas","TRUE","","58","16.7","05099","Nevada","{""05099"": 100}","Nevada","05099","FALSE","FALSE","America/Chicago"
"71865","33.74169","-94.14598","Wilton","AR","Arkansas","TRUE","","294","134.9","05081","Little River","{""05081"": 100}","Little River","05081","FALSE","FALSE","America/Chicago"
"71866","33.86738","-94.38042","Winthrop","AR","Arkansas","TRUE","","578","4.2","05081","Little River","{""05081"": 99.81, ""05133"": 0.19}","Little River|Sevier","05081|05133","FALSE","FALSE","America/Chicago"
"71901","34.52682","-92.97247","Hot Springs National Park","AR","Arkansas","TRUE","","29241","110.8","05051","Garland","{""05051"": 99.41, ""05059"": 0.59}","Garland|Hot Spring","05051|05059","FALSE","FALSE","America/Chicago"
"71909","34.64106","-92.99608","Hot Springs Village","AR","Arkansas","TRUE","","18141","88.3","05051","Garland","{""05051"": 72.29, ""05125"": 27.71}","Garland|Saline","05051|05125","FALSE","FALSE","America/Chicago"
"71913","34.44677","-93.09981","Hot Springs National Park","AR","Arkansas","TRUE","","46803","134.7","05051","Garland","{""05051"": 77.56, ""05059"": 22.44}","Garland|Hot Spring","05051|05059","FALSE","FALSE","America/Chicago"
"71921","34.25435","-93.40109","Amity","AR","Arkansas","TRUE","","3706","7.1","05019","Clark","{""05019"": 69.81, ""05109"": 21.6, ""05059"": 8.59}","Clark|Pike|Hot Spring","05019|05109|05059","FALSE","FALSE","America/Chicago"
"71922","34.02444","-93.41943","Antoine","AR","Arkansas","TRUE","","184","34.5","05109","Pike","{""05109"": 100}","Pike","05109","FALSE","FALSE","America/Chicago"
"71923","34.08424","-93.05551","Arkadelphia","AR","Arkansas","TRUE","","14624","14.8","05019","Clark","{""05019"": 89.04, ""05059"": 6.77, ""05039"": 4.19}","Clark|Hot Spring|Dallas","05019|05059|05039","FALSE","FALSE","America/Chicago"
"71929","34.30527","-93.1553","Bismarck","AR","Arkansas","TRUE","","4394","17.0","05059","Hot Spring","{""05059"": 97.65, ""05019"": 2.35}","Hot Spring|Clark","05059|05019","FALSE","FALSE","America/Chicago"
"71933","34.41037","-93.39124","Bonnerdale","AR","Arkansas","TRUE","","1128","5.6","05051","Garland","{""05051"": 37.35, ""05097"": 34.96, ""05059"": 27.69}","Garland|Montgomery|Hot Spring","05051|05097|05059","FALSE","FALSE","America/Chicago"
"71935","34.39338","-93.75009","Caddo Gap","AR","Arkansas","TRUE","","567","1.7","05097","Montgomery","{""05097"": 99.57, ""05109"": 0.43}","Montgomery|Pike","05097|05109","FALSE","FALSE","America/Chicago"
"71937","34.40177","-94.38751","Cove","AR","Arkansas","TRUE","","2274","10.8","05113","Polk","{""05113"": 93.78, ""40089"": 6.22}","Polk|McCurtain","05113|40089","FALSE","FALSE","America/Chicago"
"71940","34.01527","-93.50705","Delight","AR","Arkansas","TRUE","","1536","6.1","05109","Pike","{""05109"": 100}","Pike","05109","FALSE","FALSE","America/Chicago"
"71941","34.2487","-92.95312","Donaldson","AR","Arkansas","TRUE","","2127","11.7","05059","Hot Spring","{""05059"": 100}","Hot Spring","05059","FALSE","FALSE","America/Chicago"
"71942","34.22124","-92.99429","Friendship","AR","Arkansas","TRUE","","151","50.5","05059","Hot Spring","{""05059"": 100}","Hot Spring","05059","FALSE","FALSE","America/Chicago"
"71943","34.33488","-93.60633","Glenwood","AR","Arkansas","TRUE","","3891","12.8","05109","Pike","{""05109"": 64.82, ""05097"": 32.72, ""05059"": 2.46}","Pike|Montgomery|Hot Spring","05109|05097|05059","FALSE","FALSE","America/Chicago"
"71944","34.23922","-94.32517","Grannis","AR","Arkansas","TRUE","","803","7.9","05113","Polk","{""05113"": 100}","Polk","05113","FALSE","FALSE","America/Chicago"
"71945","34.49826","-94.38492","Hatfield","AR","Arkansas","TRUE","","1294","10.2","05113","Polk","{""05113"": 100}","Polk","05113","FALSE","FALSE","America/Chicago"
"71949","34.68938","-93.21552","Jessieville","AR","Arkansas","TRUE","","898","1.8","05051","Garland","{""05051"": 100}","Garland","05051","FALSE","FALSE","America/Chicago"
"71950","34.25072","-93.72767","Kirby","AR","Arkansas","TRUE","","609","11.4","05109","Pike","{""05109"": 100}","Pike","05109","FALSE","FALSE","America/Chicago"
"71952","34.31067","-93.84992","Langley","AR","Arkansas","TRUE","","42","1.0","05109","Pike","{""05109"": 100}","Pike","05109","FALSE","FALSE","America/Chicago"
"71953","34.61291","-94.2118","Mena","AR","Arkansas","TRUE","","13098","7.4","05113","Polk","{""05113"": 75.39, ""05127"": 19.48, ""40079"": 5.13}","Polk|Scott|Le Flore","05113|05127|40079","FALSE","FALSE","America/Chicago"
"71956","34.60129","-93.14977","Mountain Pine","AR","Arkansas","TRUE","","1415","22.0","05051","Garland","{""05051"": 100}","Garland","05051","FALSE","FALSE","America/Chicago"
"71957","34.55799","-93.59682","Mount Ida","AR","Arkansas","TRUE","","2979","7.2","05097","Montgomery","{""05097"": 100}","Montgomery","05097","FALSE","FALSE","America/Chicago"
"71958","34.1114","-93.6556","Murfreesboro","AR","Arkansas","TRUE","","2381","6.6","05109","Pike","{""05109"": 100}","Pike","05109","FALSE","FALSE","America/Chicago"
"71959","34.25081","-93.92633","Newhope","AR","Arkansas","TRUE","","689","3.8","05109","Pike","{""05109"": 50.36, ""05061"": 49.64}","Pike|Howard","05109|05061","FALSE","FALSE","America/Chicago"
"71960","34.47408","-93.69281","Norman","AR","Arkansas","TRUE","","1228","3.4","05097","Montgomery","{""05097"": 100}","Montgomery","05097","FALSE","FALSE","America/Chicago"
"71961","34.59722","-93.84676","Oden","AR","Arkansas","TRUE","","1151","5.2","05097","Montgomery","{""05097"": 100}","Montgomery","05097","FALSE","FALSE","America/Chicago"
"71962","34.03756","-93.33288","Okolona","AR","Arkansas","TRUE","","914","2.1","05019","Clark","{""05019"": 100}","Clark","05019","FALSE","FALSE","America/Chicago"
"71964","34.42252","-93.24451","Pearcy","AR","Arkansas","TRUE","","4817","59.9","05051","Garland","{""05051"": 81.5, ""05059"": 18.5}","Garland|Hot Spring","05051|05059","FALSE","FALSE","America/Chicago"
"71965","34.65506","-93.74053","Pencil Bluff","AR","Arkansas","TRUE","","233","5.4","05097","Montgomery","{""05097"": 100}","Montgomery","05097","FALSE","FALSE","America/Chicago"
"71968","34.52719","-93.29767","Royal","AR","Arkansas","TRUE","","5470","21.5","05051","Garland","{""05051"": 100}","Garland","05051","FALSE","FALSE","America/Chicago"
"71969","34.66671","-93.63442","Sims","AR","Arkansas","TRUE","","275","3.0","05097","Montgomery","{""05097"": 100}","Montgomery","05097","FALSE","FALSE","America/Chicago"
"71970","34.66686","-93.49024","Story","AR","Arkansas","TRUE","","593","3.0","05097","Montgomery","{""05097"": 100}","Montgomery","05097","FALSE","FALSE","America/Chicago"
"71971","34.30411","-94.0313","Umpire","AR","Arkansas","TRUE","","404","2.3","05061","Howard","{""05061"": 83.4, ""05109"": 16.6}","Howard|Pike","05061|05109","FALSE","FALSE","America/Chicago"
"71972","34.39447","-94.24695","Vandervoort","AR","Arkansas","TRUE","","416","4.0","05113","Polk","{""05113"": 100}","Polk","05113","FALSE","FALSE","America/Chicago"
"71973","34.28755","-94.30523","Wickes","AR","Arkansas","TRUE","","1754","7.8","05113","Polk","{""05113"": 61.38, ""05061"": 38.62}","Polk|Howard","05113|05061","FALSE","FALSE","America/Chicago"
"71998","34.12609","-93.05275","Arkadelphia","AR","Arkansas","TRUE","","545","2832.5","05019","Clark","{""05019"": 100}","Clark","05019","FALSE","FALSE","America/Chicago"
"71999","34.12732","-93.05941","Arkadelphia","AR","Arkansas","TRUE","","537","3060.9","05019","Clark","{""05019"": 100}","Clark","05019","FALSE","FALSE","America/Chicago"
"72001","35.07225","-92.87602","Adona","AR","Arkansas","TRUE","","611","10.6","05105","Perry","{""05105"": 54.07, ""05029"": 45.93}","Perry|Conway","05105|05029","FALSE","FALSE","America/Chicago"
"72002","34.6646","-92.5362","Alexander","AR","Arkansas","TRUE","","19474","114.2","05125","Saline","{""05125"": 92.72, ""05119"": 7.28}","Saline|Pulaski","05125|05119","FALSE","FALSE","America/Chicago"
"72003","34.38276","-91.40754","Almyra","AR","Arkansas","TRUE","","837","3.3","05001","Arkansas","{""05001"": 100}","Arkansas","05001","FALSE","FALSE","America/Chicago"
"72004","34.29722","-91.7856","Altheimer","AR","Arkansas","TRUE","","769","1.6","05069","Jefferson","{""05069"": 97.67, ""05001"": 2.33}","Jefferson|Arkansas","05069|05001","FALSE","FALSE","America/Chicago"
"72005","35.53911","-91.07271","Amagon","AR","Arkansas","TRUE","","103","2.0","05067","Jackson","{""05067"": 100}","Jackson","05067","FALSE","FALSE","America/Chicago"
"72006","35.24602","-91.34495","Augusta","AR","Arkansas","TRUE","","2236","4.6","05147","Woodruff","{""05147"": 100}","Woodruff","05147","FALSE","FALSE","America/Chicago"
"72007","35.0004","-91.97902","Austin","AR","Arkansas","TRUE","","8974","75.5","05085","Lonoke","{""05085"": 100}","Lonoke","05085","FALSE","FALSE","America/Chicago"
"72010","35.30555","-91.52112","Bald Knob","AR","Arkansas","TRUE","","5638","12.7","05145","White","{""05145"": 100}","White","05145","FALSE","FALSE","America/Chicago"
"72011","34.50967","-92.46628","Bauxite","AR","Arkansas","TRUE","","4671","30.8","05125","Saline","{""05125"": 95.63, ""05053"": 4.37}","Saline|Grant","05125|05053","FALSE","FALSE","America/Chicago"
"72012","35.10199","-91.91789","Beebe","AR","Arkansas","TRUE","","13130","52.7","05145","White","{""05145"": 100}","White","05145","FALSE","FALSE","America/Chicago"
"72013","35.45709","-92.3644","Bee Branch","AR","Arkansas","TRUE","","1990","8.4","05141","Van Buren","{""05141"": 93.73, ""05029"": 6.27}","Van Buren|Conway","05141|05029","FALSE","FALSE","America/Chicago"
"72014","35.43029","-91.11213","Beedeville","AR","Arkansas","TRUE","","45","19.3","05067","Jackson","{""05067"": 100}","Jackson","05067","FALSE","FALSE","America/Chicago"
"72015","34.49298","-92.58974","Benton","AR","Arkansas","TRUE","","27575","125.3","05125","Saline","{""05125"": 76.2, ""05053"": 23.8}","Saline|Grant","05125|05053","FALSE","FALSE","America/Chicago"
"72016","34.97702","-92.62763","Bigelow","AR","Arkansas","TRUE","","2667","14.7","05105","Perry","{""05105"": 77.85, ""05119"": 22.15}","Perry|Pulaski","05105|05119","FALSE","FALSE","America/Chicago"
"72017","34.89215","-91.40714","Biscoe","AR","Arkansas","TRUE","","426","4.0","05117","Prairie","{""05117"": 100}","Prairie","05117","FALSE","FALSE","America/Chicago"
"72019","34.63498","-92.69926","Benton","AR","Arkansas","TRUE","","28491","63.5","05125","Saline","{""05125"": 100}","Saline","05125","FALSE","FALSE","America/Chicago"
"72020","35.48054","-91.47669","Bradford","AR","Arkansas","TRUE","","3511","8.6","05067","Jackson","{""05067"": 50.27, ""05145"": 31.69, ""05063"": 18.04}","Jackson|White|Independence","05067|05145|05063","FALSE","FALSE","America/Chicago"
"72021","34.85953","-91.21193","Brinkley","AR","Arkansas","TRUE","","3666","7.3","05095","Monroe","{""05095"": 88.51, ""05147"": 9.48, ""05123"": 2.01}","Monroe|Woodruff|St. Francis","05095|05147|05123","FALSE","FALSE","America/Chicago"
"72022","34.60859","-92.49651","Bryant","AR","Arkansas","TRUE","","17189","487.9","05125","Saline","{""05125"": 100}","Saline","05125","FALSE","FALSE","America/Chicago"
"72023","34.95909","-92.05925","Cabot","AR","Arkansas","TRUE","","36333","142.8","05085","Lonoke","{""05085"": 68.98, ""05119"": 27.06, ""05045"": 3.96}","Lonoke|Pulaski|Faulkner","05085|05119|05045","FALSE","FALSE","America/Chicago"
"72024","34.75168","-91.74902","Carlisle","AR","Arkansas","TRUE","","4188","8.5","05085","Lonoke","{""05085"": 93.28, ""05117"": 6.72}","Lonoke|Prairie","05085|05117","FALSE","FALSE","America/Chicago"
"72025","35.0551","-92.99604","Casa","AR","Arkansas","TRUE","","733","4.7","05105","Perry","{""05105"": 69.16, ""05029"": 23.87, ""05149"": 6.97}","Perry|Conway|Yell","05105|05029|05149","FALSE","FALSE","America/Chicago"
"72026","34.51397","-91.31687","Casscoe","AR","Arkansas","TRUE","","228","3.6","05001","Arkansas","{""05001"": 100}","Arkansas","05001","FALSE","FALSE","America/Chicago"
"72027","35.37021","-92.57494","Center Ridge","AR","Arkansas","TRUE","","1422","8.2","05029","Conway","{""05029"": 100}","Conway","05029","FALSE","FALSE","America/Chicago"
"72028","35.53771","-92.43266","Choctaw","AR","Arkansas","TRUE","","0","0.0","05141","Van Buren","{""05141"": 100}","Van Buren","05141","FALSE","FALSE","America/Chicago"
"72029","34.71029","-91.27679","Clarendon","AR","Arkansas","TRUE","","1764","7.3","05095","Monroe","{""05095"": 100}","Monroe","05095","FALSE","FALSE","America/Chicago"
"72030","35.43428","-92.68003","Cleveland","AR","Arkansas","TRUE","","868","6.1","05029","Conway","{""05029"": 77.42, ""05141"": 22.58}","Conway|Van Buren","05029|05141","FALSE","FALSE","America/Chicago"
"72031","35.60717","-92.52904","Clinton","AR","Arkansas","TRUE","","6526","8.5","05141","Van Buren","{""05141"": 90.63, ""05137"": 4.81, ""05029"": 4.56}","Van Buren|Stone|Conway","05141|05137|05029","FALSE","FALSE","America/Chicago"
"72032","35.07393","-92.36451","Conway","AR","Arkansas","TRUE","","34137","115.1","05045","Faulkner","{""05045"": 100}","Faulkner","05045","FALSE","FALSE","America/Chicago"
"72034","35.05405","-92.47945","Conway","AR","Arkansas","TRUE","","47096","379.4","05045","Faulkner","{""05045"": 100}","Faulkner","05045","FALSE","FALSE","America/Chicago"
"72035","35.07902","-92.45829","Conway","AR","Arkansas","TRUE","","2107","5268.7","05045","Faulkner","{""05045"": 100}","Faulkner","05045","FALSE","FALSE","America/Chicago"
"72036","35.00673","-91.27205","Cotton Plant","AR","Arkansas","TRUE","","595","2.0","05147","Woodruff","{""05147"": 80.64, ""05095"": 19.36}","Woodruff|Monroe","05147|05095","FALSE","FALSE","America/Chicago"
"72038","34.44606","-91.2349","Crocketts Bluff","AR","Arkansas","TRUE","","100","1.3","05001","Arkansas","{""05001"": 100}","Arkansas","05001","FALSE","FALSE","America/Chicago"
"72039","35.35636","-92.40338","Damascus","AR","Arkansas","TRUE","","2454","15.5","05045","Faulkner","{""05045"": 53.98, ""05141"": 46.02}","Faulkner|Van Buren","05045|05141","FALSE","FALSE","America/Chicago"
"72040","34.96957","-91.52129","Des Arc","AR","Arkansas","TRUE","","2253","5.0","05117","Prairie","{""05117"": 92.81, ""05147"": 7.19}","Prairie|Woodruff","05117|05147","FALSE","FALSE","America/Chicago"
"72041","34.73348","-91.46812","De Valls Bluff","AR","Arkansas","TRUE","","1235","4.5","05117","Prairie","{""05117"": 100}","Prairie","05117","FALSE","FALSE","America/Chicago"
"72042","34.26937","-91.31567","De Witt","AR","Arkansas","TRUE","","5011","8.1","05001","Arkansas","{""05001"": 100}","Arkansas","05001","FALSE","FALSE","America/Chicago"
"72044","35.67688","-92.16243","Edgemont","AR","Arkansas","TRUE","","1309","7.7","05023","Cleburne","{""05023"": 72.83, ""05137"": 27.17}","Cleburne|Stone","05023|05137","FALSE","FALSE","America/Chicago"
"72045","35.12618","-92.05483","El Paso","AR","Arkansas","TRUE","","1193","11.0","05145","White","{""05145"": 100}","White","05145","FALSE","FALSE","America/Chicago"
"72046","34.55542","-91.9403","England","AR","Arkansas","TRUE","","4105","6.8","05085","Lonoke","{""05085"": 70.85, ""05119"": 16.71, ""05069"": 12.44}","Lonoke|Pulaski|Jefferson","05085|05119|05069","FALSE","FALSE","America/Chicago"
"72047","35.22809","-92.21055","Enola","AR","Arkansas","TRUE","","840","9.6","05045","Faulkner","{""05045"": 100}","Faulkner","05045","FALSE","FALSE","America/Chicago"
"72048","34.23436","-91.12433","Ethel","AR","Arkansas","TRUE","","77","0.4","05001","Arkansas","{""05001"": 100}","Arkansas","05001","FALSE","FALSE","America/Chicago"
"72051","35.79475","-92.31501","Fox","AR","Arkansas","TRUE","","528","5.9","05137","Stone","{""05137"": 100}","Stone","05137","FALSE","FALSE","America/Chicago"
"72052","35.13965","-91.78097","Garner","AR","Arkansas","TRUE","","114","104.7","05145","White","{""05145"": 100}","White","05145","FALSE","FALSE","America/Chicago"
"72053","34.70579","-92.22852","College Station","AR","Arkansas","TRUE","","188","124.1","05119","Pulaski","{""05119"": 100}","Pulaski","05119","FALSE","FALSE","America/Chicago"
"72055","34.10391","-91.36196","Gillett","AR","Arkansas","TRUE","","652","2.7","05001","Arkansas","{""05001"": 100}","Arkansas","05001","FALSE","FALSE","America/Chicago"
"72057","34.14417","-92.31507","Grapevine","AR","Arkansas","TRUE","","1315","5.7","05053","Grant","{""05053"": 100}","Grant","05053","FALSE","FALSE","America/Chicago"
"72058","35.24273","-92.36998","Greenbrier","AR","Arkansas","TRUE","","18663","45.8","05045","Faulkner","{""05045"": 100}","Faulkner","05045","FALSE","FALSE","America/Chicago"
"72059","35.15455","-91.34209","Gregory","AR","Arkansas","TRUE","","46","730.8","05147","Woodruff","{""05147"": 100}","Woodruff","05147","FALSE","FALSE","America/Chicago"
"72060","35.07609","-91.57779","Griffithville","AR","Arkansas","TRUE","","583","2.8","05145","White","{""05145"": 58.7, ""05117"": 41.3}","White|Prairie","05145|05117","FALSE","FALSE","America/Chicago"
"72061","35.32437","-92.28992","Guy","AR","Arkansas","TRUE","","77","13.3","05045","Faulkner","{""05045"": 100}","Faulkner","05045","FALSE","FALSE","America/Chicago"
"72063","35.32205","-92.77249","Hattieville","AR","Arkansas","TRUE","","1770","9.7","05029","Conway","{""05029"": 97.77, ""05115"": 2.23}","Conway|Pope","05029|05115","FALSE","FALSE","America/Chicago"
"72064","34.79457","-91.61226","Hazen","AR","Arkansas","TRUE","","2793","7.2","05117","Prairie","{""05117"": 100}","Prairie","05117","FALSE","FALSE","America/Chicago"
"72065","34.52102","-92.28648","Hensley","AR","Arkansas","TRUE","","5552","34.3","05125","Saline","{""05125"": 57.57, ""05119"": 26.07, ""05053"": 16.36}","Saline|Pulaski|Grant","05125|05119|05053","FALSE","FALSE","America/Chicago"
"72066","34.98141","-91.7171","Hickory Plains","AR","Arkansas","TRUE","","196","4.4","05117","Prairie","{""05117"": 100}","Prairie","05117","FALSE","FALSE","America/Chicago"
"72067","35.56369","-92.16589","Higden","AR","Arkansas","TRUE","","2540","20.0","05023","Cleburne","{""05023"": 83.79, ""05141"": 16.21}","Cleburne|Van Buren","05023|05141","FALSE","FALSE","America/Chicago"
"72068","35.15766","-91.71547","Higginson","AR","Arkansas","TRUE","","962","89.2","05145","White","{""05145"": 100}","White","05145","FALSE","FALSE","America/Chicago"
"72069","34.53904","-91.13242","Holly Grove","AR","Arkansas","TRUE","","1015","1.4","05095","Monroe","{""05095"": 92.42, ""05107"": 7.58}","Monroe|Phillips","05095|05107","FALSE","FALSE","America/Chicago"
"72070","35.01346","-92.6995","Houston","AR","Arkansas","TRUE","","1932","10.5","05105","Perry","{""05105"": 100}","Perry","05105","FALSE","FALSE","America/Chicago"
"72072","34.51279","-91.75802","Humnoke","AR","Arkansas","TRUE","","320","3.1","05085","Lonoke","{""05085"": 74.07, ""05069"": 25.93}","Lonoke|Jefferson","05085|05069","FALSE","FALSE","America/Chicago"
"72073","34.36529","-91.65251","Humphrey","AR","Arkansas","TRUE","","834","2.8","05001","Arkansas","{""05001"": 90.89, ""05069"": 9.11}","Arkansas|Jefferson","05001|05069","FALSE","FALSE","America/Chicago"
"72074","35.06919","-91.10538","Hunter","AR","Arkansas","TRUE","","123","4.2","05147","Woodruff","{""05147"": 100}","Woodruff","05147","FALSE","FALSE","America/Chicago"
"72075","35.64084","-91.31089","Jacksonport","AR","Arkansas","TRUE","","3","28.0","05067","Jackson","{""05067"": 100}","Jackson","05067","FALSE","FALSE","America/Chicago"
"72076","34.91072","-92.14303","Jacksonville","AR","Arkansas","TRUE","","39117","207.7","05119","Pulaski","{""05119"": 84.76, ""05085"": 10.79, ""05045"": 4.45}","Pulaski|Lonoke|Faulkner","05119|05085|05045","FALSE","FALSE","America/Chicago"
"72079","34.38958","-92.19919","Jefferson","AR","Arkansas","TRUE","","520","9.7","05069","Jefferson","{""05069"": 65.5, ""05053"": 34.5}","Jefferson|Grant","05069|05053","FALSE","FALSE","America/Chicago"
"72080","35.52604","-92.80909","Jerusalem","AR","Arkansas","TRUE","","440","1.8","05141","Van Buren","{""05141"": 44.91, ""05029"": 33.86, ""05115"": 21.23}","Van Buren|Conway|Pope","05141|05029|05115","FALSE","FALSE","America/Chicago"
"72081","35.37827","-91.66947","Judsonia","AR","Arkansas","TRUE","","7643","31.3","05145","White","{""05145"": 99.11, ""05063"": 0.89}","White|Independence","05145|05063","FALSE","FALSE","America/Chicago"
"72082","35.23713","-91.66963","Kensett","AR","Arkansas","TRUE","","2226","206.2","05145","White","{""05145"": 100}","White","05145","FALSE","FALSE","America/Chicago"
"72083","34.6049","-92.01189","Keo","AR","Arkansas","TRUE","","214","22.4","05085","Lonoke","{""05085"": 100}","Lonoke","05085","FALSE","FALSE","America/Chicago"
"72084","34.13687","-92.6887","Leola","AR","Arkansas","TRUE","","1267","2.7","05039","Dallas","{""05039"": 57.89, ""05053"": 30.14, ""05059"": 11.97}","Dallas|Grant|Hot Spring","05039|05053|05059","FALSE","FALSE","America/Chicago"
"72085","35.36665","-91.82772","Letona","AR","Arkansas","TRUE","","275","28.2","05145","White","{""05145"": 100}","White","05145","FALSE","FALSE","America/Chicago"
"72086","34.80418","-91.90619","Lonoke","AR","Arkansas","TRUE","","11919","28.0","05085","Lonoke","{""05085"": 96.18, ""05117"": 3.82}","Lonoke|Prairie","05085|05117","FALSE","FALSE","America/Chicago"
"72087","34.59877","-92.83391","Lonsdale","AR","Arkansas","TRUE","","1624","10.1","05125","Saline","{""05125"": 63.81, ""05051"": 36.19}","Saline|Garland","05125|05051","FALSE","FALSE","America/Chicago"
"72088","35.59803","-92.26239","Fairfield Bay","AR","Arkansas","TRUE","","2235","59.4","05141","Van Buren","{""05141"": 78.71, ""05023"": 21.29}","Van Buren|Cleburne","05141|05023","FALSE","FALSE","America/Chicago"
"72099","34.90103","-92.15202","Little Rock Air Force Base","AR","Arkansas","TRUE","","674","216.6","05119","Pulaski","{""05119"": 100}","Pulaski","05119","FALSE","FALSE","America/Chicago"
"72101","35.23228","-91.15242","McCrory","AR","Arkansas","TRUE","","3160","4.5","05147","Woodruff","{""05147"": 88.92, ""05067"": 10.65, ""05037"": 0.43}","Woodruff|Jackson|Cross","05147|05067|05037","FALSE","FALSE","America/Chicago"
"72102","35.14556","-91.83352","McRae","AR","Arkansas","TRUE","","2795","22.1","05145","White","{""05145"": 100}","White","05145","FALSE","FALSE","America/Chicago"
"72103","34.59133","-92.38316","Mabelvale","AR","Arkansas","TRUE","","14422","182.1","05125","Saline","{""05125"": 77.19, ""05119"": 22.81}","Saline|Pulaski","05125|05119","FALSE","FALSE","America/Chicago"
"72104","34.34774","-92.81814","Malvern","AR","Arkansas","TRUE","","23606","27.9","05059","Hot Spring","{""05059"": 95.29, ""05051"": 2.72, ""05125"": 1.31, ""05053"": 0.68}","Hot Spring|Garland|Saline|Grant","05059|05051|05125|05053","FALSE","FALSE","America/Chicago"
"72106","34.96997","-92.48727","Mayflower","AR","Arkansas","TRUE","","5946","43.9","05045","Faulkner","{""05045"": 98.37, ""05119"": 1.63}","Faulkner|Pulaski","05045|05119","FALSE","FALSE","America/Chicago"
"72107","35.14255","-92.53844","Menifee","AR","Arkansas","TRUE","","46","6.1","05029","Conway","{""05029"": 100}","Conway","05029","FALSE","FALSE","America/Chicago"
"72108","34.72803","-91.10349","Monroe","AR","Arkansas","TRUE","","0","0.0","05095","Monroe","{""05095"": 100}","Monroe","05095","FALSE","FALSE","America/Chicago"
"72110","35.15514","-92.77273","Morrilton","AR","Arkansas","TRUE","","11600","38.2","05029","Conway","{""05029"": 100}","Conway","05029","FALSE","FALSE","America/Chicago"
"72111","35.23688","-92.13307","Mount Vernon","AR","Arkansas","TRUE","","1240","8.4","05045","Faulkner","{""05045"": 72.58, ""05145"": 27.42}","Faulkner|White","05045|05145","FALSE","FALSE","America/Chicago"
"72112","35.57383","-91.22918","Newport","AR","Arkansas","TRUE","","10851","12.8","05067","Jackson","{""05067"": 92.8, ""05147"": 4.72, ""05063"": 2.48}","Jackson|Woodruff|Independence","05067|05147|05063","FALSE","FALSE","America/Chicago"
"72113","34.85926","-92.39875","Maumelle","AR","Arkansas","TRUE","","27190","399.5","05119","Pulaski","{""05119"": 100}","Pulaski","05119","FALSE","FALSE","America/Chicago"
"72114","34.7645","-92.26024","North Little Rock","AR","Arkansas","TRUE","","10550","531.2","05119","Pulaski","{""05119"": 100}","Pulaski","05119","FALSE","FALSE","America/Chicago"
"72116","34.80025","-92.24505","North Little Rock","AR","Arkansas","TRUE","","20651","1228.4","05119","Pulaski","{""05119"": 100}","Pulaski","05119","FALSE","FALSE","America/Chicago"
"72117","34.78076","-92.14548","North Little Rock","AR","Arkansas","TRUE","","14495","102.9","05119","Pulaski","{""05119"": 100}","Pulaski","05119","FALSE","FALSE","America/Chicago"
"72118","34.83872","-92.32694","North Little Rock","AR","Arkansas","TRUE","","21975","306.9","05119","Pulaski","{""05119"": 100}","Pulaski","05119","FALSE","FALSE","America/Chicago"
"72119","34.8369","-92.29505","North Little Rock","AR","Arkansas","TRUE","","0","0.0","05119","Pulaski","{""05119"": 100}","Pulaski","05119","FALSE","FALSE","America/Chicago"
"72120","34.89776","-92.24431","Sherwood","AR","Arkansas","TRUE","","33397","238.0","05119","Pulaski","{""05119"": 69.05, ""05045"": 30.95}","Pulaski|Faulkner","05119|05045","FALSE","FALSE","America/Chicago"
"72121","35.45561","-91.78525","Pangburn","AR","Arkansas","TRUE","","3120","17.0","05145","White","{""05145"": 80.54, ""05023"": 19.46}","White|Cleburne","05145|05023","FALSE","FALSE","America/Chicago"
"72122","34.77955","-92.77549","Paron","AR","Arkansas","TRUE","","1100","3.4","05125","Saline","{""05125"": 89.97, ""05119"": 10.03}","Saline|Pulaski","05125|05119","FALSE","FALSE","America/Chicago"
"72123","35.25774","-91.23675","Patterson","AR","Arkansas","TRUE","","312","114.9","05147","Woodruff","{""05147"": 100}","Woodruff","05147","FALSE","FALSE","America/Chicago"
"72125","35.06421","-92.794","Perry","AR","Arkansas","TRUE","","795","12.5","05105","Perry","{""05105"": 61.8, ""05029"": 38.2}","Perry|Conway","05105|05029","FALSE","FALSE","America/Chicago"
"72126","34.9376","-92.91024","Perryville","AR","Arkansas","TRUE","","3821","7.3","05105","Perry","{""05105"": 95.59, ""05119"": 4.41}","Perry|Pulaski","05105|05119","FALSE","FALSE","America/Chicago"
"72127","35.16237","-92.59419","Plumerville","AR","Arkansas","TRUE","","2212","14.0","05029","Conway","{""05029"": 100}","Conway","05029","FALSE","FALSE","America/Chicago"
"72128","34.31535","-92.63846","Poyen","AR","Arkansas","TRUE","","764","12.6","05053","Grant","{""05053"": 100}","Grant","05053","FALSE","FALSE","America/Chicago"
"72129","34.31215","-92.55406","Prattsville","AR","Arkansas","TRUE","","1251","8.2","05053","Grant","{""05053"": 100}","Grant","05053","FALSE","FALSE","America/Chicago"
"72130","35.6673","-92.06997","Prim","AR","Arkansas","TRUE","","414","5.8","05023","Cleburne","{""05023"": 100}","Cleburne","05023","FALSE","FALSE","America/Chicago"
"72131","35.40792","-92.19362","Quitman","AR","Arkansas","TRUE","","4296","12.9","05023","Cleburne","{""05023"": 66.87, ""05045"": 25.85, ""05141"": 7.28}","Cleburne|Faulkner|Van Buren","05023|05045|05141","FALSE","FALSE","America/Chicago"
"72132","34.44","-92.19468","Redfield","AR","Arkansas","TRUE","","3486","19.5","05069","Jefferson","{""05069"": 57.5, ""05053"": 42.5}","Jefferson|Grant","05069|05053","FALSE","FALSE","America/Chicago"
"72133","34.10821","-91.53718","Reydell","AR","Arkansas","TRUE","","12","0.3","05069","Jefferson","{""05069"": 100}","Jefferson","05069","FALSE","FALSE","America/Chicago"
"72134","34.61189","-91.37247","Roe","AR","Arkansas","TRUE","","513","4.6","05095","Monroe","{""05095"": 91.72, ""05001"": 8.28}","Monroe|Arkansas","05095|05001","FALSE","FALSE","America/Chicago"
"72135","34.87698","-92.56087","Roland","AR","Arkansas","TRUE","","3356","17.6","05119","Pulaski","{""05119"": 100}","Pulaski","05119","FALSE","FALSE","America/Chicago"
"72136","35.23538","-92.02129","Romance","AR","Arkansas","TRUE","","2370","18.4","05145","White","{""05145"": 100}","White","05145","FALSE","FALSE","America/Chicago"
"72137","35.33756","-92.02933","Rose Bud","AR","Arkansas","TRUE","","2243","12.8","05145","White","{""05145"": 77.06, ""05023"": 22.94}","White|Cleburne","05145|05023","FALSE","FALSE","America/Chicago"
"72139","35.36212","-91.50997","Russell","AR","Arkansas","TRUE","","288","544.3","05145","White","{""05145"": 100}","White","05145","FALSE","FALSE","America/Chicago"
"72140","34.36052","-91.1549","Saint Charles","AR","Arkansas","TRUE","","326","8.8","05001","Arkansas","{""05001"": 100}","Arkansas","05001","FALSE","FALSE","America/Chicago"
"72141","35.51824","-92.69158","Scotland","AR","Arkansas","TRUE","","515","2.2","05141","Van Buren","{""05141"": 100}","Van Buren","05141","FALSE","FALSE","America/Chicago"
"72142","34.67681","-92.07488","Scott","AR","Arkansas","TRUE","","2326","8.5","05085","Lonoke","{""05085"": 58.32, ""05119"": 41.68}","Lonoke|Pulaski","05085|05119","FALSE","FALSE","America/Chicago"
"72143","35.2279","-91.73613","Searcy","AR","Arkansas","TRUE","","34033","43.5","05145","White","{""05145"": 97.49, ""05023"": 2.51}","White|Cleburne","05145|05023","FALSE","FALSE","America/Chicago"
"72150","34.30999","-92.39642","Sheridan","AR","Arkansas","TRUE","","12338","16.2","05053","Grant","{""05053"": 99.28, ""05069"": 0.72}","Grant|Jefferson","05053|05069","FALSE","FALSE","America/Chicago"
"72152","34.35194","-91.98009","Sherrill","AR","Arkansas","TRUE","","487","2.7","05069","Jefferson","{""05069"": 100}","Jefferson","05069","FALSE","FALSE","America/Chicago"
"72153","35.65651","-92.31988","Shirley","AR","Arkansas","TRUE","","3672","14.1","05141","Van Buren","{""05141"": 78.65, ""05137"": 15.13, ""05023"": 6.22}","Van Buren|Stone|Cleburne","05141|05137|05023","FALSE","FALSE","America/Chicago"
"72156","35.28595","-92.68331","Solgohachia","AR","Arkansas","TRUE","","524","7.3","05029","Conway","{""05029"": 100}","Conway","05029","FALSE","FALSE","America/Chicago"
"72157","35.2714","-92.56412","Springfield","AR","Arkansas","TRUE","","1167","8.5","05029","Conway","{""05029"": 100}","Conway","05029","FALSE","FALSE","America/Chicago"
"72160","34.44284","-91.53136","Stuttgart","AR","Arkansas","TRUE","","9433","11.4","05001","Arkansas","{""05001"": 59.71, ""05117"": 28.82, ""05069"": 10.53, ""05085"": 0.94}","Arkansas|Prairie|Jefferson|Lonoke","05001|05117|05069|05085","FALSE","FALSE","America/Chicago"
"72165","35.57657","-91.46647","Thida","AR","Arkansas","TRUE","","85","5.8","05063","Independence","{""05063"": 100}","Independence","05063","FALSE","FALSE","America/Chicago"
"72166","34.04821","-91.23711","Tichnor","AR","Arkansas","TRUE","","182","0.7","05001","Arkansas","{""05001"": 100}","Arkansas","05001","FALSE","FALSE","America/Chicago"
"72167","34.42223","-92.65477","Traskwood","AR","Arkansas","TRUE","","1394","13.8","05125","Saline","{""05125"": 46.1, ""05053"": 35.04, ""05059"": 18.86}","Saline|Grant|Hot Spring","05125|05053|05059","FALSE","FALSE","America/Chicago"
"72168","34.43719","-91.96771","Tucker","AR","Arkansas","TRUE","","1999","23.9","05069","Jefferson","{""05069"": 100}","Jefferson","05069","FALSE","FALSE","America/Chicago"
"72169","35.3946","-91.22703","Tupelo","AR","Arkansas","TRUE","","80","2.9","05067","Jackson","{""05067"": 100}","Jackson","05067","FALSE","FALSE","America/Chicago"
"72170","34.57819","-91.42655","Ulm","AR","Arkansas","TRUE","","270","20.1","05117","Prairie","{""05117"": 99.89, ""05001"": 0.11}","Prairie|Arkansas","05117|05001","FALSE","FALSE","America/Chicago"
"72173","35.10001","-92.20807","Vilonia","AR","Arkansas","TRUE","","9726","39.6","05045","Faulkner","{""05045"": 100}","Faulkner","05045","FALSE","FALSE","America/Chicago"
"72175","34.33792","-91.75495","Wabbaseka","AR","Arkansas","TRUE","","436","3.7","05069","Jefferson","{""05069"": 95.94, ""05001"": 4.06}","Jefferson|Arkansas","05069|05001","FALSE","FALSE","America/Chicago"
"72176","35.00279","-91.84212","Ward","AR","Arkansas","TRUE","","9352","51.3","05085","Lonoke","{""05085"": 67.06, ""05117"": 32.94}","Lonoke|Prairie","05085|05117","FALSE","FALSE","America/Chicago"
"72178","35.20381","-91.61265","West Point","AR","Arkansas","TRUE","","31","59.2","05145","White","{""05145"": 100}","White","05145","FALSE","FALSE","America/Chicago"
"72179","35.49773","-91.86565","Wilburn","AR","Arkansas","TRUE","","342","6.9","05023","Cleburne","{""05023"": 100}","Cleburne","05023","FALSE","FALSE","America/Chicago"
"72180","34.53104","-92.21495","Woodson","AR","Arkansas","TRUE","","93","312.3","05119","Pulaski","{""05119"": 100}","Pulaski","05119","FALSE","FALSE","America/Chicago"
"72181","35.16237","-92.44503","Wooster","AR","Arkansas","TRUE","","6","1.8","05045","Faulkner","{""05045"": 100}","Faulkner","05045","FALSE","FALSE","America/Chicago"
"72182","34.43161","-92.08721","Wright","AR","Arkansas","TRUE","","104","9.1","05069","Jefferson","{""05069"": 100}","Jefferson","05069","FALSE","FALSE","America/Chicago"
"72183","34.60002","-92.19305","Wrightsville","AR","Arkansas","TRUE","","832","1880.0","05119","Pulaski","{""05119"": 100}","Pulaski","05119","FALSE","FALSE","America/Chicago"
"72199","34.82816","-92.28608","North Little Rock","AR","Arkansas","TRUE","","0","0.0","05119","Pulaski","{""05119"": 100}","Pulaski","05119","FALSE","FALSE","America/Chicago"
"72201","34.74725","-92.28053","Little Rock","AR","Arkansas","TRUE","","875","275.7","05119","Pulaski","{""05119"": 100}","Pulaski","05119","FALSE","FALSE","America/Chicago"
"72202","34.74626","-92.27016","Little Rock","AR","Arkansas","TRUE","","9694","528.9","05119","Pulaski","{""05119"": 100}","Pulaski","05119","FALSE","FALSE","America/Chicago"
"72204","34.71739","-92.3582","Little Rock","AR","Arkansas","TRUE","","30628","780.0","05119","Pulaski","{""05119"": 100}","Pulaski","05119","FALSE","FALSE","America/Chicago"
"72205","34.74948","-92.3524","Little Rock","AR","Arkansas","TRUE","","21654","1040.7","05119","Pulaski","{""05119"": 100}","Pulaski","05119","FALSE","FALSE","America/Chicago"
"72206","34.63042","-92.23833","Little Rock","AR","Arkansas","TRUE","","22103","76.5","05119","Pulaski","{""05119"": 94.91, ""05125"": 5.09}","Pulaski|Saline","05119|05125","FALSE","FALSE","America/Chicago"
"72207","34.77493","-92.34271","Little Rock","AR","Arkansas","TRUE","","11408","1163.8","05119","Pulaski","{""05119"": 100}","Pulaski","05119","FALSE","FALSE","America/Chicago"
"72209","34.6805","-92.33974","Little Rock","AR","Arkansas","TRUE","","33585","710.0","05119","Pulaski","{""05119"": 100}","Pulaski","05119","FALSE","FALSE","America/Chicago"
"72210","34.71506","-92.50378","Little Rock","AR","Arkansas","TRUE","","14809","115.6","05119","Pulaski","{""05119"": 72.84, ""05125"": 27.16}","Pulaski|Saline","05119|05125","FALSE","FALSE","America/Chicago"
"72211","34.74792","-92.41675","Little Rock","AR","Arkansas","TRUE","","23519","1093.0","05119","Pulaski","{""05119"": 100}","Pulaski","05119","FALSE","FALSE","America/Chicago"
"72212","34.78498","-92.4141","Little Rock","AR","Arkansas","TRUE","","12940","820.9","05119","Pulaski","{""05119"": 100}","Pulaski","05119","FALSE","FALSE","America/Chicago"
"72223","34.79251","-92.49091","Little Rock","AR","Arkansas","TRUE","","25765","205.0","05119","Pulaski","{""05119"": 100}","Pulaski","05119","FALSE","FALSE","America/Chicago"
"72227","34.7782","-92.37498","Little Rock","AR","Arkansas","TRUE","","11965","1227.6","05119","Pulaski","{""05119"": 100}","Pulaski","05119","FALSE","FALSE","America/Chicago"
"72301","35.13363","-90.17883","West Memphis","AR","Arkansas","TRUE","","24722","323.2","05035","Crittenden","{""05035"": 100}","Crittenden","05035","FALSE","FALSE","America/Chicago"
"72311","34.72072","-90.89688","Aubrey","AR","Arkansas","TRUE","","64","119.0","05077","Lee","{""05077"": 100}","Lee","05077","FALSE","FALSE","America/Chicago"
"72313","35.53077","-90.13952","Bassett","AR","Arkansas","TRUE","","0","0.0","05093","Mississippi","{""05093"": 100}","Mississippi","05093","FALSE","FALSE","America/Chicago"
"72315","35.90093","-89.9029","Blytheville","AR","Arkansas","TRUE","","20478","31.3","05093","Mississippi","{""05093"": 100}","Mississippi","05093","FALSE","FALSE","America/Chicago"
"72320","34.81439","-90.5411","Brickeys","AR","Arkansas","TRUE","","1478","8.5","05077","Lee","{""05077"": 100}","Lee","05077","FALSE","FALSE","America/Chicago"
"72322","35.0688","-90.808","Caldwell","AR","Arkansas","TRUE","","46","105.2","05123","St. Francis","{""05123"": 100}","St. Francis","05123","FALSE","FALSE","America/Chicago"
"72324","35.38872","-90.78116","Cherry Valley","AR","Arkansas","TRUE","","2190","6.5","05037","Cross","{""05037"": 96.49, ""05111"": 3.51}","Cross|Poinsett","05037|05111","FALSE","FALSE","America/Chicago"
"72325","35.33067","-90.25395","Clarkedale","AR","Arkansas","TRUE","","12","1.4","05035","Crittenden","{""05035"": 100}","Crittenden","05035","FALSE","FALSE","America/Chicago"
"72326","35.11183","-90.89333","Colt","AR","Arkansas","TRUE","","2202","9.1","05123","St. Francis","{""05123"": 93.23, ""05037"": 6.77}","St. Francis|Cross","05123|05037","FALSE","FALSE","America/Chicago"
"72327","35.2401","-90.32783","Crawfordsville","AR","Arkansas","TRUE","","1415","5.7","05035","Crittenden","{""05035"": 100}","Crittenden","05035","FALSE","FALSE","America/Chicago"
"72328","34.0684","-91.0057","Crumrod","AR","Arkansas","TRUE","","44","0.2","05041","Desha","{""05041"": 72.88, ""05107"": 27.12}","Desha|Phillips","05041|05107","FALSE","FALSE","America/Chicago"
"72329","35.62386","-89.97143","Driver","AR","Arkansas","TRUE","","0","0.0","05093","Mississippi","{""05093"": 100}","Mississippi","05093","FALSE","FALSE","America/Chicago"
"72330","35.59136","-90.20184","Dyess","AR","Arkansas","TRUE","","609","5.9","05093","Mississippi","{""05093"": 100}","Mississippi","05093","FALSE","FALSE","America/Chicago"
"72331","35.28537","-90.46733","Earle","AR","Arkansas","TRUE","","2408","6.2","05035","Crittenden","{""05035"": 66.69, ""05037"": 33.31}","Crittenden|Cross","05035|05037","FALSE","FALSE","America/Chicago"
"72332","35.10117","-90.30238","Edmondson","AR","Arkansas","TRUE","","142","178.2","05035","Crittenden","{""05035"": 100}","Crittenden","05035","FALSE","FALSE","America/Chicago"
"72333","34.29004","-90.86971","Elaine","AR","Arkansas","TRUE","","341","1.7","05107","Phillips","{""05107"": 100}","Phillips","05107","FALSE","FALSE","America/Chicago"
"72335","34.99042","-90.75645","Forrest City","AR","Arkansas","TRUE","","16977","41.2","05123","St. Francis","{""05123"": 95.81, ""05077"": 4.19}","St. Francis|Lee","05123|05077","FALSE","FALSE","America/Chicago"
"72338","35.43657","-90.13863","Frenchmans Bayou","AR","Arkansas","TRUE","","14","0.2","47167","Tipton","{""47167"": 66.75, ""05093"": 33.25}","Tipton|Mississippi","47167|05093","FALSE","FALSE","America/Chicago"
"72339","35.41606","-90.26492","Gilmore","AR","Arkansas","TRUE","","157","35.8","05035","Crittenden","{""05035"": 100}","Crittenden","05035","FALSE","FALSE","America/Chicago"
"72340","34.95687","-91.03202","Goodwin","AR","Arkansas","TRUE","","90","5.5","05123","St. Francis","{""05123"": 100}","St. Francis","05123","FALSE","FALSE","America/Chicago"
"72341","34.88746","-90.7705","Haynes","AR","Arkansas","TRUE","","202","4.4","05077","Lee","{""05077"": 100}","Lee","05077","FALSE","FALSE","America/Chicago"
"72342","34.44492","-90.67733","Helena","AR","Arkansas","TRUE","","4024","14.3","05107","Phillips","{""05107"": 100}","Phillips","05107","FALSE","FALSE","America/Chicago"
"72346","35.08462","-90.48198","Heth","AR","Arkansas","TRUE","","611","2.8","05123","St. Francis","{""05123"": 90.79, ""05035"": 6.7, ""05037"": 2.51}","St. Francis|Crittenden|Cross","05123|05035|05037","FALSE","FALSE","America/Chicago"
"72347","35.38415","-90.99892","Hickory Ridge","AR","Arkansas","TRUE","","868","3.5","05037","Cross","{""05037"": 76.93, ""05067"": 23.07}","Cross|Jackson","05037|05067","FALSE","FALSE","America/Chicago"
"72348","34.93739","-90.42016","Hughes","AR","Arkansas","TRUE","","2201","5.0","05035","Crittenden","{""05035"": 50.64, ""05123"": 38.22, ""05077"": 11.14}","Crittenden|St. Francis|Lee","05035|05123|05077","FALSE","FALSE","America/Chicago"
"72350","35.50181","-90.11782","Joiner","AR","Arkansas","TRUE","","989","5.0","05093","Mississippi","{""05093"": 100}","Mississippi","05093","FALSE","FALSE","America/Chicago"
"72351","35.67595","-90.09771","Keiser","AR","Arkansas","TRUE","","739","50.5","05093","Mississippi","{""05093"": 100}","Mississippi","05093","FALSE","FALSE","America/Chicago"
"72352","34.65562","-90.7344","La Grange","AR","Arkansas","TRUE","","6","31.9","05077","Lee","{""05077"": 100}","Lee","05077","FALSE","FALSE","America/Chicago"
"72353","34.3162","-91.00708","Lambrook","AR","Arkansas","TRUE","","19","0.2","05107","Phillips","{""05107"": 100}","Phillips","05107","FALSE","FALSE","America/Chicago"
"72354","35.63118","-90.31797","Lepanto","AR","Arkansas","TRUE","","2351","15.3","05111","Poinsett","{""05111"": 77.88, ""05093"": 22.12}","Poinsett|Mississippi","05111|05093","FALSE","FALSE","America/Chicago"
"72355","34.53902","-90.77789","Lexa","AR","Arkansas","TRUE","","1915","6.2","05107","Phillips","{""05107"": 92.61, ""05077"": 7.39}","Phillips|Lee","05107|05077","FALSE","FALSE","America/Chicago"
"72358","35.79446","-89.87723","Luxora","AR","Arkansas","TRUE","","1662","9.5","05093","Mississippi","{""05093"": 100}","Mississippi","05093","FALSE","FALSE","America/Chicago"
"72359","35.01422","-90.7239","Madison","AR","Arkansas","TRUE","","284","148.4","05123","St. Francis","{""05123"": 100}","St. Francis","05123","FALSE","FALSE","America/Chicago"
"72360","34.75352","-90.78875","Marianna","AR","Arkansas","TRUE","","5351","7.2","05077","Lee","{""05077"": 100}","Lee","05077","FALSE","FALSE","America/Chicago"
"72364","35.2126","-90.18573","Marion","AR","Arkansas","TRUE","","16126","77.9","05035","Crittenden","{""05035"": 100}","Crittenden","05035","FALSE","FALSE","America/Chicago"
