"zip","lat","lng","city","state_id","state_name","zcta","parent_zcta","population","density","county_fips","county_name","county_weights","county_names_all","county_fips_all","imprecise","military","timezone"
"56304","45.52512","-94.05199","Saint Cloud","MN","Minnesota","TRUE","","16619","105.8","27141","Sherburne","{""27141"": 86.81, ""27009"": 13.19}","Sherburne|Benton","27141|27009","FALSE","FALSE","America/Chicago"
"56307","45.62666","-94.58769","Albany","MN","Minnesota","TRUE","","5337","19.5","27145","Stearns","{""27145"": 99.31, ""27097"": 0.69}","Stearns|Morrison","27145|27097","FALSE","FALSE","America/Chicago"
"56308","45.87047","-95.38985","Alexandria","MN","Minnesota","TRUE","","25941","64.3","27041","Douglas","{""27041"": 96.13, ""27121"": 3.87}","Douglas|Pope","27041|27121","FALSE","FALSE","America/Chicago"
"56309","46.08035","-95.80202","Ashby","MN","Minnesota","TRUE","","1396","9.4","27051","Grant","{""27051"": 59.94, ""27111"": 34.85, ""27041"": 5.21}","Grant|Otter Tail|Douglas","27051|27111|27041","FALSE","FALSE","America/Chicago"
"56310","45.63399","-94.44352","Avon","MN","Minnesota","TRUE","","5383","29.0","27145","Stearns","{""27145"": 100}","Stearns","27145","FALSE","FALSE","America/Chicago"
"56311","45.89756","-95.89852","Barrett","MN","Minnesota","TRUE","","738","3.9","27051","Grant","{""27051"": 100}","Grant","27051","FALSE","FALSE","America/Chicago"
"56312","45.46285","-94.95323","Belgrade","MN","Minnesota","TRUE","","2437","5.5","27145","Stearns","{""27145"": 74.47, ""27067"": 25.53}","Stearns|Kandiyohi","27145|27067","FALSE","FALSE","America/Chicago"
"56313","45.78403","-93.55273","Bock","MN","Minnesota","TRUE","","83","221.9","27095","Mille Lacs","{""27095"": 100}","Mille Lacs","27095","FALSE","FALSE","America/Chicago"
"56314","45.81139","-94.43189","Bowlus","MN","Minnesota","TRUE","","1355","12.3","27097","Morrison","{""27097"": 90.31, ""27145"": 9.69}","Morrison|Stearns","27097|27145","FALSE","FALSE","America/Chicago"
"56315","45.97996","-95.59211","Brandon","MN","Minnesota","TRUE","","1872","10.5","27041","Douglas","{""27041"": 96.83, ""27111"": 3.17}","Douglas|Otter Tail","27041|27111","FALSE","FALSE","America/Chicago"
"56316","45.49959","-95.14992","Brooten","MN","Minnesota","TRUE","","1417","4.1","27121","Pope","{""27121"": 52.3, ""27145"": 36.27, ""27067"": 11.43}","Pope|Stearns|Kandiyohi","27121|27145|27067","FALSE","FALSE","America/Chicago"
"56318","45.85332","-94.67085","Burtrum","MN","Minnesota","TRUE","","1010","9.7","27153","Todd","{""27153"": 68.14, ""27097"": 31.86}","Todd|Morrison","27153|27097","FALSE","FALSE","America/Chicago"
"56319","46.00488","-95.22322","Carlos","MN","Minnesota","TRUE","","1301","12.4","27041","Douglas","{""27041"": 80.76, ""27153"": 19.24}","Douglas|Todd","27041|27153","FALSE","FALSE","America/Chicago"
"56320","45.4629","-94.4171","Cold Spring","MN","Minnesota","TRUE","","8223","62.2","27145","Stearns","{""27145"": 100}","Stearns","27145","FALSE","FALSE","America/Chicago"
"56321","45.57969","-94.39288","Collegeville","MN","Minnesota","TRUE","","1631","993.7","27145","Stearns","{""27145"": 100}","Stearns","27145","FALSE","FALSE","America/Chicago"
"56323","45.63321","-95.72586","Cyrus","MN","Minnesota","TRUE","","568","5.1","27121","Pope","{""27121"": 79.94, ""27149"": 20.06}","Pope|Stevens","27121|27149","FALSE","FALSE","America/Chicago"
"56324","46.16385","-95.90766","Dalton","MN","Minnesota","TRUE","","1138","7.6","27111","Otter Tail","{""27111"": 98.23, ""27051"": 1.77}","Otter Tail|Grant","27111|27051","FALSE","FALSE","America/Chicago"
"56325","45.56303","-94.94732","Elrosa","MN","Minnesota","TRUE","","193","467.1","27145","Stearns","{""27145"": 100}","Stearns","27145","FALSE","FALSE","America/Chicago"
"56326","46.02506","-95.68596","Evansville","MN","Minnesota","TRUE","","1802","7.3","27041","Douglas","{""27041"": 89.2, ""27111"": 8.69, ""27051"": 2.11}","Douglas|Otter Tail|Grant","27041|27111|27051","FALSE","FALSE","America/Chicago"
"56327","45.75893","-95.61336","Farwell","MN","Minnesota","TRUE","","824","6.6","27121","Pope","{""27121"": 53.37, ""27041"": 46.63}","Pope|Douglas","27121|27041","FALSE","FALSE","America/Chicago"
"56328","45.9519","-94.52147","Flensburg","MN","Minnesota","TRUE","","163","30.4","27097","Morrison","{""27097"": 100}","Morrison","27097","FALSE","FALSE","America/Chicago"
"56329","45.70934","-93.90577","Foley","MN","Minnesota","TRUE","","7771","15.6","27009","Benton","{""27009"": 88.02, ""27097"": 11.63, ""27141"": 0.35}","Benton|Morrison|Sherburne","27009|27097|27141","FALSE","FALSE","America/Chicago"
"56330","45.75018","-93.75117","Foreston","MN","Minnesota","TRUE","","1712","16.7","27095","Mille Lacs","{""27095"": 62.62, ""27009"": 37.38}","Mille Lacs|Benton","27095|27009","FALSE","FALSE","America/Chicago"
"56331","45.67926","-94.6742","Freeport","MN","Minnesota","TRUE","","2265","12.6","27145","Stearns","{""27145"": 98.88, ""27097"": 1.12}","Stearns|Morrison","27145|27097","FALSE","FALSE","America/Chicago"
"56332","45.96993","-95.50554","Garfield","MN","Minnesota","TRUE","","1622","12.0","27041","Douglas","{""27041"": 100}","Douglas","27041","FALSE","FALSE","America/Chicago"
"56334","45.58402","-95.34765","Glenwood","MN","Minnesota","TRUE","","5819","11.0","27121","Pope","{""27121"": 98.77, ""27041"": 1.23}","Pope|Douglas","27121|27041","FALSE","FALSE","America/Chicago"
"56335","45.60137","-94.85941","Greenwald","MN","Minnesota","TRUE","","252","136.5","27145","Stearns","{""27145"": 100}","Stearns","27145","FALSE","FALSE","America/Chicago"
"56336","45.82349","-94.76175","Grey Eagle","MN","Minnesota","TRUE","","1598","12.7","27153","Todd","{""27153"": 97.0, ""27145"": 3.0}","Todd|Stearns","27153|27145","FALSE","FALSE","America/Chicago"
"56338","46.00631","-93.88089","Hillman","MN","Minnesota","TRUE","","1632","3.7","27097","Morrison","{""27097"": 94.17, ""27035"": 5.83}","Morrison|Crow Wing","27097|27035","FALSE","FALSE","America/Chicago"
"56339","45.8258","-95.82129","Hoffman","MN","Minnesota","TRUE","","1035","6.6","27051","Grant","{""27051"": 85.72, ""27041"": 14.28}","Grant|Douglas","27051|27041","FALSE","FALSE","America/Chicago"
"56340","45.75534","-94.44871","Holdingford","MN","Minnesota","TRUE","","2281","17.3","27145","Stearns","{""27145"": 71.58, ""27097"": 28.42}","Stearns|Morrison","27145|27097","FALSE","FALSE","America/Chicago"
"56342","46.18347","-93.40392","Isle","MN","Minnesota","TRUE","","2570","5.1","27001","Aitkin","{""27001"": 39.72, ""27065"": 34.63, ""27095"": 25.65}","Aitkin|Kanabec|Mille Lacs","27001|27065|27095","FALSE","FALSE","America/Chicago"
"56343","45.79088","-95.69765","Kensington","MN","Minnesota","TRUE","","920","5.1","27041","Douglas","{""27041"": 67.75, ""27121"": 16.8, ""27149"": 10.17, ""27051"": 5.28}","Douglas|Pope|Stevens|Grant","27041|27121|27149|27051","FALSE","FALSE","America/Chicago"
"56345","46.00748","-94.38032","Little Falls","MN","Minnesota","TRUE","","14991","22.4","27097","Morrison","{""27097"": 100}","Morrison","27097","FALSE","FALSE","America/Chicago"
"56347","45.96978","-94.86155","Long Prairie","MN","Minnesota","TRUE","","8090","16.0","27153","Todd","{""27153"": 96.65, ""27097"": 3.35}","Todd|Morrison","27153|27097","FALSE","FALSE","America/Chicago"
"56349","45.72373","-95.52456","Lowry","MN","Minnesota","TRUE","","786","7.3","27121","Pope","{""27121"": 87.34, ""27041"": 12.66}","Pope|Douglas","27121|27041","FALSE","FALSE","America/Chicago"
"56350","46.31101","-93.23922","McGrath","MN","Minnesota","TRUE","","384","0.7","27001","Aitkin","{""27001"": 100}","Aitkin","27001","FALSE","FALSE","America/Chicago"
"56352","45.65078","-94.80076","Melrose","MN","Minnesota","TRUE","","5876","20.7","27145","Stearns","{""27145"": 100}","Stearns","27145","FALSE","FALSE","America/Chicago"
"56353","45.79667","-93.62587","Milaca","MN","Minnesota","TRUE","","9472","19.3","27095","Mille Lacs","{""27095"": 94.59, ""27059"": 2.69, ""27065"": 2.6, ""27097"": 0.12}","Mille Lacs|Isanti|Kanabec|Morrison","27095|27059|27065|27097","FALSE","FALSE","America/Chicago"
"56354","46.06034","-95.27496","Miltona","MN","Minnesota","TRUE","","1390","12.7","27041","Douglas","{""27041"": 100}","Douglas","27041","FALSE","FALSE","America/Chicago"
"56355","45.94007","-95.24031","Nelson","MN","Minnesota","TRUE","","638","9.6","27041","Douglas","{""27041"": 100}","Douglas","27041","FALSE","FALSE","America/Chicago"
"56356","45.63334","-94.73332","New Munich","MN","Minnesota","TRUE","","278","65.0","27145","Stearns","{""27145"": 100}","Stearns","27145","FALSE","FALSE","America/Chicago"
"56357","45.69684","-93.8007","Oak Park","MN","Minnesota","TRUE","","1356","14.3","27009","Benton","{""27009"": 79.37, ""27095"": 20.63}","Benton|Mille Lacs","27009|27095","FALSE","FALSE","America/Chicago"
"56358","45.84069","-93.4488","Ogilvie","MN","Minnesota","TRUE","","3204","9.9","27065","Kanabec","{""27065"": 82.21, ""27095"": 13.16, ""27059"": 4.63}","Kanabec|Mille Lacs|Isanti","27065|27095|27059","FALSE","FALSE","America/Chicago"
"56359","46.08979","-93.67786","Onamia","MN","Minnesota","TRUE","","3567","8.1","27095","Mille Lacs","{""27095"": 100}","Mille Lacs","27095","FALSE","FALSE","America/Chicago"
"56360","45.87482","-95.12686","Osakis","MN","Minnesota","TRUE","","3697","10.8","27153","Todd","{""27153"": 55.04, ""27041"": 44.96}","Todd|Douglas","27153|27041","FALSE","FALSE","America/Chicago"
"56361","46.16146","-95.3351","Parkers Prairie","MN","Minnesota","TRUE","","2594","6.3","27111","Otter Tail","{""27111"": 83.55, ""27041"": 16.45}","Otter Tail|Douglas","27111|27041","FALSE","FALSE","America/Chicago"
"56362","45.40524","-94.71525","Paynesville","MN","Minnesota","TRUE","","5295","13.6","27145","Stearns","{""27145"": 76.83, ""27093"": 13.57, ""27067"": 9.6}","Stearns|Meeker|Kandiyohi","27145|27093|27067","FALSE","FALSE","America/Chicago"
"56363","45.69627","-93.65409","Pease","MN","Minnesota","TRUE","","230","79.9","27095","Mille Lacs","{""27095"": 100}","Mille Lacs","27095","FALSE","FALSE","America/Chicago"
"56364","46.01605","-94.06704","Pierz","MN","Minnesota","TRUE","","5816","9.4","27097","Morrison","{""27097"": 95.43, ""27035"": 4.57}","Morrison|Crow Wing","27097|27035","FALSE","FALSE","America/Chicago"
"56367","45.76107","-94.17026","Rice","MN","Minnesota","TRUE","","7089","26.9","27009","Benton","{""27009"": 82.48, ""27145"": 17.52}","Benton|Stearns","27009|27145","FALSE","FALSE","America/Chicago"
"56368","45.45158","-94.5392","Richmond","MN","Minnesota","TRUE","","4149","22.7","27145","Stearns","{""27145"": 100}","Stearns","27145","FALSE","FALSE","America/Chicago"
"56369","45.46904","-94.3359","Rockville","MN","Minnesota","TRUE","","560","381.5","27145","Stearns","{""27145"": 100}","Stearns","27145","FALSE","FALSE","America/Chicago"
"56371","45.43333","-94.63707","Roscoe","MN","Minnesota","TRUE","","109","87.1","27145","Stearns","{""27145"": 100}","Stearns","27145","FALSE","FALSE","America/Chicago"
"56373","45.85456","-94.23789","Royalton","MN","Minnesota","TRUE","","3114","12.1","27097","Morrison","{""27097"": 90.35, ""27009"": 9.65}","Morrison|Benton","27097|27009","FALSE","FALSE","America/Chicago"
"56374","45.60381","-94.33816","Saint Joseph","MN","Minnesota","TRUE","","9895","57.5","27145","Stearns","{""27145"": 100}","Stearns","27145","FALSE","FALSE","America/Chicago"
"56375","45.70122","-94.27458","Saint Stephen","MN","Minnesota","TRUE","","817","83.6","27145","Stearns","{""27145"": 100}","Stearns","27145","FALSE","FALSE","America/Chicago"
"56376","45.50241","-94.66731","Saint Martin","MN","Minnesota","TRUE","","316","158.4","27145","Stearns","{""27145"": 100}","Stearns","27145","FALSE","FALSE","America/Chicago"
"56377","45.6405","-94.23033","Sartell","MN","Minnesota","TRUE","","20592","355.5","27145","Stearns","{""27145"": 96.51, ""27009"": 3.49}","Stearns|Benton","27145|27009","FALSE","FALSE","America/Chicago"
"56378","45.72308","-94.97982","Sauk Centre","MN","Minnesota","TRUE","","8245","15.7","27145","Stearns","{""27145"": 71.23, ""27153"": 28.77}","Stearns|Todd","27145|27153","FALSE","FALSE","America/Chicago"
"56379","45.63966","-94.08394","Sauk Rapids","MN","Minnesota","TRUE","","17106","73.9","27009","Benton","{""27009"": 99.51, ""27141"": 0.49}","Benton|Sherburne","27009|27141","FALSE","FALSE","America/Chicago"
"56381","45.55523","-95.54669","Starbuck","MN","Minnesota","TRUE","","2310","6.2","27121","Pope","{""27121"": 100}","Pope","27121","FALSE","FALSE","America/Chicago"
"56382","45.9146","-94.611","Swanville","MN","Minnesota","TRUE","","1337","7.7","27097","Morrison","{""27097"": 76.2, ""27153"": 23.8}","Morrison|Todd","27097|27153","FALSE","FALSE","America/Chicago"
"56384","45.8099","-94.56759","Upsala","MN","Minnesota","TRUE","","313","119.8","27097","Morrison","{""27097"": 100}","Morrison","27097","FALSE","FALSE","America/Chicago"
"56385","45.70349","-95.20681","Villard","MN","Minnesota","TRUE","","909","4.8","27121","Pope","{""27121"": 83.53, ""27145"": 13.84, ""27041"": 2.63}","Pope|Stearns|Douglas","27121|27145|27041","FALSE","FALSE","America/Chicago"
"56386","46.11402","-93.52176","Wahkon","MN","Minnesota","TRUE","","693","15.0","27095","Mille Lacs","{""27095"": 100}","Mille Lacs","27095","FALSE","FALSE","America/Chicago"
"56387","45.53215","-94.24141","Waite Park","MN","Minnesota","TRUE","","7722","333.2","27145","Stearns","{""27145"": 100}","Stearns","27145","FALSE","FALSE","America/Chicago"
"56389","45.79961","-95.08832","West Union","MN","Minnesota","TRUE","","93","51.9","27153","Todd","{""27153"": 100}","Todd","27153","FALSE","FALSE","America/Chicago"
"56401","46.32259","-94.11974","Brainerd","MN","Minnesota","TRUE","","30827","36.9","27035","Crow Wing","{""27035"": 91.78, ""27021"": 8.22}","Crow Wing|Cass","27035|27021","FALSE","FALSE","America/Chicago"
"56425","46.34162","-94.28308","Baxter","MN","Minnesota","TRUE","","8547","180.8","27035","Crow Wing","{""27035"": 100}","Crow Wing","27035","FALSE","FALSE","America/Chicago"
"56431","46.4828","-93.64356","Aitkin","MN","Minnesota","TRUE","","8834","7.4","27001","Aitkin","{""27001"": 87.1, ""27035"": 12.9}","Aitkin|Crow Wing","27001|27035","FALSE","FALSE","America/Chicago"
"56433","46.9598","-94.68519","Akeley","MN","Minnesota","TRUE","","1562","5.5","27057","Hubbard","{""27057"": 69.63, ""27021"": 30.37}","Hubbard|Cass","27057|27021","FALSE","FALSE","America/Chicago"
"56434","46.33797","-94.93437","Aldrich","MN","Minnesota","TRUE","","242","6.3","27153","Todd","{""27153"": 83.73, ""27159"": 16.27}","Todd|Wadena","27153|27159","FALSE","FALSE","America/Chicago"
"56435","46.80872","-94.53089","Backus","MN","Minnesota","TRUE","","2814","6.9","27021","Cass","{""27021"": 99.08, ""27035"": 0.92}","Cass|Crow Wing","27021|27035","FALSE","FALSE","America/Chicago"
"56437","46.25049","-95.05654","Bertha","MN","Minnesota","TRUE","","1376","8.0","27153","Todd","{""27153"": 88.49, ""27111"": 11.51}","Todd|Otter Tail","27153|27111","FALSE","FALSE","America/Chicago"
"56438","46.13873","-94.80874","Browerville","MN","Minnesota","TRUE","","2736","7.5","27153","Todd","{""27153"": 100}","Todd","27153","FALSE","FALSE","America/Chicago"
"56440","46.14658","-94.9573","Clarissa","MN","Minnesota","TRUE","","1366","9.4","27153","Todd","{""27153"": 100}","Todd","27153","FALSE","FALSE","America/Chicago"
"56441","46.58625","-93.9865","Crosby","MN","Minnesota","TRUE","","3876","16.8","27035","Crow Wing","{""27035"": 100}","Crow Wing","27035","FALSE","FALSE","America/Chicago"
"56442","46.67629","-94.09726","Crosslake","MN","Minnesota","TRUE","","2751","30.2","27035","Crow Wing","{""27035"": 100}","Crow Wing","27035","FALSE","FALSE","America/Chicago"
"56443","46.1916","-94.57565","Cushing","MN","Minnesota","TRUE","","1391","4.2","27097","Morrison","{""27097"": 69.31, ""27153"": 30.69}","Morrison|Todd","27097|27153","FALSE","FALSE","America/Chicago"
"56444","46.4175","-93.87804","Deerwood","MN","Minnesota","TRUE","","3221","24.0","27035","Crow Wing","{""27035"": 100}","Crow Wing","27035","FALSE","FALSE","America/Chicago"
"56446","46.12448","-95.08966","Eagle Bend","MN","Minnesota","TRUE","","1842","7.3","27153","Todd","{""27153"": 82.86, ""27111"": 12.5, ""27041"": 4.64}","Todd|Otter Tail|Douglas","27153|27111|27041","FALSE","FALSE","America/Chicago"
"56447","46.74151","-93.90262","Emily","MN","Minnesota","TRUE","","720","3.3","27035","Crow Wing","{""27035"": 100}","Crow Wing","27035","FALSE","FALSE","America/Chicago"
"56448","46.78604","-94.09014","Fifty Lakes","MN","Minnesota","TRUE","","430","3.6","27035","Crow Wing","{""27035"": 65.25, ""27021"": 34.75}","Crow Wing|Cass","27035|27021","FALSE","FALSE","America/Chicago"
"56449","46.17436","-94.27214","Fort Ripley","MN","Minnesota","TRUE","","1976","8.5","27035","Crow Wing","{""27035"": 66.83, ""27097"": 33.17}","Crow Wing|Morrison","27035|27097","FALSE","FALSE","America/Chicago"
"56450","46.23341","-93.8361","Garrison","MN","Minnesota","TRUE","","1014","14.9","27035","Crow Wing","{""27035"": 89.16, ""27095"": 10.84}","Crow Wing|Mille Lacs","27035|27095","FALSE","FALSE","America/Chicago"
"56452","46.94808","-94.46123","Hackensack","MN","Minnesota","TRUE","","1848","7.5","27021","Cass","{""27021"": 100}","Cass","27021","FALSE","FALSE","America/Chicago"
"56453","46.31374","-95.16161","Hewitt","MN","Minnesota","TRUE","","768","5.6","27111","Otter Tail","{""27111"": 59.12, ""27153"": 40.88}","Otter Tail|Todd","27111|27153","FALSE","FALSE","America/Chicago"
"56455","46.44953","-94.00681","Ironton","MN","Minnesota","TRUE","","1653","26.0","27035","Crow Wing","{""27035"": 100}","Crow Wing","27035","FALSE","FALSE","America/Chicago"
"56458","47.19924","-94.99341","Lake George","MN","Minnesota","TRUE","","405","7.3","27057","Hubbard","{""27057"": 100}","Hubbard","27057","FALSE","FALSE","America/Chicago"
"56461","47.22817","-94.85877","Laporte","MN","Minnesota","TRUE","","3188","4.3","27057","Hubbard","{""27057"": 97.14, ""27021"": 2.86}","Hubbard|Cass","27057|27021","FALSE","FALSE","America/Chicago"
"56464","46.76538","-95.10382","Menahga","MN","Minnesota","TRUE","","4821","7.2","27159","Wadena","{""27159"": 46.93, ""27005"": 33.56, ""27057"": 14.42, ""27111"": 4.23, ""27021"": 0.86}","Wadena|Becker|Hubbard|Otter Tail|Cass","27159|27005|27057|27111|27021","FALSE","FALSE","America/Chicago"
"56465","46.53459","-94.11381","Merrifield","MN","Minnesota","TRUE","","2167","21.7","27035","Crow Wing","{""27035"": 100}","Crow Wing","27035","FALSE","FALSE","America/Chicago"
"56466","46.41522","-94.63137","Motley","MN","Minnesota","TRUE","","2871","5.7","27021","Cass","{""27021"": 69.91, ""27097"": 19.43, ""27153"": 10.66}","Cass|Morrison|Todd","27021|27097|27153","FALSE","FALSE","America/Chicago"
"56467","46.97714","-94.83753","Nevis","MN","Minnesota","TRUE","","2705","8.4","27057","Hubbard","{""27057"": 100}","Hubbard","27057","FALSE","FALSE","America/Chicago"
"56468","46.49141","-94.29856","Nisswa","MN","Minnesota","TRUE","","4220","32.7","27035","Crow Wing","{""27035"": 61.12, ""27021"": 38.88}","Crow Wing|Cass","27035|27021","FALSE","FALSE","America/Chicago"
"56469","46.77701","-93.5463","Palisade","MN","Minnesota","TRUE","","1006","1.5","27001","Aitkin","{""27001"": 100}","Aitkin","27001","FALSE","FALSE","America/Chicago"
"56470","47.02368","-95.09433","Park Rapids","MN","Minnesota","TRUE","","10595","10.7","27057","Hubbard","{""27057"": 67.13, ""27005"": 22.15, ""27029"": 10.12, ""27159"": 0.6}","Hubbard|Becker|Clearwater|Wadena","27057|27005|27029|27159","FALSE","FALSE","America/Chicago"
"56472","46.57507","-94.34884","Pequot Lakes","MN","Minnesota","TRUE","","8424","21.0","27021","Cass","{""27021"": 54.64, ""27035"": 45.36}","Cass|Crow Wing","27021|27035","FALSE","FALSE","America/Chicago"
"56473","46.35649","-94.48355","Pillager","MN","Minnesota","TRUE","","3238","13.9","27021","Cass","{""27021"": 80.53, ""27097"": 19.47}","Cass|Morrison","27021|27097","FALSE","FALSE","America/Chicago"
"56474","46.72238","-94.39597","Pine River","MN","Minnesota","TRUE","","4430","7.4","27021","Cass","{""27021"": 70.46, ""27035"": 29.54}","Cass|Crow Wing","27021|27035","FALSE","FALSE","America/Chicago"
"56475","46.08361","-94.53985","Randall","MN","Minnesota","TRUE","","1671","10.3","27097","Morrison","{""27097"": 100}","Morrison","27097","FALSE","FALSE","America/Chicago"
"56477","46.64363","-94.99653","Sebeka","MN","Minnesota","TRUE","","2811","4.3","27159","Wadena","{""27159"": 67.55, ""27111"": 21.03, ""27021"": 11.42}","Wadena|Otter Tail|Cass","27159|27111|27021","FALSE","FALSE","America/Chicago"
"56479","46.43719","-94.78939","Staples","MN","Minnesota","TRUE","","4760","9.2","27153","Todd","{""27153"": 36.22, ""27159"": 32.16, ""27021"": 31.62}","Todd|Wadena|Cass","27153|27159|27021","FALSE","FALSE","America/Chicago"
"56481","46.46706","-94.93446","Verndale","MN","Minnesota","TRUE","","2406","6.6","27159","Wadena","{""27159"": 74.19, ""27153"": 18.18, ""27021"": 7.63}","Wadena|Todd|Cass","27159|27153|27021","FALSE","FALSE","America/Chicago"
"56482","46.46555","-95.14307","Wadena","MN","Minnesota","TRUE","","7407","21.0","27159","Wadena","{""27159"": 54.41, ""27111"": 44.49, ""27153"": 1.1}","Wadena|Otter Tail|Todd","27159|27111|27153","FALSE","FALSE","America/Chicago"
"56484","47.09744","-94.47416","Walker","MN","Minnesota","TRUE","","3202","13.5","27021","Cass","{""27021"": 99.7, ""27057"": 0.3}","Cass|Hubbard","27021|27057","FALSE","FALSE","America/Chicago"
"56501","46.83665","-95.82233","Detroit Lakes","MN","Minnesota","TRUE","","17849","36.9","27005","Becker","{""27005"": 92.04, ""27111"": 7.96}","Becker|Otter Tail","27005|27111","FALSE","FALSE","America/Chicago"
"56510","47.35811","-96.52316","Ada","MN","Minnesota","TRUE","","2336","4.0","27107","Norman","{""27107"": 100}","Norman","27107","FALSE","FALSE","America/Chicago"
"56511","46.8532","-96.00763","Audubon","MN","Minnesota","TRUE","","1943","11.8","27005","Becker","{""27005"": 100}","Becker","27005","FALSE","FALSE","America/Chicago"
"56514","46.64892","-96.43486","Barnesville","MN","Minnesota","TRUE","","3895","7.1","27027","Clay","{""27027"": 61.86, ""27167"": 35.7, ""27111"": 2.44}","Clay|Wilkin|Otter Tail","27027|27167|27111","FALSE","FALSE","America/Chicago"
"56515","46.29444","-95.708","Battle Lake","MN","Minnesota","TRUE","","2730","11.0","27111","Otter Tail","{""27111"": 100}","Otter Tail","27111","FALSE","FALSE","America/Chicago"
"56516","47.44368","-95.96663","Bejou","MN","Minnesota","TRUE","","331","1.5","27087","Mahnomen","{""27087"": 88.15, ""27107"": 11.85}","Mahnomen|Norman","27087|27107","FALSE","FALSE","America/Chicago"
"56517","47.55474","-96.53825","Beltrami","MN","Minnesota","TRUE","","273","1.1","27119","Polk","{""27119"": 95.63, ""27107"": 4.37}","Polk|Norman","27119|27107","FALSE","FALSE","America/Chicago"
"56518","46.48926","-95.24506","Bluffton","MN","Minnesota","TRUE","","395","8.2","27111","Otter Tail","{""27111"": 100}","Otter Tail","27111","FALSE","FALSE","America/Chicago"
"56519","47.15914","-96.4877","Borup","MN","Minnesota","TRUE","","277","1.1","27107","Norman","{""27107"": 60.15, ""27027"": 39.85}","Norman|Clay","27107|27027","FALSE","FALSE","America/Chicago"
"56520","46.28645","-96.50361","Breckenridge","MN","Minnesota","TRUE","","3947","12.1","27167","Wilkin","{""27167"": 100}","Wilkin","27167","FALSE","FALSE","America/Chicago"
"56521","46.99691","-95.89783","Callaway","MN","Minnesota","TRUE","","772","4.8","27005","Becker","{""27005"": 100}","Becker","27005","FALSE","FALSE","America/Chicago"
"56522","46.1352","-96.3887","Campbell","MN","Minnesota","TRUE","","452","1.2","27167","Wilkin","{""27167"": 87.63, ""27111"": 12.37}","Wilkin|Otter Tail","27167|27111","FALSE","FALSE","America/Chicago"
"56523","47.63838","-96.80871","Climax","MN","Minnesota","TRUE","","432","2.1","27119","Polk","{""27119"": 100}","Polk","27119","FALSE","FALSE","America/Chicago"
"56524","46.21115","-95.606","Clitherall","MN","Minnesota","TRUE","","697","6.0","27111","Otter Tail","{""27111"": 100}","Otter Tail","27111","FALSE","FALSE","America/Chicago"
"56525","46.6716","-96.75195","Comstock","MN","Minnesota","TRUE","","78","25.7","27027","Clay","{""27027"": 100}","Clay","27027","FALSE","FALSE","America/Chicago"
"56527","46.37383","-95.31806","Deer Creek","MN","Minnesota","TRUE","","946","6.7","27111","Otter Tail","{""27111"": 100}","Otter Tail","27111","FALSE","FALSE","America/Chicago"
"56528","46.53066","-95.80983","Dent","MN","Minnesota","TRUE","","1758","11.0","27111","Otter Tail","{""27111"": 100}","Otter Tail","27111","FALSE","FALSE","America/Chicago"
"56529","46.88027","-96.69754","Dilworth","MN","Minnesota","TRUE","","4585","479.6","27027","Clay","{""27027"": 100}","Clay","27027","FALSE","FALSE","America/Chicago"
"56531","45.98967","-95.98376","Elbow Lake","MN","Minnesota","TRUE","","1896","4.8","27051","Grant","{""27051"": 100}","Grant","27051","FALSE","FALSE","America/Chicago"
"56533","46.40393","-96.15144","Elizabeth","MN","Minnesota","TRUE","","299","8.3","27111","Otter Tail","{""27111"": 100}","Otter Tail","27111","FALSE","FALSE","America/Chicago"
"56534","46.46325","-96.01431","Erhard","MN","Minnesota","TRUE","","1321","7.9","27111","Otter Tail","{""27111"": 100}","Otter Tail","27111","FALSE","FALSE","America/Chicago"
"56535","47.67541","-96.04611","Erskine","MN","Minnesota","TRUE","","1263","5.5","27119","Polk","{""27119"": 88.11, ""27125"": 11.89}","Polk|Red Lake","27119|27125","FALSE","FALSE","America/Chicago"
"56536","47.04596","-96.53173","Felton","MN","Minnesota","TRUE","","324","1.3","27027","Clay","{""27027"": 100}","Clay","27027","FALSE","FALSE","America/Chicago"
"56537","46.27697","-96.08977","Fergus Falls","MN","Minnesota","TRUE","","19449","26.5","27111","Otter Tail","{""27111"": 100}","Otter Tail","27111","FALSE","FALSE","America/Chicago"
"56540","47.54255","-96.27671","Fertile","MN","Minnesota","TRUE","","1909","4.2","27119","Polk","{""27119"": 73.87, ""27107"": 26.13}","Polk|Norman","27119|27107","FALSE","FALSE","America/Chicago"
"56541","47.16606","-96.13081","Flom","MN","Minnesota","TRUE","","58","5.6","27107","Norman","{""27107"": 100}","Norman","27107","FALSE","FALSE","America/Chicago"
"56542","47.56679","-95.72331","Fosston","MN","Minnesota","TRUE","","2516","5.4","27119","Polk","{""27119"": 80.23, ""27087"": 19.77}","Polk|Mahnomen","27119|27087","FALSE","FALSE","America/Chicago"
"56543","46.28541","-96.33654","Foxhome","MN","Minnesota","TRUE","","256","1.5","27167","Wilkin","{""27167"": 100}","Wilkin","27167","FALSE","FALSE","America/Chicago"
"56544","46.75894","-95.59693","Frazee","MN","Minnesota","TRUE","","5573","10.9","27005","Becker","{""27005"": 76.81, ""27111"": 23.19}","Becker|Otter Tail","27005|27111","FALSE","FALSE","America/Chicago"
"56545","47.38527","-96.2399","Gary","MN","Minnesota","TRUE","","638","1.6","27107","Norman","{""27107"": 100}","Norman","27107","FALSE","FALSE","America/Chicago"
"56546","47.10107","-96.73038","Georgetown","MN","Minnesota","TRUE","","212","1.3","27027","Clay","{""27027"": 100}","Clay","27027","FALSE","FALSE","America/Chicago"
"56547","46.89068","-96.55043","Glyndon","MN","Minnesota","TRUE","","2939","7.5","27027","Clay","{""27027"": 100}","Clay","27027","FALSE","FALSE","America/Chicago"
"56548","47.37025","-96.75392","Halstad","MN","Minnesota","TRUE","","729","4.1","27107","Norman","{""27107"": 100}","Norman","27107","FALSE","FALSE","America/Chicago"
"56549","46.85287","-96.31285","Hawley","MN","Minnesota","TRUE","","4931","9.2","27027","Clay","{""27027"": 100}","Clay","27027","FALSE","FALSE","America/Chicago"
"56550","47.2697","-96.74867","Hendrum","MN","Minnesota","TRUE","","308","2.4","27107","Norman","{""27107"": 100}","Norman","27107","FALSE","FALSE","America/Chicago"
"56551","46.31856","-95.45081","Henning","MN","Minnesota","TRUE","","2131","7.8","27111","Otter Tail","{""27111"": 100}","Otter Tail","27111","FALSE","FALSE","America/Chicago"
"56552","46.9814","-96.21602","Hitterdal","MN","Minnesota","TRUE","","534","4.4","27027","Clay","{""27027"": 73.3, ""27005"": 26.7}","Clay|Becker","27027|27005","FALSE","FALSE","America/Chicago"
"56553","46.42946","-96.61757","Kent","MN","Minnesota","TRUE","","202","1.2","27167","Wilkin","{""27167"": 100}","Wilkin","27167","FALSE","FALSE","America/Chicago"
"56554","46.88408","-96.11483","Lake Park","MN","Minnesota","TRUE","","2740","9.2","27005","Becker","{""27005"": 92.09, ""27027"": 7.91}","Becker|Clay","27005|27027","FALSE","FALSE","America/Chicago"
"56556","47.66403","-95.88349","Mcintosh","MN","Minnesota","TRUE","","1227","4.6","27119","Polk","{""27119"": 100}","Polk","27119","FALSE","FALSE","America/Chicago"
"56557","47.32422","-95.837","Mahnomen","MN","Minnesota","TRUE","","2834","4.7","27087","Mahnomen","{""27087"": 93.42, ""27107"": 3.9, ""27029"": 2.68}","Mahnomen|Norman|Clearwater","27087|27107|27029","FALSE","FALSE","America/Chicago"
"56560","46.83637","-96.73467","Moorhead","MN","Minnesota","TRUE","","43302","106.2","27027","Clay","{""27027"": 98.76, ""27167"": 1.24}","Clay|Wilkin","27027|27167","FALSE","FALSE","America/Chicago"
"56562","46.86458","-96.77021","Moorhead","MN","Minnesota","TRUE","","527","2966.1","27027","Clay","{""27027"": 100}","Clay","27027","FALSE","FALSE","America/Chicago"
"56563","46.8668","-96.75522","Moorhead","MN","Minnesota","TRUE","","1644","4088.3","27027","Clay","{""27027"": 100}","Clay","27027","FALSE","FALSE","America/Chicago"
"56565","46.04861","-96.31511","Nashua","MN","Minnesota","TRUE","","125","1.6","27167","Wilkin","{""27167"": 75.03, ""27051"": 24.97}","Wilkin|Grant","27167|27051","FALSE","FALSE","America/Chicago"
"56566","47.24724","-95.61322","Naytahwaush","MN","Minnesota","TRUE","","683","19.9","27087","Mahnomen","{""27087"": 100}","Mahnomen","27087","FALSE","FALSE","America/Chicago"
"56567","46.54896","-95.36707","New York Mills","MN","Minnesota","TRUE","","3264","8.5","27111","Otter Tail","{""27111"": 100}","Otter Tail","27111","FALSE","FALSE","America/Chicago"
"56568","47.5292","-96.77925","Nielsville","MN","Minnesota","TRUE","","133","1.7","27119","Polk","{""27119"": 93.33, ""27107"": 6.67}","Polk|Norman","27119|27107","FALSE","FALSE","America/Chicago"
"56569","47.07482","-95.81956","Ogema","MN","Minnesota","TRUE","","1243","3.0","27005","Becker","{""27005"": 100}","Becker","27005","FALSE","FALSE","America/Chicago"
"56570","46.91051","-95.35552","Osage","MN","Minnesota","TRUE","","1143","4.5","27005","Becker","{""27005"": 100}","Becker","27005","FALSE","FALSE","America/Chicago"
"56571","46.43856","-95.53939","Ottertail","MN","Minnesota","TRUE","","1833","15.3","27111","Otter Tail","{""27111"": 100}","Otter Tail","27111","FALSE","FALSE","America/Chicago"
"56572","46.60485","-96.08682","Pelican Rapids","MN","Minnesota","TRUE","","5832","13.1","27111","Otter Tail","{""27111"": 92.13, ""27027"": 3.94, ""27005"": 3.43, ""27167"": 0.5}","Otter Tail|Clay|Becker|Wilkin","27111|27027|27005|27167","FALSE","FALSE","America/Chicago"
"56573","46.61443","-95.55216","Perham","MN","Minnesota","TRUE","","6532","18.3","27111","Otter Tail","{""27111"": 100}","Otter Tail","27111","FALSE","FALSE","America/Chicago"
"56574","47.20085","-96.70242","Perley","MN","Minnesota","TRUE","","271","1.5","27107","Norman","{""27107"": 98.56, ""27027"": 1.44}","Norman|Clay","27107|27027","FALSE","FALSE","America/Chicago"
"56575","47.03827","-95.43146","Ponsford","MN","Minnesota","TRUE","","644","1.8","27005","Becker","{""27005"": 100}","Becker","27005","FALSE","FALSE","America/Chicago"
"56576","46.47164","-95.70537","Richville","MN","Minnesota","TRUE","","865","8.3","27111","Otter Tail","{""27111"": 100}","Otter Tail","27111","FALSE","FALSE","America/Chicago"
"56578","46.9264","-95.65563","Rochert","MN","Minnesota","TRUE","","770","5.4","27005","Becker","{""27005"": 100}","Becker","27005","FALSE","FALSE","America/Chicago"
"56579","46.4688","-96.34229","Rothsay","MN","Minnesota","TRUE","","1115","2.2","27167","Wilkin","{""27167"": 73.05, ""27111"": 26.95}","Wilkin|Otter Tail","27167|27111","FALSE","FALSE","America/Chicago"
"56580","46.73944","-96.61004","Sabin","MN","Minnesota","TRUE","","1220","7.4","27027","Clay","{""27027"": 100}","Clay","27027","FALSE","FALSE","America/Chicago"
"56581","47.45725","-96.76141","Shelly","MN","Minnesota","TRUE","","261","2.5","27107","Norman","{""27107"": 100}","Norman","27107","FALSE","FALSE","America/Chicago"
"56583","46.00332","-96.40667","Tintah","MN","Minnesota","TRUE","","170","0.9","27155","Traverse","{""27155"": 71.7, ""27167"": 28.3}","Traverse|Wilkin","27155|27167","FALSE","FALSE","America/Chicago"
"56584","47.23087","-96.23496","Twin Valley","MN","Minnesota","TRUE","","1356","3.9","27107","Norman","{""27107"": 100}","Norman","27107","FALSE","FALSE","America/Chicago"
"56585","47.08896","-96.24492","Ulen","MN","Minnesota","TRUE","","1074","3.3","27027","Clay","{""27027"": 66.79, ""27005"": 32.43, ""27107"": 0.78}","Clay|Becker|Norman","27027|27005|27107","FALSE","FALSE","America/Chicago"
"56586","46.32324","-95.84","Underwood","MN","Minnesota","TRUE","","1882","9.9","27111","Otter Tail","{""27111"": 100}","Otter Tail","27111","FALSE","FALSE","America/Chicago"
"56587","46.63721","-95.8628","Vergas","MN","Minnesota","TRUE","","1228","8.9","27111","Otter Tail","{""27111"": 100}","Otter Tail","27111","FALSE","FALSE","America/Chicago"
"56588","46.22028","-95.5006","Vining","MN","Minnesota","TRUE","","420","3.4","27111","Otter Tail","{""27111"": 100}","Otter Tail","27111","FALSE","FALSE","America/Chicago"
"56589","47.17959","-95.71984","Waubun","MN","Minnesota","TRUE","","1896","3.0","27087","Mahnomen","{""27087"": 59.89, ""27005"": 26.2, ""27029"": 13.91}","Mahnomen|Becker|Clearwater","27087|27005|27029","FALSE","FALSE","America/Chicago"
"56590","46.03514","-96.16093","Wendell","MN","Minnesota","TRUE","","377","1.8","27051","Grant","{""27051"": 99.4, ""27111"": 0.6}","Grant|Otter Tail","27051|27111","FALSE","FALSE","America/Chicago"
"56591","47.09968","-95.84357","White Earth","MN","Minnesota","TRUE","","641","92.2","27005","Becker","{""27005"": 100}","Becker","27005","FALSE","FALSE","America/Chicago"
"56592","47.53542","-96.00769","Winger","MN","Minnesota","TRUE","","472","3.1","27119","Polk","{""27119"": 89.96, ""27087"": 10.04}","Polk|Mahnomen","27119|27087","FALSE","FALSE","America/Chicago"
"56594","46.54906","-96.64493","Wolverton","MN","Minnesota","TRUE","","451","1.9","27167","Wilkin","{""27167"": 100}","Wilkin","27167","FALSE","FALSE","America/Chicago"
"56601","47.50985","-94.84921","Bemidji","MN","Minnesota","TRUE","","34176","35.6","27007","Beltrami","{""27007"": 83.99, ""27057"": 16.01}","Beltrami|Hubbard","27007|27057","FALSE","FALSE","America/Chicago"
"56621","47.40975","-95.41597","Bagley","MN","Minnesota","TRUE","","4475","5.4","27029","Clearwater","{""27029"": 98.02, ""27119"": 1.69, ""27087"": 0.29}","Clearwater|Polk|Mahnomen","27029|27119|27087","FALSE","FALSE","America/Chicago"
"56623","48.59722","-94.56913","Baudette","MN","Minnesota","TRUE","","2743","2.4","27077","Lake of the Woods","{""27077"": 82.75, ""27071"": 17.25}","Lake of the Woods|Koochiching","27077|27071","FALSE","FALSE","America/Chicago"
"56626","47.36404","-94.18421","Bena","MN","Minnesota","TRUE","","221","0.9","27021","Cass","{""27021"": 100}","Cass","27021","FALSE","FALSE","America/Chicago"
"56627","48.1953","-94.04118","Big Falls","MN","Minnesota","TRUE","","222","0.1","27071","Koochiching","{""27071"": 100}","Koochiching","27071","FALSE","FALSE","America/Chicago"
"56628","47.69575","-93.5215","Bigfork","MN","Minnesota","TRUE","","1580","1.8","27061","Itasca","{""27061"": 100}","Itasca","27061","FALSE","FALSE","America/Chicago"
"56629","48.51494","-94.12546","Birchdale","MN","Minnesota","TRUE","","172","0.2","27071","Koochiching","{""27071"": 100}","Koochiching","27071","FALSE","FALSE","America/Chicago"
"56630","47.74432","-94.49852","Blackduck","MN","Minnesota","TRUE","","2110","2.6","27007","Beltrami","{""27007"": 71.1, ""27061"": 28.9}","Beltrami|Itasca","27007|27061","FALSE","FALSE","America/Chicago"
"56633","47.31957","-94.50911","Cass Lake","MN","Minnesota","TRUE","","4895","8.7","27021","Cass","{""27021"": 80.27, ""27007"": 13.57, ""27057"": 6.16}","Cass|Beltrami|Hubbard","27021|27007|27057","FALSE","FALSE","America/Chicago"
"56634","47.68577","-95.40169","Clearbrook","MN","Minnesota","TRUE","","1775","5.7","27029","Clearwater","{""27029"": 100}","Clearwater","27029","FALSE","FALSE","America/Chicago"
"56636","47.40283","-93.86518","Deer River","MN","Minnesota","TRUE","","5119","4.5","27061","Itasca","{""27061"": 74.49, ""27021"": 25.51}","Itasca|Cass","27061|27021","FALSE","FALSE","America/Chicago"
"56637","47.61872","-93.83941","Talmoon","MN","Minnesota","TRUE","","161","2.4","27061","Itasca","{""27061"": 100}","Itasca","27061","FALSE","FALSE","America/Chicago"
"56639","47.90275","-93.53399","Effie","MN","Minnesota","TRUE","","407","0.5","27061","Itasca","{""27061"": 52.82, ""27071"": 47.18}","Itasca|Koochiching","27061|27071","FALSE","FALSE","America/Chicago"
"56641","47.19848","-94.25804","Federal Dam","MN","Minnesota","TRUE","","402","4.9","27021","Cass","{""27021"": 100}","Cass","27021","FALSE","FALSE","America/Chicago"
"56644","47.78095","-95.51263","Gonvick","MN","Minnesota","TRUE","","652","2.6","27029","Clearwater","{""27029"": 95.07, ""27119"": 4.93}","Clearwater|Polk","27029|27119","FALSE","FALSE","America/Chicago"
"56646","47.78925","-95.62865","Gully","MN","Minnesota","TRUE","","421","2.2","27119","Polk","{""27119"": 91.61, ""27029"": 8.39}","Polk|Clearwater","27119|27029","FALSE","FALSE","America/Chicago"
"56647","47.68782","-94.62187","Hines","MN","Minnesota","TRUE","","838","4.1","27007","Beltrami","{""27007"": 100}","Beltrami","27007","FALSE","FALSE","America/Chicago"
"56649","48.53122","-93.13224","International Falls","MN","Minnesota","TRUE","","9066","12.3","27071","Koochiching","{""27071"": 54.86, ""27137"": 45.14}","Koochiching|St. Louis","27071|27137","FALSE","FALSE","America/Chicago"
"56650","47.9979","-94.56351","Kelliher","MN","Minnesota","TRUE","","989","2.1","27007","Beltrami","{""27007"": 100}","Beltrami","27007","FALSE","FALSE","America/Chicago"
"56651","47.43883","-95.6172","Lengby","MN","Minnesota","TRUE","","574","3.1","27087","Mahnomen","{""27087"": 82.59, ""27119"": 17.41}","Mahnomen|Polk","27087|27119","FALSE","FALSE","America/Chicago"
"56652","47.71104","-95.23721","Leonard","MN","Minnesota","TRUE","","474","2.8","27029","Clearwater","{""27029"": 88.41, ""27007"": 11.59}","Clearwater|Beltrami","27029|27007","FALSE","FALSE","America/Chicago"
"56653","48.28327","-93.58558","Littlefork","MN","Minnesota","TRUE","","1247","1.1","27071","Koochiching","{""27071"": 100}","Koochiching","27071","FALSE","FALSE","America/Chicago"
"56654","48.47285","-93.94153","Loman","MN","Minnesota","TRUE","","87","0.3","27071","Koochiching","{""27071"": 100}","Koochiching","27071","FALSE","FALSE","America/Chicago"
"56655","46.98292","-94.23014","Longville","MN","Minnesota","TRUE","","1420","5.7","27021","Cass","{""27021"": 100}","Cass","27021","FALSE","FALSE","America/Chicago"
"56657","47.57237","-93.61544","Marcell","MN","Minnesota","TRUE","","177","1.3","27061","Itasca","{""27061"": 100}","Itasca","27061","FALSE","FALSE","America/Chicago"
"56658","48.11248","-93.93302","Margie","MN","Minnesota","TRUE","","0","0.0","27071","Koochiching","{""27071"": 100}","Koochiching","27071","FALSE","FALSE","America/Chicago"
"56659","47.62116","-94.01899","Max","MN","Minnesota","TRUE","","172","2.0","27061","Itasca","{""27061"": 100}","Itasca","27061","FALSE","FALSE","America/Chicago"
"56660","47.96653","-94.17022","Mizpah","MN","Minnesota","TRUE","","246","0.7","27071","Koochiching","{""27071"": 100}","Koochiching","27071","FALSE","FALSE","America/Chicago"
"56661","47.84302","-94.13856","Northome","MN","Minnesota","TRUE","","990","1.0","27071","Koochiching","{""27071"": 49.63, ""27061"": 43.96, ""27007"": 6.41}","Koochiching|Itasca|Beltrami","27071|27061|27007","FALSE","FALSE","America/Chicago"
"56662","46.84524","-93.89926","Outing","MN","Minnesota","TRUE","","510","3.2","27021","Cass","{""27021"": 100}","Cass","27021","FALSE","FALSE","America/Chicago"
"56663","47.49997","-94.45431","Pennington","MN","Minnesota","TRUE","","149","1.4","27007","Beltrami","{""27007"": 100}","Beltrami","27007","FALSE","FALSE","America/Chicago"
"56666","48.03391","-94.8365","Ponemah","MN","Minnesota","TRUE","","1169","10.6","27007","Beltrami","{""27007"": 100}","Beltrami","27007","FALSE","FALSE","America/Chicago"
"56667","47.73569","-94.94199","Puposky","MN","Minnesota","TRUE","","838","3.3","27007","Beltrami","{""27007"": 100}","Beltrami","27007","FALSE","FALSE","America/Chicago"
"56668","48.61454","-93.3467","Ranier","MN","Minnesota","TRUE","","177","333.7","27071","Koochiching","{""27071"": 100}","Koochiching","27071","FALSE","FALSE","America/Winnipeg"
"56669","48.37718","-93.22655","Kabetogama","MN","Minnesota","TRUE","","220","0.3","27071","Koochiching","{""27071"": 86.12, ""27137"": 13.88}","Koochiching|St. Louis","27071|27137","FALSE","FALSE","America/Chicago"
"56670","47.85001","-94.86912","Redby","MN","Minnesota","TRUE","","1218","16.7","27007","Beltrami","{""27007"": 100}","Beltrami","27007","FALSE","FALSE","America/Chicago"
"56671","47.94006","-95.31791","Redlake","MN","Minnesota","TRUE","","3069","3.7","27029","Clearwater","{""27029"": 58.11, ""27007"": 41.89}","Clearwater|Beltrami","27029|27007","FALSE","FALSE","America/Chicago"
"56672","47.0734","-94.02267","Remer","MN","Minnesota","TRUE","","1931","1.9","27021","Cass","{""27021"": 100}","Cass","27021","FALSE","FALSE","America/Chicago"
"56673","48.74365","-95.13896","Roosevelt","MN","Minnesota","TRUE","","510","1.0","27077","Lake of the Woods","{""27077"": 81.19, ""27135"": 18.81}","Lake of the Woods|Roseau","27077|27135","FALSE","FALSE","America/Chicago"
"56676","47.52188","-95.19877","Shevlin","MN","Minnesota","TRUE","","1686","3.0","27029","Clearwater","{""27029"": 61.48, ""27007"": 38.52}","Clearwater|Beltrami","27029|27007","FALSE","FALSE","America/Chicago"
"56678","47.4298","-95.11768","Solway","MN","Minnesota","TRUE","","1706","5.2","27007","Beltrami","{""27007"": 52.41, ""27057"": 43.0, ""27029"": 4.59}","Beltrami|Hubbard|Clearwater","27007|27057|27029","FALSE","FALSE","America/Chicago"
"56680","47.6456","-93.96124","Spring Lake","MN","Minnesota","TRUE","","104","1.8","27061","Itasca","{""27061"": 100}","Itasca","27061","FALSE","FALSE","America/Chicago"
"56681","47.5488","-94.25132","Squaw Lake","MN","Minnesota","TRUE","","263","0.6","27061","Itasca","{""27061"": 100}","Itasca","27061","FALSE","FALSE","America/Chicago"
"56683","47.72124","-94.7512","Tenstrike","MN","Minnesota","TRUE","","579","3.8","27007","Beltrami","{""27007"": 100}","Beltrami","27007","FALSE","FALSE","America/Chicago"
"56684","47.87109","-95.70401","Trail","MN","Minnesota","TRUE","","377","1.2","27119","Polk","{""27119"": 62.13, ""27113"": 33.0, ""27125"": 4.87}","Polk|Pennington|Red Lake","27119|27113|27125","FALSE","FALSE","America/Chicago"
"56685","48.23841","-94.51997","Waskish","MN","Minnesota","TRUE","","120","0.4","27007","Beltrami","{""27007"": 100}","Beltrami","27007","FALSE","FALSE","America/Chicago"
"56686","48.78595","-94.91001","Williams","MN","Minnesota","TRUE","","937","1.9","27077","Lake of the Woods","{""27077"": 100}","Lake of the Woods","27077","FALSE","FALSE","America/Chicago"
"56688","47.7699","-93.89172","Wirt","MN","Minnesota","TRUE","","138","0.5","27061","Itasca","{""27061"": 100}","Itasca","27061","FALSE","FALSE","America/Chicago"
"56701","48.12021","-96.1994","Thief River Falls","MN","Minnesota","TRUE","","12956","13.1","27113","Pennington","{""27113"": 74.38, ""27089"": 23.78, ""27119"": 1.84}","Pennington|Marshall|Polk","27113|27089|27119","FALSE","FALSE","America/Chicago"
"56710","48.2182","-96.99776","Alvarado","MN","Minnesota","TRUE","","448","3.9","27089","Marshall","{""27089"": 81.42, ""27119"": 18.58}","Marshall|Polk","27089|27119","FALSE","FALSE","America/Chicago"
"56711","49.09907","-94.97591","Angle Inlet","MN","Minnesota","TRUE","","5","0.0","27077","Lake of the Woods","{""27077"": 100}","Lake of the Woods","27077","FALSE","FALSE","America/Chicago"
"56713","48.3487","-96.81717","Argyle","MN","Minnesota","TRUE","","953","2.0","27089","Marshall","{""27089"": 100}","Marshall","27089","FALSE","FALSE","America/Chicago"
"56714","48.78845","-96.00529","Badger","MN","Minnesota","TRUE","","1193","2.3","27135","Roseau","{""27135"": 100}","Roseau","27135","FALSE","FALSE","America/Chicago"
"56715","47.80636","-95.94904","Brooks","MN","Minnesota","TRUE","","283","1.9","27125","Red Lake","{""27125"": 95.85, ""27119"": 4.15}","Red Lake|Polk","27125|27119","FALSE","FALSE","America/Chicago"
"56716","47.74189","-96.55522","Crookston","MN","Minnesota","TRUE","","9118","10.8","27119","Polk","{""27119"": 98.5, ""27125"": 1.5}","Polk|Red Lake","27119|27125","FALSE","FALSE","America/Chicago"
"56720","48.56788","-96.90632","Donaldson","MN","Minnesota","TRUE","","8","0.4","27069","Kittson","{""27069"": 100}","Kittson","27069","FALSE","FALSE","America/Chicago"
"56721","47.97108","-96.94336","East Grand Forks","MN","Minnesota","TRUE","","10827","21.7","27119","Polk","{""27119"": 100}","Polk","27119","FALSE","FALSE","America/Chicago"
"56722","47.9825","-96.64644","Euclid","MN","Minnesota","TRUE","","365","1.0","27119","Polk","{""27119"": 100}","Polk","27119","FALSE","FALSE","America/Chicago"
"56723","47.80493","-96.8059","Fisher","MN","Minnesota","TRUE","","874","2.8","27119","Polk","{""27119"": 100}","Polk","27119","FALSE","FALSE","America/Chicago"
"56724","48.44534","-95.73473","Gatzke","MN","Minnesota","TRUE","","144","0.4","27089","Marshall","{""27089"": 98.38, ""27135"": 1.62}","Marshall|Roseau","27089|27135","FALSE","FALSE","America/Chicago"
"56725","48.1477","-95.70485","Goodridge","MN","Minnesota","TRUE","","914","0.8","27113","Pennington","{""27113"": 42.4, ""27089"": 30.15, ""27007"": 27.45}","Pennington|Marshall|Beltrami","27113|27089|27007","FALSE","FALSE","America/Chicago"
"56726","48.7258","-96.22712","Greenbush","MN","Minnesota","TRUE","","1661","2.4","27135","Roseau","{""27135"": 100}","Roseau","27135","FALSE","FALSE","America/Chicago"
"56727","48.34945","-95.38946","Grygla","MN","Minnesota","TRUE","","892","0.6","27007","Beltrami","{""27007"": 85.35, ""27089"": 14.65}","Beltrami|Marshall","27007|27089","FALSE","FALSE","America/Chicago"
"56728","48.78736","-96.99149","Hallock","MN","Minnesota","TRUE","","1209","2.5","27069","Kittson","{""27069"": 100}","Kittson","27069","FALSE","FALSE","America/Chicago"
"56729","48.66558","-96.59438","Halma","MN","Minnesota","TRUE","","124","1.1","27069","Kittson","{""27069"": 100}","Kittson","27069","FALSE","FALSE","America/Chicago"
"56731","48.90771","-97.07475","Humboldt","MN","Minnesota","TRUE","","112","1.1","27069","Kittson","{""27069"": 100}","Kittson","27069","FALSE","FALSE","America/Chicago"
"56732","48.5863","-96.49276","Karlstad","MN","Minnesota","TRUE","","1038","2.5","27069","Kittson","{""27069"": 70.59, ""27089"": 18.09, ""27135"": 11.32}","Kittson|Marshall|Roseau","27069|27089|27135","FALSE","FALSE","America/Chicago"
"56733","48.63342","-96.89149","Kennedy","MN","Minnesota","TRUE","","378","1.0","27069","Kittson","{""27069"": 100}","Kittson","27069","FALSE","FALSE","America/Chicago"
"56734","48.76776","-96.58134","Lake Bronson","MN","Minnesota","TRUE","","608","1.4","27069","Kittson","{""27069"": 100}","Kittson","27069","FALSE","FALSE","America/Chicago"
"56735","48.91328","-96.63659","Lancaster","MN","Minnesota","TRUE","","703","0.7","27069","Kittson","{""27069"": 81.23, ""27135"": 18.77}","Kittson|Roseau","27069|27135","FALSE","FALSE","America/Chicago"
"56736","47.71212","-96.20567","Mentor","MN","Minnesota","TRUE","","775","2.7","27119","Polk","{""27119"": 84.95, ""27125"": 15.05}","Polk|Red Lake","27119|27125","FALSE","FALSE","America/Chicago"
"56737","48.41144","-96.01081","Middle River","MN","Minnesota","TRUE","","766","1.2","27089","Marshall","{""27089"": 100}","Marshall","27089","FALSE","FALSE","America/Chicago"
"56738","48.34448","-96.33456","Newfolden","MN","Minnesota","TRUE","","1411","3.0","27089","Marshall","{""27089"": 100}","Marshall","27089","FALSE","FALSE","America/Chicago"
"56742","47.92728","-95.82076","Oklee","MN","Minnesota","TRUE","","882","3.1","27125","Red Lake","{""27125"": 68.78, ""27113"": 27.17, ""27119"": 4.05}","Red Lake|Pennington|Polk","27125|27113|27119","FALSE","FALSE","America/Chicago"
"56744","48.23456","-97.1089","Oslo","MN","Minnesota","TRUE","","530","2.1","27089","Marshall","{""27089"": 49.96, ""27119"": 23.26, ""38099"": 23.11, ""38035"": 3.67}","Marshall|Polk|Walsh|Grand Forks","27089|27119|38099|38035","FALSE","FALSE","America/Chicago"
"56748","47.92066","-96.00743","Plummer","MN","Minnesota","TRUE","","583","2.6","27125","Red Lake","{""27125"": 80.49, ""27113"": 19.51}","Red Lake|Pennington","27125|27113","FALSE","FALSE","America/Chicago"
"56750","47.89027","-96.30172","Red Lake Falls","MN","Minnesota","TRUE","","2322","3.8","27125","Red Lake","{""27125"": 79.33, ""27113"": 13.89, ""27119"": 6.78}","Red Lake|Pennington|Polk","27125|27113|27119","FALSE","FALSE","America/Chicago"
"56751","48.80929","-95.76035","Roseau","MN","Minnesota","TRUE","","5716","4.7","27135","Roseau","{""27135"": 100}","Roseau","27135","FALSE","FALSE","America/Chicago"
"56754","47.99065","-96.18199","Saint Hilaire","MN","Minnesota","TRUE","","536","5.4","27113","Pennington","{""27113"": 91.0, ""27125"": 9.0}","Pennington|Red Lake","27113|27125","FALSE","FALSE","America/Chicago"
"56755","48.97141","-97.1152","Saint Vincent","MN","Minnesota","TRUE","","64","0.6","27069","Kittson","{""27069"": 100}","Kittson","27069","FALSE","FALSE","America/Chicago"
"56756","48.90302","-95.56388","Salol","MN","Minnesota","TRUE","","664","2.0","27135","Roseau","{""27135"": 100}","Roseau","27135","FALSE","FALSE","America/Chicago"
"56757","48.47641","-96.90596","Stephen","MN","Minnesota","TRUE","","878","1.4","27089","Marshall","{""27089"": 94.96, ""27069"": 5.04}","Marshall|Kittson","27089|27069","FALSE","FALSE","America/Chicago"
"56758","48.46201","-96.51891","Strandquist","MN","Minnesota","TRUE","","298","1.1","27089","Marshall","{""27089"": 100}","Marshall","27089","FALSE","FALSE","America/Chicago"
"56759","48.55188","-96.08011","Strathcona","MN","Minnesota","TRUE","","318","0.7","27135","Roseau","{""27135"": 63.75, ""27089"": 36.25}","Roseau|Marshall","27135|27089","FALSE","FALSE","America/Chicago"
"56760","48.24037","-96.44586","Viking","MN","Minnesota","TRUE","","463","2.1","27089","Marshall","{""27089"": 100}","Marshall","27089","FALSE","FALSE","America/Chicago"
"56761","48.60862","-95.69725","Wannaska","MN","Minnesota","TRUE","","411","1.6","27135","Roseau","{""27135"": 100}","Roseau","27135","FALSE","FALSE","America/Chicago"
"56762","48.1688","-96.7415","Warren","MN","Minnesota","TRUE","","2431","2.8","27119","Polk","{""27119"": 51.75, ""27089"": 48.25}","Polk|Marshall","27119|27089","FALSE","FALSE","America/Chicago"
"56763","48.80879","-95.34167","Warroad","MN","Minnesota","TRUE","","5203","7.6","27135","Roseau","{""27135"": 100}","Roseau","27135","FALSE","FALSE","America/Chicago"
"57001","42.9981","-96.65492","Alcester","SD","South Dakota","TRUE","","1583","6.2","46127","Union","{""46127"": 93.43, ""46083"": 6.57}","Union|Lincoln","46127|46083","FALSE","FALSE","America/Chicago"
"57002","44.28785","-96.67752","Aurora","SD","South Dakota","TRUE","","1439","8.7","46011","Brookings","{""46011"": 92.4, ""46101"": 7.6}","Brookings|Moody","46011|46101","FALSE","FALSE","America/Chicago"
"57003","43.73705","-96.75784","Baltic","SD","South Dakota","TRUE","","1911","14.5","46099","Minnehaha","{""46099"": 100}","Minnehaha","46099","FALSE","FALSE","America/Chicago"
"57004","43.07571","-96.79376","Beresford","SD","South Dakota","TRUE","","3919","7.8","46083","Lincoln","{""46083"": 47.03, ""46127"": 26.52, ""46027"": 26.46}","Lincoln|Union|Clay","46083|46127|46027","FALSE","FALSE","America/Chicago"
"57005","43.59281","-96.58728","Brandon","SD","South Dakota","TRUE","","12192","96.2","46099","Minnehaha","{""46099"": 100}","Minnehaha","46099","FALSE","FALSE","America/Chicago"
"57006","44.31588","-96.79518","Brookings","SD","South Dakota","TRUE","","22749","57.9","46011","Brookings","{""46011"": 88.81, ""46101"": 11.19}","Brookings|Moody","46011|46101","FALSE","FALSE","America/Chicago"
"57007","44.31924","-96.78408","Brookings","SD","South Dakota","TRUE","","2629","3058.4","46011","Brookings","{""46011"": 100}","Brookings","46011","FALSE","FALSE","America/Chicago"
"57010","42.8119","-96.82403","Burbank","SD","South Dakota","TRUE","","510","3.1","46027","Clay","{""46027"": 69.56, ""46127"": 30.44}","Clay|Union","46027|46127","FALSE","FALSE","America/Chicago"
"57012","43.59683","-97.27986","Canistota","SD","South Dakota","TRUE","","1019","4.7","46087","McCook","{""46087"": 100}","McCook","46087","FALSE","FALSE","America/Chicago"
"57013","43.28595","-96.62178","Canton","SD","South Dakota","TRUE","","4429","12.9","46083","Lincoln","{""46083"": 100}","Lincoln","46083","FALSE","FALSE","America/Chicago"
"57014","43.11238","-96.95347","Centerville","SD","South Dakota","TRUE","","1723","4.9","46125","Turner","{""46125"": 42.51, ""46027"": 32.96, ""46083"": 24.53}","Turner|Clay|Lincoln","46125|46027|46083","FALSE","FALSE","America/Chicago"
"57015","43.42182","-96.98006","Chancellor","SD","South Dakota","TRUE","","783","6.1","46125","Turner","{""46125"": 97.97, ""46099"": 2.03}","Turner|Minnehaha","46125|46099","FALSE","FALSE","America/Chicago"
"57016","43.88874","-96.96139","Chester","SD","South Dakota","TRUE","","758","11.0","46079","Lake","{""46079"": 100}","Lake","46079","FALSE","FALSE","America/Chicago"
"57017","44.02246","-96.82788","Colman","SD","South Dakota","TRUE","","1354","4.8","46101","Moody","{""46101"": 99.07, ""46079"": 0.93}","Moody|Lake","46101|46079","FALSE","FALSE","America/Chicago"
"57018","43.79995","-96.97901","Colton","SD","South Dakota","TRUE","","1503","6.8","46099","Minnehaha","{""46099"": 96.5, ""46079"": 3.5}","Minnehaha|Lake","46099|46079","FALSE","FALSE","America/Chicago"
"57020","43.67796","-96.82665","Crooks","SD","South Dakota","TRUE","","1702","36.8","46099","Minnehaha","{""46099"": 100}","Minnehaha","46099","FALSE","FALSE","America/Chicago"
"57021","43.2723","-96.97797","Davis","SD","South Dakota","TRUE","","459","5.9","46125","Turner","{""46125"": 100}","Turner","46125","FALSE","FALSE","America/Chicago"
"57022","43.85081","-96.7327","Dell Rapids","SD","South Dakota","TRUE","","5876","16.0","46099","Minnehaha","{""46099"": 51.2, ""46101"": 45.92, ""46079"": 2.88}","Minnehaha|Moody|Lake","46099|46101|46079","FALSE","FALSE","America/Chicago"
"57024","43.98538","-96.68146","Egan","SD","South Dakota","TRUE","","521","6.9","46101","Moody","{""46101"": 100}","Moody","46101","FALSE","FALSE","America/Chicago"
"57025","42.71718","-96.68894","Elk Point","SD","South Dakota","TRUE","","2933","9.1","46127","Union","{""46127"": 100}","Union","46127","FALSE","FALSE","America/Chicago"
"57026","44.24996","-96.50149","Elkton","SD","South Dakota","TRUE","","1583","3.4","46011","Brookings","{""46011"": 56.79, ""46101"": 19.92, ""27081"": 13.62, ""27117"": 9.67}","Brookings|Moody|Lincoln|Pipestone","46011|46101|27081|27117","FALSE","FALSE","America/Chicago"
"57027","43.19461","-96.50933","Fairview","SD","South Dakota","TRUE","","138","5.6","46083","Lincoln","{""46083"": 100}","Lincoln","46083","FALSE","FALSE","America/Chicago"
"57028","44.05766","-96.60443","Flandreau","SD","South Dakota","TRUE","","3194","6.1","46101","Moody","{""46101"": 100}","Moody","46101","FALSE","FALSE","America/Chicago"
"57029","43.33696","-97.47936","Freeman","SD","South Dakota","TRUE","","2521","5.1","46067","Hutchinson","{""46067"": 76.79, ""46125"": 23.21}","Hutchinson|Turner","46067|46125","FALSE","FALSE","America/Chicago"
"57030","43.73435","-96.53549","Garretson","SD","South Dakota","TRUE","","2845","8.3","46099","Minnehaha","{""46099"": 89.97, ""27133"": 10.03}","Minnehaha|Rock","46099|27133","FALSE","FALSE","America/Chicago"
"57031","42.87058","-97.18655","Gayville","SD","South Dakota","TRUE","","729","7.2","46135","Yankton","{""46135"": 77.43, ""46027"": 22.57}","Yankton|Clay","46135|46027","FALSE","FALSE","America/Chicago"
"57032","43.42326","-96.68708","Harrisburg","SD","South Dakota","TRUE","","8227","65.0","46083","Lincoln","{""46083"": 100}","Lincoln","46083","FALSE","FALSE","America/Chicago"
"57033","43.61613","-96.96037","Hartford","SD","South Dakota","TRUE","","5906","18.9","46099","Minnehaha","{""46099"": 100}","Minnehaha","46099","FALSE","FALSE","America/Chicago"
"57034","43.12493","-96.54575","Hudson","SD","South Dakota","TRUE","","863","4.4","46083","Lincoln","{""46083"": 83.55, ""46127"": 8.73, ""19167"": 7.72}","Lincoln|Union|Sioux","46083|46127|19167","FALSE","FALSE","America/Chicago"
"57035","43.64651","-97.07627","Humboldt","SD","South Dakota","TRUE","","1076","4.8","46099","Minnehaha","{""46099"": 92.3, ""46087"": 7.7}","Minnehaha|McCook","46099|46087","FALSE","FALSE","America/Chicago"
"57036","43.27067","-97.14364","Hurley","SD","South Dakota","TRUE","","702","2.9","46125","Turner","{""46125"": 100}","Turner","46125","FALSE","FALSE","America/Chicago"
"57037","43.10146","-97.25318","Irene","SD","South Dakota","TRUE","","1040","3.9","46135","Yankton","{""46135"": 82.13, ""46125"": 11.07, ""46027"": 6.8}","Yankton|Turner|Clay","46135|46125|46027","FALSE","FALSE","America/Chicago"
"57038","42.57924","-96.57957","Jefferson","SD","South Dakota","TRUE","","1603","12.2","46127","Union","{""46127"": 100}","Union","46127","FALSE","FALSE","America/Chicago"
"57039","43.33659","-96.86755","Lennox","SD","South Dakota","TRUE","","3752","15.8","46083","Lincoln","{""46083"": 92.11, ""46125"": 7.89}","Lincoln|Turner","46083|46125","FALSE","FALSE","America/Chicago"
"57040","43.06206","-97.58582","Lesterville","SD","South Dakota","TRUE","","296","1.6","46135","Yankton","{""46135"": 96.52, ""46009"": 3.48}","Yankton|Bon Homme","46135|46009","FALSE","FALSE","America/Chicago"
"57041","43.72184","-96.88415","Lyons","SD","South Dakota","TRUE","","75","9.2","46099","Minnehaha","{""46099"": 100}","Minnehaha","46099","FALSE","FALSE","America/Chicago"
"57042","43.97744","-97.15133","Madison","SD","South Dakota","TRUE","","8186","16.4","46079","Lake","{""46079"": 99.22, ""46087"": 0.78}","Lake|McCook","46079|46087","FALSE","FALSE","America/Chicago"
"57043","43.41954","-97.30889","Marion","SD","South Dakota","TRUE","","1414","4.8","46125","Turner","{""46125"": 85.47, ""46087"": 11.1, ""46067"": 3.43}","Turner|McCook|Hutchinson","46125|46087|46067","FALSE","FALSE","America/Chicago"
"57045","43.20051","-97.52425","Menno","SD","South Dakota","TRUE","","1129","3.6","46067","Hutchinson","{""46067"": 69.3, ""46135"": 28.53, ""46125"": 2.17}","Hutchinson|Yankton|Turner","46067|46135|46125","FALSE","FALSE","America/Chicago"
"57046","42.9563","-97.30113","Mission Hill","SD","South Dakota","TRUE","","800","6.1","46135","Yankton","{""46135"": 100}","Yankton","46135","FALSE","FALSE","America/Chicago"
"57047","43.51755","-97.21525","Monroe","SD","South Dakota","TRUE","","288","7.5","46087","McCook","{""46087"": 77.04, ""46125"": 22.96}","McCook|Turner","46087|46125","FALSE","FALSE","America/Chicago"
"57048","43.74081","-97.20034","Montrose","SD","South Dakota","TRUE","","1286","3.8","46087","McCook","{""46087"": 90.15, ""46099"": 9.85}","McCook|Minnehaha","46087|46099","FALSE","FALSE","America/Chicago"
"57049","42.52486","-96.50732","North Sioux City","SD","South Dakota","TRUE","","7476","203.7","46127","Union","{""46127"": 100}","Union","46127","FALSE","FALSE","America/Chicago"
"57050","44.15725","-97.01467","Nunda","SD","South Dakota","TRUE","","340","3.3","46079","Lake","{""46079"": 100}","Lake","46079","FALSE","FALSE","America/Chicago"
"57051","44.21741","-97.35066","Oldham","SD","South Dakota","TRUE","","222","1.1","46077","Kingsbury","{""46077"": 77.72, ""46097"": 17.63, ""46079"": 4.65}","Kingsbury|Miner|Lake","46077|46097|46079","FALSE","FALSE","America/Chicago"
"57052","43.29471","-97.7054","Olivet","SD","South Dakota","TRUE","","255","1.1","46067","Hutchinson","{""46067"": 100}","Hutchinson","46067","FALSE","FALSE","America/Chicago"
"57053","43.40963","-97.13716","Parker","SD","South Dakota","TRUE","","2112","5.7","46125","Turner","{""46125"": 92.03, ""46087"": 5.85, ""46099"": 2.12}","Turner|McCook|Minnehaha","46125|46087|46099","FALSE","FALSE","America/Chicago"
"57054","44.12162","-97.25799","Ramona","SD","South Dakota","TRUE","","544","1.8","46079","Lake","{""46079"": 99.14, ""46097"": 0.86}","Lake|Miner","46079|46097","FALSE","FALSE","America/Chicago"
"57055","43.66638","-96.73973","Renner","SD","South Dakota","TRUE","","1252","28.7","46099","Minnehaha","{""46099"": 100}","Minnehaha","46099","FALSE","FALSE","America/Chicago"
"57057","44.10261","-96.95717","Rutland","SD","South Dakota","TRUE","","271","3.3","46079","Lake","{""46079"": 93.98, ""46101"": 6.02}","Lake|Moody","46079|46101","FALSE","FALSE","America/Chicago"
"57058","43.74602","-97.40468","Salem","SD","South Dakota","TRUE","","2000","4.9","46087","McCook","{""46087"": 95.58, ""46079"": 2.54, ""46097"": 1.88}","McCook|Lake|Miner","46087|46079|46097","FALSE","FALSE","America/Chicago"
"57059","43.12476","-97.76365","Scotland","SD","South Dakota","TRUE","","1218","3.2","46009","Bon Homme","{""46009"": 78.49, ""46067"": 21.51}","Bon Homme|Hutchinson","46009|46067","FALSE","FALSE","America/Chicago"
"57061","44.24452","-97.04399","Sinai","SD","South Dakota","TRUE","","163","171.1","46011","Brookings","{""46011"": 100}","Brookings","46011","FALSE","FALSE","America/Chicago"
"57062","42.85046","-97.95327","Springfield","SD","South Dakota","TRUE","","2460","9.5","46009","Bon Homme","{""46009"": 100}","Bon Homme","46009","FALSE","FALSE","America/Chicago"
"57063","42.92483","-97.68668","Tabor","SD","South Dakota","TRUE","","874","3.6","46009","Bon Homme","{""46009"": 79.93, ""46135"": 20.07}","Bon Homme|Yankton","46009|46135","FALSE","FALSE","America/Chicago"
"57064","43.45563","-96.87489","Tea","SD","South Dakota","TRUE","","6995","105.4","46083","Lincoln","{""46083"": 85.67, ""46125"": 14.33}","Lincoln|Turner","46083|46125","FALSE","FALSE","America/Chicago"
"57065","43.90041","-96.60631","Trent","SD","South Dakota","TRUE","","328","4.2","46101","Moody","{""46101"": 100}","Moody","46101","FALSE","FALSE","America/Chicago"
"57066","42.98874","-97.86703","Tyndall","SD","South Dakota","TRUE","","1484","5.0","46009","Bon Homme","{""46009"": 100}","Bon Homme","46009","FALSE","FALSE","America/Chicago"
"57067","43.04095","-97.47169","Utica","SD","South Dakota","TRUE","","257","1.8","46135","Yankton","{""46135"": 100}","Yankton","46135","FALSE","FALSE","America/Chicago"
"57068","43.57435","-96.49361","Valley Springs","SD","South Dakota","TRUE","","1670","14.0","46099","Minnehaha","{""46099"": 93.22, ""27133"": 6.78}","Minnehaha|Rock","46099|27133","FALSE","FALSE","America/Chicago"
"57069","42.84348","-96.98774","Vermillion","SD","South Dakota","TRUE","","12682","28.9","46027","Clay","{""46027"": 100}","Clay","46027","FALSE","FALSE","America/Chicago"
"57070","43.182","-97.1702","Viborg","SD","South Dakota","TRUE","","1296","5.6","46125","Turner","{""46125"": 88.06, ""46135"": 11.94}","Turner|Yankton","46125|46135","FALSE","FALSE","America/Chicago"
"57071","44.26986","-96.95934","Volga","SD","South Dakota","TRUE","","3161","10.2","46011","Brookings","{""46011"": 92.03, ""46079"": 6.39, ""46101"": 1.58}","Brookings|Lake|Moody","46011|46079|46101","FALSE","FALSE","America/Chicago"
"57072","42.98747","-97.20363","Volin","SD","South Dakota","TRUE","","701","3.6","46135","Yankton","{""46135"": 72.07, ""46027"": 27.93}","Yankton|Clay","46135|46027","FALSE","FALSE","America/Chicago"
"57073","43.00227","-97.05754","Wakonda","SD","South Dakota","TRUE","","508","2.8","46027","Clay","{""46027"": 95.58, ""46125"": 4.42}","Clay|Turner","46027|46125","FALSE","FALSE","America/Chicago"
"57075","43.99605","-96.96749","Wentworth","SD","South Dakota","TRUE","","1022","4.9","46079","Lake","{""46079"": 97.8, ""46101"": 2.2}","Lake|Moody","46079|46101","FALSE","FALSE","America/Chicago"
"57076","43.97673","-97.35307","Winfred","SD","South Dakota","TRUE","","410","1.5","46079","Lake","{""46079"": 53.38, ""46097"": 46.62}","Lake|Miner","46079|46097","FALSE","FALSE","America/Chicago"
"57077","43.31574","-96.75699","Worthing","SD","South Dakota","TRUE","","1285","11.1","46083","Lincoln","{""46083"": 100}","Lincoln","46083","FALSE","FALSE","America/Chicago"
"57078","42.91782","-97.44702","Yankton","SD","South Dakota","TRUE","","20052","69.6","46135","Yankton","{""46135"": 100}","Yankton","46135","FALSE","FALSE","America/Chicago"
"57103","43.538","-96.69241","Sioux Falls","SD","South Dakota","TRUE","","36574","1491.9","46099","Minnehaha","{""46099"": 100}","Minnehaha","46099","FALSE","FALSE","America/Chicago"
"57104","43.6041","-96.70442","Sioux Falls","SD","South Dakota","TRUE","","26117","331.9","46099","Minnehaha","{""46099"": 100}","Minnehaha","46099","FALSE","FALSE","America/Chicago"
"57105","43.52125","-96.73587","Sioux Falls","SD","South Dakota","TRUE","","22916","1176.7","46099","Minnehaha","{""46099"": 100}","Minnehaha","46099","FALSE","FALSE","America/Chicago"
"57106","43.50953","-96.83919","Sioux Falls","SD","South Dakota","TRUE","","49337","629.4","46099","Minnehaha","{""46099"": 66.7, ""46083"": 33.3}","Minnehaha|Lincoln","46099|46083","FALSE","FALSE","America/Chicago"
"57107","43.59468","-96.81962","Sioux Falls","SD","South Dakota","TRUE","","10402","85.9","46099","Minnehaha","{""46099"": 100}","Minnehaha","46099","FALSE","FALSE","America/Chicago"
"57108","43.47776","-96.70571","Sioux Falls","SD","South Dakota","TRUE","","30152","383.0","46083","Lincoln","{""46083"": 98.67, ""46099"": 1.33}","Lincoln|Minnehaha","46083|46099","FALSE","FALSE","America/Chicago"
"57110","43.54445","-96.63812","Sioux Falls","SD","South Dakota","TRUE","","19327","357.3","46099","Minnehaha","{""46099"": 100}","Minnehaha","46099","FALSE","FALSE","America/Chicago"
"57117","43.53124","-96.75497","Sioux Falls","SD","South Dakota","TRUE","","5","20.5","46099","Minnehaha","{""46099"": 100}","Minnehaha","46099","FALSE","FALSE","America/Chicago"
"57197","43.52455","-96.73862","Sioux Falls","SD","South Dakota","TRUE","","953","4383.9","46099","Minnehaha","{""46099"": 100}","Minnehaha","46099","FALSE","FALSE","America/Chicago"
"57201","44.93412","-97.09424","Watertown","SD","South Dakota","TRUE","","25930","31.4","46029","Codington","{""46029"": 99.1, ""46057"": 0.9}","Codington|Hamlin","46029|46057","FALSE","FALSE","America/Chicago"
"57212","44.38111","-97.14344","Arlington","SD","South Dakota","TRUE","","2134","3.6","46077","Kingsbury","{""46077"": 53.94, ""46011"": 41.72, ""46057"": 3.54, ""46079"": 0.8}","Kingsbury|Brookings|Hamlin|Lake","46077|46011|46057|46079","FALSE","FALSE","America/Chicago"
"57213","44.57112","-96.5323","Astoria","SD","South Dakota","TRUE","","407","3.3","46039","Deuel","{""46039"": 76.01, ""46011"": 23.99}","Deuel|Brookings","46039|46011","FALSE","FALSE","America/Chicago"
"57214","44.47764","-97.19575","Badger","SD","South Dakota","TRUE","","137","9.5","46077","Kingsbury","{""46077"": 100}","Kingsbury","46077","FALSE","FALSE","America/Chicago"
"57216","45.30041","-96.52471","Big Stone City","SD","South Dakota","TRUE","","1328","8.4","46051","Grant","{""46051"": 63.64, ""46109"": 36.36}","Grant|Roberts","46051|46109","FALSE","FALSE","America/Chicago"
"57217","45.0845","-97.67004","Bradley","SD","South Dakota","TRUE","","230","1.1","46025","Clark","{""46025"": 100}","Clark","46025","FALSE","FALSE","America/Chicago"
"57218","44.65787","-96.59624","Brandt","SD","South Dakota","TRUE","","338","1.9","46039","Deuel","{""46039"": 100}","Deuel","46039","FALSE","FALSE","America/Chicago"
"57219","45.2877","-97.801","Bristol","SD","South Dakota","TRUE","","506","1.1","46037","Day","{""46037"": 100}","Day","46037","FALSE","FALSE","America/Chicago"
"57220","44.45927","-96.92022","Bruce","SD","South Dakota","TRUE","","860","3.0","46011","Brookings","{""46011"": 100}","Brookings","46011","FALSE","FALSE","America/Chicago"
"57221","44.60654","-97.44853","Bryant","SD","South Dakota","TRUE","","987","3.2","46057","Hamlin","{""46057"": 73.24, ""46025"": 26.76}","Hamlin|Clark","46057|46025","FALSE","FALSE","America/Chicago"
"57223","44.71019","-97.00567","Castlewood","SD","South Dakota","TRUE","","1354","4.2","46057","Hamlin","{""46057"": 97.69, ""46039"": 2.31}","Hamlin|Deuel","46057|46039","FALSE","FALSE","America/Chicago"
"57224","45.81332","-97.15672","Claire City","SD","South Dakota","TRUE","","161","1.3","46109","Roberts","{""46109"": 100}","Roberts","46109","FALSE","FALSE","America/Chicago"
"57225","44.88359","-97.72676","Clark","SD","South Dakota","TRUE","","1770","2.4","46025","Clark","{""46025"": 100}","Clark","46025","FALSE","FALSE","America/Chicago"
"57226","44.78565","-96.72368","Clear Lake","SD","South Dakota","TRUE","","1815","3.7","46039","Deuel","{""46039"": 96.42, ""46057"": 3.58}","Deuel|Hamlin","46039|46057","FALSE","FALSE","America/Chicago"
"57227","45.36184","-96.72105","Corona","SD","South Dakota","TRUE","","400","3.5","46109","Roberts","{""46109"": 93.0, ""46051"": 7.0}","Roberts|Grant","46109|46051","FALSE","FALSE","America/Chicago"
"57231","44.3749","-97.58243","De Smet","SD","South Dakota","TRUE","","1800","2.8","46077","Kingsbury","{""46077"": 100}","Kingsbury","46077","FALSE","FALSE","America/Chicago"
"57232","45.61752","-97.38393","Eden","SD","South Dakota","TRUE","","411","2.1","46091","Marshall","{""46091"": 100}","Marshall","46091","FALSE","FALSE","America/Chicago"
"57233","44.50992","-97.3993","Erwin","SD","South Dakota","TRUE","","262","2.8","46077","Kingsbury","{""46077"": 100}","Kingsbury","46077","FALSE","FALSE","America/Chicago"
"57234","44.59719","-96.89929","Estelline","SD","South Dakota","TRUE","","1252","4.7","46039","Deuel","{""46039"": 47.98, ""46057"": 45.94, ""46011"": 6.07}","Deuel|Hamlin|Brookings","46039|46057|46011","FALSE","FALSE","America/Chicago"
"57235","45.06896","-97.31338","Florence","SD","South Dakota","TRUE","","881","2.6","46029","Codington","{""46029"": 94.95, ""46037"": 5.05}","Codington|Day","46029|46037","FALSE","FALSE","America/Chicago"
"57236","44.98724","-97.59033","Garden City","SD","South Dakota","TRUE","","131","0.9","46025","Clark","{""46025"": 100}","Clark","46025","FALSE","FALSE","America/Chicago"
"57237","44.79323","-96.51991","Gary","SD","South Dakota","TRUE","","691","2.7","46039","Deuel","{""46039"": 100}","Deuel","46039","FALSE","FALSE","America/Chicago"
"57238","44.87287","-96.86231","Goodwin","SD","South Dakota","TRUE","","415","2.2","46039","Deuel","{""46039"": 64.03, ""46029"": 31.23, ""46057"": 4.74}","Deuel|Codington|Hamlin","46039|46029|46057","FALSE","FALSE","America/Chicago"
"57239","45.51223","-97.30938","Grenville","SD","South Dakota","TRUE","","336","2.9","46037","Day","{""46037"": 100}","Day","46037","FALSE","FALSE","America/Chicago"
"57241","44.69742","-97.21747","Hayti","SD","South Dakota","TRUE","","976","3.7","46057","Hamlin","{""46057"": 100}","Hamlin","46057","FALSE","FALSE","America/Chicago"
"57242","44.77352","-97.35902","Hazel","SD","South Dakota","TRUE","","453","2.0","46057","Hamlin","{""46057"": 79.66, ""46029"": 20.34}","Hamlin|Codington","46057|46029","FALSE","FALSE","America/Chicago"
"57243","44.91177","-97.42072","Henry","SD","South Dakota","TRUE","","548","1.8","46029","Codington","{""46029"": 87.53, ""46025"": 10.89, ""46057"": 1.58}","Codington|Clark|Hamlin","46029|46025|46057","FALSE","FALSE","America/Chicago"
"57245","44.89365","-96.91835","Kranzburg","SD","South Dakota","TRUE","","178","276.6","46029","Codington","{""46029"": 100}","Codington","46029","FALSE","FALSE","America/Chicago"
"57246","45.05639","-96.66914","Labolt","SD","South Dakota","TRUE","","138","1.8","46051","Grant","{""46051"": 100}","Grant","46051","FALSE","FALSE","America/Chicago"
"57247","45.71675","-97.45817","Lake City","SD","South Dakota","TRUE","","199","1.0","46091","Marshall","{""46091"": 100}","Marshall","46091","FALSE","FALSE","America/Chicago"
"57248","44.58063","-97.19328","Lake Norden","SD","South Dakota","TRUE","","1114","6.3","46057","Hamlin","{""46057"": 83.26, ""46077"": 16.74}","Hamlin|Kingsbury","46057|46077","FALSE","FALSE","America/Chicago"
"57249","44.37111","-97.3646","Lake Preston","SD","South Dakota","TRUE","","879","2.3","46077","Kingsbury","{""46077"": 100}","Kingsbury","46077","FALSE","FALSE","America/Chicago"
"57251","45.27717","-96.93677","Marvin","SD","South Dakota","TRUE","","185","1.5","46051","Grant","{""46051"": 100}","Grant","46051","FALSE","FALSE","America/Chicago"
"57252","45.20507","-96.61053","Milbank","SD","South Dakota","TRUE","","4945","11.6","46051","Grant","{""46051"": 96.39, ""46109"": 3.61}","Grant|Roberts","46051|46109","FALSE","FALSE","America/Chicago"
"57255","45.86702","-96.94985","New Effington","SD","South Dakota","TRUE","","390","1.4","46109","Roberts","{""46109"": 95.48, ""38077"": 4.52}","Roberts|Richland","46109|38077","FALSE","FALSE","America/Chicago"
"57256","45.24918","-97.20156","Ortley","SD","South Dakota","TRUE","","176","1.5","46051","Grant","{""46051"": 62.22, ""46109"": 20.12, ""46037"": 12.97, ""46029"": 4.69}","Grant|Roberts|Day|Codington","46051|46109|46037|46029","FALSE","FALSE","America/Chicago"
"57257","45.49975","-97.02982","Peever","SD","South Dakota","TRUE","","672","3.4","46109","Roberts","{""46109"": 100}","Roberts","46109","FALSE","FALSE","America/Chicago"
"57258","44.88434","-97.9246","Raymond","SD","South Dakota","TRUE","","138","0.4","46025","Clark","{""46025"": 93.39, ""46115"": 6.61}","Clark|Spink","46025|46115","FALSE","FALSE","America/Chicago"
"57259","45.00047","-96.56786","Revillo","SD","South Dakota","TRUE","","680","2.0","46051","Grant","{""46051"": 61.31, ""46039"": 38.69}","Grant|Deuel","46051|46039","FALSE","FALSE","America/Chicago"
"57260","45.83641","-96.7172","Rosholt","SD","South Dakota","TRUE","","1093","2.6","46109","Roberts","{""46109"": 100}","Roberts","46109","FALSE","FALSE","America/Chicago"
"57261","45.54051","-97.49412","Roslyn","SD","South Dakota","TRUE","","266","1.5","46037","Day","{""46037"": 100}","Day","46037","FALSE","FALSE","America/Chicago"
"57262","45.67288","-97.06641","Sisseton","SD","South Dakota","TRUE","","5495","6.3","46109","Roberts","{""46109"": 91.15, ""46091"": 8.85}","Roberts|Marshall","46109|46091","FALSE","FALSE","America/Chicago"
"57263","45.14106","-97.00589","South Shore","SD","South Dakota","TRUE","","480","1.7","46029","Codington","{""46029"": 65.69, ""46051"": 34.31}","Codington|Grant","46029|46051","FALSE","FALSE","America/Chicago"
"57264","45.10863","-96.80254","Stockholm","SD","South Dakota","TRUE","","235","2.1","46051","Grant","{""46051"": 100}","Grant","46051","FALSE","FALSE","America/Chicago"
"57265","44.98866","-96.79591","Strandburg","SD","South Dakota","TRUE","","181","0.8","46051","Grant","{""46051"": 58.57, ""46039"": 38.01, ""46029"": 3.42}","Grant|Deuel|Codington","46051|46039|46029","FALSE","FALSE","America/Chicago"
"57266","45.28619","-97.08985","Summit","SD","South Dakota","TRUE","","583","1.8","46051","Grant","{""46051"": 51.59, ""46109"": 48.41}","Grant|Roberts","46051|46109","FALSE","FALSE","America/Chicago"
"57268","44.56885","-96.68781","Toronto","SD","South Dakota","TRUE","","471","2.8","46039","Deuel","{""46039"": 77.94, ""46011"": 22.06}","Deuel|Brookings","46039|46011","FALSE","FALSE","America/Chicago"
"57269","45.22273","-96.80182","Twin Brooks","SD","South Dakota","TRUE","","163","0.7","46051","Grant","{""46051"": 100}","Grant","46051","FALSE","FALSE","America/Chicago"
"57270","45.84824","-97.32999","Veblen","SD","South Dakota","TRUE","","755","1.8","46091","Marshall","{""46091"": 86.85, ""46109"": 13.15}","Marshall|Roberts","46091|46109","FALSE","FALSE","America/Chicago"
"57271","44.75179","-97.55161","Vienna","SD","South Dakota","TRUE","","227","1.4","46025","Clark","{""46025"": 83.01, ""46057"": 16.99}","Clark|Hamlin","46025|46057","FALSE","FALSE","America/Chicago"
"57272","45.09564","-97.48002","Wallace","SD","South Dakota","TRUE","","210","1.9","46029","Codington","{""46029"": 60.59, ""46025"": 39.41}","Codington|Clark","46029|46025","FALSE","FALSE","America/Chicago"
"57273","45.33334","-97.27574","Waubay","SD","South Dakota","TRUE","","1128","2.5","46037","Day","{""46037"": 77.42, ""46109"": 22.58}","Day|Roberts","46037|46109","FALSE","FALSE","America/Chicago"
"57274","45.30943","-97.55533","Webster","SD","South Dakota","TRUE","","2744","2.8","46037","Day","{""46037"": 92.63, ""46025"": 7.37}","Day|Clark","46037|46025","FALSE","FALSE","America/Chicago"
"57276","44.43308","-96.61983","White","SD","South Dakota","TRUE","","1102","3.5","46011","Brookings","{""46011"": 100}","Brookings","46011","FALSE","FALSE","America/Chicago"
"57278","44.64689","-97.68227","Willow Lake","SD","South Dakota","TRUE","","1052","2.6","46025","Clark","{""46025"": 100}","Clark","46025","FALSE","FALSE","America/Chicago"
"57279","45.41816","-96.87274","Wilmot","SD","South Dakota","TRUE","","994","2.7","46109","Roberts","{""46109"": 100}","Roberts","46109","FALSE","FALSE","America/Chicago"
"57301","43.71136","-98.04155","Mitchell","SD","South Dakota","TRUE","","18643","30.2","46035","Davison","{""46035"": 77.51, ""46061"": 22.49}","Davison|Hanson","46035|46061","FALSE","FALSE","America/Chicago"
"57311","43.65112","-97.76483","Alexandria","SD","South Dakota","TRUE","","1682","3.4","46061","Hanson","{""46061"": 99.04, ""46067"": 0.96}","Hanson|Hutchinson","46061|46067","FALSE","FALSE","America/Chicago"
"57312","44.19646","-98.38564","Alpena","SD","South Dakota","TRUE","","721","2.1","46005","Beadle","{""46005"": 54.32, ""46073"": 42.59, ""46111"": 3.09}","Beadle|Jerauld|Sanborn","46005|46073|46111","FALSE","FALSE","America/Chicago"
"57313","43.31085","-98.36327","Armour","SD","South Dakota","TRUE","","1175","2.5","46043","Douglas","{""46043"": 65.91, ""46023"": 34.09}","Douglas|Charles Mix","46043|46023","FALSE","FALSE","America/Chicago"
"57314","44.0509","-97.98904","Artesian","SD","South Dakota","TRUE","","668","1.0","46111","Sanborn","{""46111"": 100}","Sanborn","46111","FALSE","FALSE","America/Chicago"
"57315","42.99391","-98.04852","Avon","SD","South Dakota","TRUE","","1164","3.5","46009","Bon Homme","{""46009"": 96.02, ""46023"": 3.98}","Bon Homme|Charles Mix","46009|46023","FALSE","FALSE","America/Chicago"
"57317","43.13153","-98.97891","Bonesteel","SD","South Dakota","TRUE","","669","1.6","46053","Gregory","{""46053"": 100}","Gregory","46053","FALSE","FALSE","America/Chicago"
"57319","43.53853","-97.48353","Bridgewater","SD","South Dakota","TRUE","","916","2.4","46087","McCook","{""46087"": 70.62, ""46067"": 26.05, ""46125"": 3.33}","McCook|Hutchinson|Turner","46087|46067|46125","FALSE","FALSE","America/Chicago"
"57321","43.87294","-97.54864","Canova","SD","South Dakota","TRUE","","431","1.5","46097","Miner","{""46097"": 76.29, ""46087"": 17.05, ""46061"": 6.66}","Miner|McCook|Hanson","46097|46087|46061","FALSE","FALSE","America/Chicago"
"57322","44.63498","-97.96129","Carpenter","SD","South Dakota","TRUE","","292","0.7","46005","Beadle","{""46005"": 43.69, ""46025"": 36.12, ""46115"": 20.19}","Beadle|Clark|Spink","46005|46025|46115","FALSE","FALSE","America/Chicago"
"57323","44.16259","-97.72115","Carthage","SD","South Dakota","TRUE","","235","0.7","46097","Miner","{""46097"": 73.94, ""46077"": 22.78, ""46111"": 3.28}","Miner|Kingsbury|Sanborn","46097|46077|46111","FALSE","FALSE","America/Chicago"
"57324","44.30154","-98.04535","Cavour","SD","South Dakota","TRUE","","423","1.9","46005","Beadle","{""46005"": 100}","Beadle","46005","FALSE","FALSE","America/Chicago"
"57325","43.83961","-99.31144","Chamberlain","SD","South Dakota","TRUE","","3152","4.2","46015","Brule","{""46015"": 65.53, ""46017"": 34.47}","Brule|Buffalo","46015|46017","FALSE","FALSE","America/Chicago"
"57328","43.43413","-98.44207","Corsica","SD","South Dakota","TRUE","","1148","2.8","46043","Douglas","{""46043"": 97.57, ""46003"": 2.43}","Douglas|Aurora","46043|46003","FALSE","FALSE","America/Chicago"
"57329","42.97814","-98.1522","Dante","SD","South Dakota","TRUE","","334","2.5","46023","Charles Mix","{""46023"": 100}","Charles Mix","46023","FALSE","FALSE","America/Chicago"
"57330","43.26147","-98.16082","Delmont","SD","South Dakota","TRUE","","501","1.7","46043","Douglas","{""46043"": 60.67, ""46023"": 25.92, ""46067"": 13.41}","Douglas|Charles Mix|Hutchinson","46043|46023|46067","FALSE","FALSE","America/Chicago"
"57331","43.47337","-98.04619","Dimock","SD","South Dakota","TRUE","","383","2.2","46067","Hutchinson","{""46067"": 65.81, ""46043"": 23.26, ""46035"": 10.93}","Hutchinson|Douglas|Davison","46067|46043|46035","FALSE","FALSE","America/Chicago"
"57332","43.5465","-97.64762","Emery","SD","South Dakota","TRUE","","860","3.3","46061","Hanson","{""46061"": 51.22, ""46067"": 32.58, ""46087"": 16.2}","Hanson|Hutchinson|McCook","46061|46067|46087","FALSE","FALSE","America/Chicago"
"57334","43.54199","-97.99492","Ethan","SD","South Dakota","TRUE","","927","3.4","46035","Davison","{""46035"": 51.59, ""46061"": 35.66, ""46067"": 12.75}","Davison|Hanson|Hutchinson","46035|46061|46067","FALSE","FALSE","America/Chicago"
"57335","43.06005","-98.77255","Fairfax","SD","South Dakota","TRUE","","213","0.8","46053","Gregory","{""46053"": 100}","Gregory","46053","FALSE","FALSE","America/Chicago"
"57337","44.00108","-97.79048","Fedora","SD","South Dakota","TRUE","","96","0.4","46097","Miner","{""46097"": 94.49, ""46111"": 5.51}","Miner|Sanborn","46097|46111","FALSE","FALSE","America/Chicago"
"57339","44.11233","-99.47862","Fort Thompson","SD","South Dakota","TRUE","","1419","10.1","46017","Buffalo","{""46017"": 100}","Buffalo","46017","FALSE","FALSE","America/Chicago"
"57340","43.79392","-97.85036","Fulton","SD","South Dakota","TRUE","","208","1.1","46061","Hanson","{""46061"": 83.95, ""46097"": 16.05}","Hanson|Miner","46061|46097","FALSE","FALSE","America/Chicago"
"57341","44.08077","-99.08974","Gann Valley","SD","South Dakota","TRUE","","139","0.2","46017","Buffalo","{""46017"": 96.15, ""46015"": 3.85}","Buffalo|Brule","46017|46015","FALSE","FALSE","America/Chicago"
"57342","43.24561","-98.70054","Geddes","SD","South Dakota","TRUE","","311","0.8","46023","Charles Mix","{""46023"": 100}","Charles Mix","46023","FALSE","FALSE","America/Chicago"
"57344","43.45575","-98.61796","Harrison","SD","South Dakota","TRUE","","83","0.9","46043","Douglas","{""46043"": 100}","Douglas","46043","FALSE","FALSE","America/Chicago"
"57345","44.5687","-99.45009","Highmore","SD","South Dakota","TRUE","","1158","0.7","46069","Hyde","{""46069"": 100}","Hyde","46069","FALSE","FALSE","America/Chicago"
"57346","44.24818","-99.45756","Stephan","SD","South Dakota","TRUE","","44","61.5","46069","Hyde","{""46069"": 100}","Hyde","46069","FALSE","FALSE","America/Chicago"
"57348","44.62147","-98.36483","Hitchcock","SD","South Dakota","TRUE","","784","1.1","46005","Beadle","{""46005"": 58.29, ""46115"": 41.71}","Beadle|Spink","46005|46115","FALSE","FALSE","America/Chicago"
"57349","44.02671","-97.57521","Howard","SD","South Dakota","TRUE","","1414","2.3","46097","Miner","{""46097"": 100}","Miner","46097","FALSE","FALSE","America/Chicago"
"57350","44.3948","-98.20037","Huron","SD","South Dakota","TRUE","","15785","20.8","46005","Beadle","{""46005"": 99.24, ""46111"": 0.76}","Beadle|Sanborn","46005|46111","FALSE","FALSE","America/Chicago"
"57353","44.36944","-97.83438","Iroquois","SD","South Dakota","TRUE","","786","1.0","46077","Kingsbury","{""46077"": 55.78, ""46005"": 41.21, ""46025"": 3.01}","Kingsbury|Beadle|Clark","46077|46005|46025","FALSE","FALSE","America/Chicago"
"57354","43.19099","-97.84236","Kaylor","SD","South Dakota","TRUE","","19","6.3","46067","Hutchinson","{""46067"": 100}","Hutchinson","46067","FALSE","FALSE","America/Chicago"
"57355","43.7747","-98.95045","Kimball","SD","South Dakota","TRUE","","1389","1.4","46015","Brule","{""46015"": 88.81, ""46073"": 7.15, ""46017"": 4.04}","Brule|Jerauld|Buffalo","46015|46073|46017","FALSE","FALSE","America/Chicago"
"57356","43.1468","-98.51803","Lake Andes","SD","South Dakota","TRUE","","2365","5.4","46023","Charles Mix","{""46023"": 100}","Charles Mix","46023","FALSE","FALSE","America/Chicago"
"57358","44.07521","-98.42201","Lane","SD","South Dakota","TRUE","","14","5.6","46073","Jerauld","{""46073"": 100}","Jerauld","46073","FALSE","FALSE","America/Chicago"
"57359","43.90105","-98.15589","Letcher","SD","South Dakota","TRUE","","595","1.5","46111","Sanborn","{""46111"": 76.21, ""46003"": 14.94, ""46035"": 8.85}","Sanborn|Aurora|Davison","46111|46003|46035","FALSE","FALSE","America/Chicago"
"57361","42.99459","-98.43463","Marty","SD","South Dakota","TRUE","","211","32.9","46023","Charles Mix","{""46023"": 100}","Charles Mix","46023","FALSE","FALSE","America/Chicago"
"57362","44.47488","-99.06447","Miller","SD","South Dakota","TRUE","","1835","1.5","46059","Hand","{""46059"": 96.96, ""46017"": 3.04}","Hand|Buffalo","46059|46017","FALSE","FALSE","America/Chicago"
"57363","43.68723","-98.25491","Mount Vernon","SD","South Dakota","TRUE","","1033","2.1","46035","Davison","{""46035"": 91.21, ""46111"": 6.31, ""46003"": 2.48}","Davison|Sanborn|Aurora","46035|46111|46003","FALSE","FALSE","America/Chicago"
"57364","43.43442","-98.61786","New Holland","SD","South Dakota","TRUE","","5","1.8","46043","Douglas","{""46043"": 100}","Douglas","46043","FALSE","FALSE","America/Chicago"
"57365","43.81148","-99.41723","Oacoma","SD","South Dakota","TRUE","","554","3.4","46085","Lyman","{""46085"": 100}","Lyman","46085","FALSE","FALSE","America/Chicago"
"57366","43.3855","-97.94306","Parkston","SD","South Dakota","TRUE","","2482","4.4","46067","Hutchinson","{""46067"": 88.89, ""46043"": 11.11}","Hutchinson|Douglas","46067|46043","FALSE","FALSE","America/Chicago"
"57367","43.06348","-98.5133","Pickstown","SD","South Dakota","TRUE","","280","22.8","46023","Charles Mix","{""46023"": 100}","Charles Mix","46023","FALSE","FALSE","America/Chicago"
"57368","43.75117","-98.47593","Plankinton","SD","South Dakota","TRUE","","1174","2.0","46003","Aurora","{""46003"": 100}","Aurora","46003","FALSE","FALSE","America/Chicago"
"57369","43.42544","-98.94606","Platte","SD","South Dakota","TRUE","","2506","2.1","46023","Charles Mix","{""46023"": 75.13, ""46015"": 21.88, ""46043"": 2.07, ""46003"": 0.92}","Charles Mix|Brule|Douglas|Aurora","46023|46015|46043|46003","FALSE","FALSE","America/Chicago"
"57370","43.80508","-99.17211","Pukwana","SD","South Dakota","TRUE","","771","1.4","46015","Brule","{""46015"": 78.7, ""46017"": 21.3}","Brule|Buffalo","46015|46017","FALSE","FALSE","America/Chicago"
"57371","44.43146","-99.23104","Ree Heights","SD","South Dakota","TRUE","","130","0.2","46059","Hand","{""46059"": 97.48, ""46069"": 2.52}","Hand|Hyde","46059|46069","FALSE","FALSE","America/Chicago"
"57373","44.52936","-98.86987","Saint Lawrence","SD","South Dakota","TRUE","","403","0.7","46059","Hand","{""46059"": 100}","Hand","46059","FALSE","FALSE","America/Chicago"
"57374","43.75582","-97.60361","Spencer","SD","South Dakota","TRUE","","310","1.5","46087","McCook","{""46087"": 54.01, ""46061"": 45.99}","McCook|Hanson","46087|46061","FALSE","FALSE","America/Chicago"
"57375","43.56222","-98.47877","Stickney","SD","South Dakota","TRUE","","571","1.6","46003","Aurora","{""46003"": 98.57, ""46035"": 1.43}","Aurora|Davison","46003|46035","FALSE","FALSE","America/Chicago"
"57376","43.21948","-97.94176","Tripp","SD","South Dakota","TRUE","","871","2.2","46067","Hutchinson","{""46067"": 78.14, ""46009"": 21.86}","Hutchinson|Bon Homme","46067|46009","FALSE","FALSE","America/Chicago"
"57379","44.26428","-98.53795","Virgil","SD","South Dakota","TRUE","","86","0.6","46005","Beadle","{""46005"": 100}","Beadle","46005","FALSE","FALSE","America/Chicago"
"57380","43.03387","-98.28916","Wagner","SD","South Dakota","TRUE","","3472","4.8","46023","Charles Mix","{""46023"": 100}","Charles Mix","46023","FALSE","FALSE","America/Chicago"
"57381","44.38717","-98.73267","Wessington","SD","South Dakota","TRUE","","496","0.6","46059","Hand","{""46059"": 61.42, ""46005"": 38.58}","Hand|Beadle","46059|46005","FALSE","FALSE","America/Chicago"
"57382","44.05561","-98.67303","Wessington Springs","SD","South Dakota","TRUE","","1115","1.0","46073","Jerauld","{""46073"": 85.0, ""46003"": 11.69, ""46005"": 3.31}","Jerauld|Aurora|Beadle","46073|46003|46005","FALSE","FALSE","America/Chicago"
"57383","43.7177","-98.71382","White Lake","SD","South Dakota","TRUE","","834","1.3","46003","Aurora","{""46003"": 95.49, ""46015"": 4.51}","Aurora|Brule","46003|46015","FALSE","FALSE","America/Chicago"
"57384","44.42044","-98.48477","Wolsey","SD","South Dakota","TRUE","","1078","2.1","46005","Beadle","{""46005"": 100}","Beadle","46005","FALSE","FALSE","America/Chicago"
"57385","44.04433","-98.29507","Woonsocket","SD","South Dakota","TRUE","","1311","2.2","46111","Sanborn","{""46111"": 65.84, ""46073"": 30.38, ""46003"": 3.78}","Sanborn|Jerauld|Aurora","46111|46073|46003","FALSE","FALSE","America/Chicago"
"57386","44.50908","-97.99845","Yale","SD","South Dakota","TRUE","","335","1.9","46005","Beadle","{""46005"": 100}","Beadle","46005","FALSE","FALSE","America/Chicago"
"57401","45.4753","-98.53042","Aberdeen","SD","South Dakota","TRUE","","32474","45.0","46013","Brown","{""46013"": 100}","Brown","46013","FALSE","FALSE","America/Chicago"
"57420","45.2852","-100.14319","Akaska","SD","South Dakota","TRUE","","140","1.2","46129","Walworth","{""46129"": 100}","Walworth","46129","FALSE","FALSE","America/Chicago"
"57421","45.75045","-97.90618","Amherst","SD","South Dakota","TRUE","","96","1.1","46091","Marshall","{""46091"": 100}","Marshall","46091","FALSE","FALSE","America/Chicago"
"57422","45.42288","-97.92199","Andover","SD","South Dakota","TRUE","","175","0.6","46037","Day","{""46037"": 95.55, ""46013"": 4.45}","Day|Brown","46037|46013","FALSE","FALSE","America/Chicago"
"57424","45.02012","-98.53101","Ashton","SD","South Dakota","TRUE","","215","0.5","46115","Spink","{""46115"": 92.97, ""46049"": 7.03}","Spink|Faulk","46115|46049","FALSE","FALSE","America/Chicago"
"57426","45.73485","-98.4936","Barnard","SD","South Dakota","TRUE","","25","1.6","46013","Brown","{""46013"": 100}","Brown","46013","FALSE","FALSE","America/Chicago"
"57427","45.48109","-98.31786","Bath","SD","South Dakota","TRUE","","422","2.7","46013","Brown","{""46013"": 100}","Brown","46013","FALSE","FALSE","America/Chicago"
"57428","45.44984","-99.67922","Bowdle","SD","South Dakota","TRUE","","556","1.1","46045","Edmunds","{""46045"": 62.98, ""46129"": 37.02}","Edmunds|Walworth","46045|46129","FALSE","FALSE","America/Chicago"
"57429","45.16116","-98.3005","Brentford","SD","South Dakota","TRUE","","72","2.0","46115","Spink","{""46115"": 100}","Spink","46115","FALSE","FALSE","America/Chicago"
"57430","45.82203","-97.72205","Britton","SD","South Dakota","TRUE","","1867","2.1","46091","Marshall","{""46091"": 99.13, ""38081"": 0.87}","Marshall|Sargent","46091|38081","FALSE","FALSE","America/Chicago"
"57432","45.6839","-98.02453","Claremont","SD","South Dakota","TRUE","","320","1.1","46013","Brown","{""46013"": 75.93, ""46091"": 24.07}","Brown|Marshall","46013|46091","FALSE","FALSE","America/Chicago"
"57433","45.64311","-98.32104","Columbia","SD","South Dakota","TRUE","","386","1.2","46013","Brown","{""46013"": 100}","Brown","46013","FALSE","FALSE","America/Chicago"
"57434","45.16669","-98.07049","Conde","SD","South Dakota","TRUE","","546","0.7","46115","Spink","{""46115"": 56.29, ""46025"": 17.55, ""46013"": 17.37, ""46037"": 8.79}","Spink|Clark|Brown|Day","46115|46025|46013|46037","FALSE","FALSE","America/Chicago"
"57435","45.16916","-98.90975","Cresbard","SD","South Dakota","TRUE","","286","0.8","46049","Faulk","{""46049"": 76.73, ""46045"": 23.27}","Faulk|Edmunds","46049|46045","FALSE","FALSE","America/Chicago"
"57436","44.84864","-98.09131","Doland","SD","South Dakota","TRUE","","531","1.1","46115","Spink","{""46115"": 100}","Spink","46115","FALSE","FALSE","America/Chicago"
"57437","45.78368","-99.618","Eureka","SD","South Dakota","TRUE","","1384","1.0","46089","McPherson","{""46089"": 69.15, ""46021"": 30.85}","McPherson|Campbell","46089|46021","FALSE","FALSE","America/Chicago"
"57438","45.06899","-99.15462","Faulkton","SD","South Dakota","TRUE","","1131","1.0","46049","Faulk","{""46049"": 100}","Faulk","46049","FALSE","FALSE","America/Chicago"
"57439","45.33464","-98.10007","Ferney","SD","South Dakota","TRUE","","28","27.1","46013","Brown","{""46013"": 100}","Brown","46013","FALSE","FALSE","America/Chicago"
"57440","44.8502","-98.25956","Frankfort","SD","South Dakota","TRUE","","533","1.4","46115","Spink","{""46115"": 100}","Spink","46115","FALSE","FALSE","America/Chicago"
"57441","45.82275","-98.51474","Frederick","SD","South Dakota","TRUE","","514","0.7","46013","Brown","{""46013"": 100}","Brown","46013","FALSE","FALSE","America/Chicago"
"57442","45.05721","-100.14997","Gettysburg","SD","South Dakota","TRUE","","2192","1.4","46107","Potter","{""46107"": 82.85, ""46041"": 15.18, ""46119"": 1.97}","Potter|Dewey|Sully","46107|46041|46119","FALSE","FALSE","America/Chicago"
"57445","45.45828","-98.12094","Groton","SD","South Dakota","TRUE","","1811","2.8","46013","Brown","{""46013"": 100}","Brown","46013","FALSE","FALSE","America/Chicago"
"57446","45.86698","-98.15423","Hecla","SD","South Dakota","TRUE","","718","1.8","46013","Brown","{""46013"": 100}","Brown","46013","FALSE","FALSE","America/Chicago"
"57448","45.61196","-99.41859","Hosmer","SD","South Dakota","TRUE","","454","1.1","46089","McPherson","{""46089"": 58.42, ""46045"": 41.58}","McPherson|Edmunds","46089|46045","FALSE","FALSE","America/Chicago"
"57449","45.73101","-98.17553","Houghton","SD","South Dakota","TRUE","","258","1.2","46013","Brown","{""46013"": 100}","Brown","46013","FALSE","FALSE","America/Chicago"
"57450","45.21599","-99.83696","Hoven","SD","South Dakota","TRUE","","519","1.0","46107","Potter","{""46107"": 64.42, ""46129"": 35.58}","Potter|Walworth","46107|46129","FALSE","FALSE","America/Chicago"
"57451","45.43488","-98.93473","Ipswich","SD","South Dakota","TRUE","","2416","2.2","46045","Edmunds","{""46045"": 92.48, ""46013"": 7.52}","Edmunds|Brown","46045|46013","FALSE","FALSE","America/Chicago"
"57452","45.52873","-99.87334","Java","SD","South Dakota","TRUE","","241","0.4","46129","Walworth","{""46129"": 70.76, ""46021"": 29.24}","Walworth|Campbell","46129|46021","FALSE","FALSE","America/Chicago"
"57454","45.61058","-97.77286","Langford","SD","South Dakota","TRUE","","806","2.1","46091","Marshall","{""46091"": 69.85, ""46037"": 30.15}","Marshall|Day","46091|46037","FALSE","FALSE","America/Chicago"
"57455","44.99301","-99.74011","Lebanon","SD","South Dakota","TRUE","","161","0.5","46107","Potter","{""46107"": 100}","Potter","46107","FALSE","FALSE","America/Chicago"
"57456","45.72104","-98.99589","Leola","SD","South Dakota","TRUE","","753","0.8","46089","McPherson","{""46089"": 97.26, ""46045"": 2.74}","McPherson|Edmunds","46089|46045","FALSE","FALSE","America/Chicago"
"57457","45.87281","-99.15812","Long Lake","SD","South Dakota","TRUE","","84","0.2","46089","McPherson","{""46089"": 100}","McPherson","46089","FALSE","FALSE","America/Chicago"
"57460","45.27323","-98.66585","Mansfield","SD","South Dakota","TRUE","","307","1.0","46013","Brown","{""46013"": 58.07, ""46045"": 21.16, ""46115"": 10.93, ""46049"": 9.84}","Brown|Edmunds|Spink|Faulk","46013|46045|46115|46049","FALSE","FALSE","America/Chicago"
"57461","45.16085","-98.43327","Mellette","SD","South Dakota","TRUE","","351","1.2","46115","Spink","{""46115"": 98.16, ""46013"": 1.84}","Spink|Brown","46115|46013","FALSE","FALSE","America/Chicago"
"57465","45.14443","-98.68573","Northville","SD","South Dakota","TRUE","","434","1.1","46115","Spink","{""46115"": 60.22, ""46049"": 39.78}","Spink|Faulk","46115|46049","FALSE","FALSE","America/Chicago"
"57466","45.20045","-99.45885","Onaka","SD","South Dakota","TRUE","","161","0.5","46049","Faulk","{""46049"": 76.24, ""46045"": 23.76}","Faulk|Edmunds","46049|46045","FALSE","FALSE","America/Chicago"
"57467","44.82754","-99.14221","Orient","SD","South Dakota","TRUE","","451","0.9","46059","Hand","{""46059"": 90.05, ""46049"": 9.95}","Hand|Faulk","46059|46049","FALSE","FALSE","America/Chicago"
"57468","45.49797","-97.75318","Pierpont","SD","South Dakota","TRUE","","358","1.9","46037","Day","{""46037"": 100}","Day","46037","FALSE","FALSE","America/Chicago"
