"zip","lat","lng","city","state_id","state_name","zcta","parent_zcta","population","density","county_fips","county_name","county_weights","county_names_all","county_fips_all","imprecise","military","timezone"
"50643","42.36413","-92.47402","Hudson","IA","Iowa","TRUE","","3058","20.5","19013","Black Hawk","{""19013"": 90.66, ""19075"": 9.34}","Black Hawk|Grundy","19013|19075","FALSE","FALSE","America/Chicago"
"50644","42.47751","-91.89721","Independence","IA","Iowa","TRUE","","8646","23.0","19019","Buchanan","{""19019"": 100}","Buchanan","19019","FALSE","FALSE","America/Chicago"
"50645","43.02174","-92.44952","Ionia","IA","Iowa","TRUE","","1253","5.6","19037","Chickasaw","{""19037"": 90.25, ""19017"": 6.81, ""19067"": 2.94}","Chickasaw|Bremer|Floyd","19037|19017|19067","FALSE","FALSE","America/Chicago"
"50647","42.64787","-92.48026","Janesville","IA","Iowa","TRUE","","2090","26.5","19017","Bremer","{""19017"": 61.7, ""19013"": 38.3}","Bremer|Black Hawk","19017|19013","FALSE","FALSE","America/Chicago"
"50648","42.45182","-92.09465","Jesup","IA","Iowa","TRUE","","4004","18.6","19013","Black Hawk","{""19013"": 58.35, ""19019"": 41.65}","Black Hawk|Buchanan","19013|19019","FALSE","FALSE","America/Chicago"
"50649","42.66249","-92.90973","Kesley","IA","Iowa","TRUE","","8","107.8","19023","Butler","{""19023"": 100}","Butler","19023","FALSE","FALSE","America/Chicago"
"50650","42.61915","-91.65429","Lamont","IA","Iowa","TRUE","","846","8.0","19019","Buchanan","{""19019"": 69.12, ""19065"": 30.88}","Buchanan|Fayette","19019|19065","FALSE","FALSE","America/Chicago"
"50651","42.32271","-92.19993","La Porte City","IA","Iowa","TRUE","","3532","11.9","19013","Black Hawk","{""19013"": 71.71, ""19011"": 25.54, ""19171"": 2.75}","Black Hawk|Benton|Tama","19013|19011|19171","FALSE","FALSE","America/Chicago"
"50652","42.26454","-92.69234","Lincoln","IA","Iowa","TRUE","","112","115.8","19171","Tama","{""19171"": 100}","Tama","19171","FALSE","FALSE","America/Chicago"
"50653","42.96737","-92.88927","Marble Rock","IA","Iowa","TRUE","","556","4.2","19067","Floyd","{""19067"": 100}","Floyd","19067","FALSE","FALSE","America/Chicago"
"50654","42.45812","-91.60933","Masonville","IA","Iowa","TRUE","","405","2.9","19019","Buchanan","{""19019"": 52.07, ""19055"": 47.93}","Buchanan|Delaware","19019|19055","FALSE","FALSE","America/Chicago"
"50655","42.77232","-91.9016","Maynard","IA","Iowa","TRUE","","759","8.2","19065","Fayette","{""19065"": 100}","Fayette","19065","FALSE","FALSE","America/Chicago"
"50657","42.34454","-92.67399","Morrison","IA","Iowa","TRUE","","106","270.4","19075","Grundy","{""19075"": 100}","Grundy","19075","FALSE","FALSE","America/Chicago"
"50658","42.95024","-92.53782","Nashua","IA","Iowa","TRUE","","2433","12.0","19037","Chickasaw","{""19037"": 55.66, ""19067"": 33.66, ""19023"": 6.53, ""19017"": 4.15}","Chickasaw|Floyd|Butler|Bremer","19037|19067|19023|19017","FALSE","FALSE","America/Chicago"
"50659","43.08749","-92.3221","New Hampton","IA","Iowa","TRUE","","5951","15.0","19037","Chickasaw","{""19037"": 100}","Chickasaw","19037","FALSE","FALSE","America/Chicago"
"50660","42.58099","-92.63752","New Hartford","IA","Iowa","TRUE","","1216","13.4","19023","Butler","{""19023"": 78.92, ""19075"": 21.08}","Butler|Grundy","19023|19075","FALSE","FALSE","America/Chicago"
"50662","42.68748","-91.93396","Oelwein","IA","Iowa","TRUE","","6685","36.6","19065","Fayette","{""19065"": 93.73, ""19019"": 6.27}","Fayette|Buchanan","19065|19019","FALSE","FALSE","America/Chicago"
"50664","42.70698","-92.07222","Oran","IA","Iowa","TRUE","","127","52.1","19065","Fayette","{""19065"": 100}","Fayette","19065","FALSE","FALSE","America/Chicago"
"50665","42.58078","-92.7717","Parkersburg","IA","Iowa","TRUE","","2748","10.7","19023","Butler","{""19023"": 64.44, ""19075"": 35.56}","Butler|Grundy","19023|19075","FALSE","FALSE","America/Chicago"
"50666","42.85995","-92.50933","Plainfield","IA","Iowa","TRUE","","724","5.7","19017","Bremer","{""19017"": 76.21, ""19023"": 23.79}","Bremer|Butler","19017|19023","FALSE","FALSE","America/Chicago"
"50667","42.47003","-92.22545","Raymond","IA","Iowa","TRUE","","806","163.7","19013","Black Hawk","{""19013"": 100}","Black Hawk","19013","FALSE","FALSE","America/Chicago"
"50668","42.69087","-92.2265","Readlyn","IA","Iowa","TRUE","","1137","13.0","19017","Bremer","{""19017"": 100}","Bremer","19017","FALSE","FALSE","America/Chicago"
"50669","42.33309","-92.6124","Reinbeck","IA","Iowa","TRUE","","2286","9.1","19075","Grundy","{""19075"": 69.13, ""19171"": 29.84, ""19013"": 1.03}","Grundy|Tama|Black Hawk","19075|19171|19013","FALSE","FALSE","America/Chicago"
"50670","42.68425","-92.61586","Shell Rock","IA","Iowa","TRUE","","2440","17.1","19023","Butler","{""19023"": 97.21, ""19017"": 1.92, ""19013"": 0.87}","Butler|Bremer|Black Hawk","19023|19017|19013","FALSE","FALSE","America/Chicago"
"50671","42.6523","-91.7997","Stanley","IA","Iowa","TRUE","","208","3.7","19065","Fayette","{""19065"": 60.76, ""19019"": 39.24}","Fayette|Buchanan","19065|19019","FALSE","FALSE","America/Chicago"
"50672","42.4247","-93.06545","Steamboat Rock","IA","Iowa","TRUE","","469","4.8","19083","Hardin","{""19083"": 90.67, ""19075"": 9.33}","Hardin|Grundy","19083|19075","FALSE","FALSE","America/Chicago"
"50673","42.52505","-92.7113","Stout","IA","Iowa","TRUE","","215","492.6","19075","Grundy","{""19075"": 100}","Grundy","19075","FALSE","FALSE","America/Chicago"
"50674","42.84202","-92.11746","Sumner","IA","Iowa","TRUE","","3663","8.9","19017","Bremer","{""19017"": 61.82, ""19065"": 32.18, ""19037"": 6.0}","Bremer|Fayette|Chickasaw","19017|19065|19037","FALSE","FALSE","America/Chicago"
"50675","42.19884","-92.4928","Traer","IA","Iowa","TRUE","","2405","8.3","19171","Tama","{""19171"": 97.77, ""19013"": 2.23}","Tama|Black Hawk","19171|19013","FALSE","FALSE","America/Chicago"
"50676","42.7943","-92.27895","Tripoli","IA","Iowa","TRUE","","2170","14.9","19017","Bremer","{""19017"": 100}","Bremer","19017","FALSE","FALSE","America/Chicago"
"50677","42.76363","-92.43775","Waverly","IA","Iowa","TRUE","","12497","37.5","19017","Bremer","{""19017"": 96.97, ""19023"": 3.03}","Bremer|Butler","19017|19023","FALSE","FALSE","America/Chicago"
"50680","42.44956","-92.92505","Wellsburg","IA","Iowa","TRUE","","1060","7.1","19075","Grundy","{""19075"": 99.15, ""19083"": 0.85}","Grundy|Hardin","19075|19083","FALSE","FALSE","America/Chicago"
"50681","42.77754","-92.00931","Westgate","IA","Iowa","TRUE","","422","6.7","19065","Fayette","{""19065"": 100}","Fayette","19065","FALSE","FALSE","America/Chicago"
"50682","42.45241","-91.69893","Winthrop","IA","Iowa","TRUE","","1640","7.3","19019","Buchanan","{""19019"": 100}","Buchanan","19019","FALSE","FALSE","America/Chicago"
"50701","42.4171","-92.34448","Waterloo","IA","Iowa","TRUE","","30194","147.4","19013","Black Hawk","{""19013"": 100}","Black Hawk","19013","FALSE","FALSE","America/Chicago"
"50702","42.45745","-92.31283","Waterloo","IA","Iowa","TRUE","","20270","800.6","19013","Black Hawk","{""19013"": 100}","Black Hawk","19013","FALSE","FALSE","America/Chicago"
"50703","42.54817","-92.28195","Waterloo","IA","Iowa","TRUE","","19270","79.8","19013","Black Hawk","{""19013"": 100}","Black Hawk","19013","FALSE","FALSE","America/Chicago"
"50707","42.4771","-92.27918","Evansdale","IA","Iowa","TRUE","","7597","357.2","19013","Black Hawk","{""19013"": 100}","Black Hawk","19013","FALSE","FALSE","America/Chicago"
"50801","41.07959","-94.39224","Creston","IA","Iowa","TRUE","","9135","17.0","19175","Union","{""19175"": 68.73, ""19003"": 20.52, ""19001"": 10.75}","Union|Adams|Adair","19175|19003|19001","FALSE","FALSE","America/Chicago"
"50830","41.0242","-94.19037","Afton","IA","Iowa","TRUE","","1775","5.6","19175","Union","{""19175"": 100}","Union","19175","FALSE","FALSE","America/Chicago"
"50831","40.94938","-94.22341","Arispe","IA","Iowa","TRUE","","24","41.4","19175","Union","{""19175"": 100}","Union","19175","FALSE","FALSE","America/Chicago"
"50833","40.66956","-94.70309","Bedford","IA","Iowa","TRUE","","2077","3.8","19173","Taylor","{""19173"": 100}","Taylor","19173","FALSE","FALSE","America/Chicago"
"50835","40.70769","-94.3675","Benton","IA","Iowa","TRUE","","70","1.8","19159","Ringgold","{""19159"": 100}","Ringgold","19159","FALSE","FALSE","America/Chicago"
"50836","40.63116","-94.49689","Blockton","IA","Iowa","TRUE","","356","1.6","19173","Taylor","{""19173"": 59.81, ""19159"": 40.19}","Taylor|Ringgold","19173|19159","FALSE","FALSE","America/Chicago"
"50837","41.22878","-94.68367","Bridgewater","IA","Iowa","TRUE","","370","2.7","19001","Adair","{""19001"": 70.17, ""19029"": 16.44, ""19003"": 13.39}","Adair|Cass|Adams","19001|19029|19003","FALSE","FALSE","America/Chicago"
"50839","41.04874","-94.82206","Carbon","IA","Iowa","TRUE","","51","39.3","19003","Adams","{""19003"": 100}","Adams","19003","FALSE","FALSE","America/Chicago"
"50840","40.79378","-94.48413","Clearfield","IA","Iowa","TRUE","","594","5.0","19173","Taylor","{""19173"": 60.5, ""19159"": 39.5}","Taylor|Ringgold","19173|19159","FALSE","FALSE","America/Chicago"
"50841","41.01147","-94.76342","Corning","IA","Iowa","TRUE","","2447","4.1","19003","Adams","{""19003"": 89.06, ""19173"": 10.94}","Adams|Taylor","19003|19173","FALSE","FALSE","America/Chicago"
"50842","41.03991","-94.4618","Cromwell","IA","Iowa","TRUE","","62","92.6","19175","Union","{""19175"": 100}","Union","19175","FALSE","FALSE","America/Chicago"
"50843","41.24057","-94.88913","Cumberland","IA","Iowa","TRUE","","439","2.3","19029","Cass","{""19029"": 92.37, ""19003"": 7.63}","Cass|Adams","19029|19003","FALSE","FALSE","America/Chicago"
"50845","40.81683","-94.3523","Diagonal","IA","Iowa","TRUE","","841","2.9","19159","Ringgold","{""19159"": 91.58, ""19175"": 8.42}","Ringgold|Union","19159|19175","FALSE","FALSE","America/Chicago"
"50846","41.31081","-94.56839","Fontanelle","IA","Iowa","TRUE","","1061","4.3","19001","Adair","{""19001"": 100}","Adair","19001","FALSE","FALSE","America/Chicago"
"50847","41.14168","-94.98405","Grant","IA","Iowa","TRUE","","58","98.2","19137","Montgomery","{""19137"": 100}","Montgomery","19137","FALSE","FALSE","America/Chicago"
"50848","40.78685","-94.76758","Gravity","IA","Iowa","TRUE","","227","1.8","19173","Taylor","{""19173"": 100}","Taylor","19173","FALSE","FALSE","America/Chicago"
"50849","41.30004","-94.40176","Greenfield","IA","Iowa","TRUE","","2404","8.1","19001","Adair","{""19001"": 100}","Adair","19001","FALSE","FALSE","America/Chicago"
"50851","40.90327","-94.53637","Lenox","IA","Iowa","TRUE","","2187","6.4","19173","Taylor","{""19173"": 44.12, ""19003"": 34.13, ""19175"": 17.35, ""19159"": 4.4}","Taylor|Adams|Union|Ringgold","19173|19003|19175|19159","FALSE","FALSE","America/Chicago"
"50853","41.23869","-94.77455","Massena","IA","Iowa","TRUE","","739","3.8","19029","Cass","{""19029"": 98.09, ""19003"": 1.91}","Cass|Adams","19029|19003","FALSE","FALSE","America/Chicago"
"50854","40.69089","-94.21977","Mount Ayr","IA","Iowa","TRUE","","2357","6.6","19159","Ringgold","{""19159"": 100}","Ringgold","19159","FALSE","FALSE","America/Chicago"
"50857","40.94045","-94.88011","Nodaway","IA","Iowa","TRUE","","165","1.3","19003","Adams","{""19003"": 72.7, ""19173"": 25.89, ""19137"": 1.41}","Adams|Taylor|Montgomery","19003|19173|19137","FALSE","FALSE","America/Chicago"
"50858","41.20961","-94.40902","Orient","IA","Iowa","TRUE","","756","3.7","19001","Adair","{""19001"": 100}","Adair","19001","FALSE","FALSE","America/Chicago"
"50859","41.06505","-94.60027","Prescott","IA","Iowa","TRUE","","696","3.4","19003","Adams","{""19003"": 95.38, ""19001"": 4.62}","Adams|Adair","19003|19001","FALSE","FALSE","America/Chicago"
"50860","40.62253","-94.34949","Redding","IA","Iowa","TRUE","","119","1.1","19159","Ringgold","{""19159"": 100}","Ringgold","19159","FALSE","FALSE","America/Chicago"
"50861","40.91163","-94.25685","Shannon City","IA","Iowa","TRUE","","280","2.7","19175","Union","{""19175"": 68.69, ""19159"": 31.31}","Union|Ringgold","19175|19159","FALSE","FALSE","America/Chicago"
"50862","40.81304","-94.65136","Sharpsburg","IA","Iowa","TRUE","","192","3.4","19173","Taylor","{""19173"": 100}","Taylor","19173","FALSE","FALSE","America/Chicago"
"50863","40.84701","-94.17318","Tingley","IA","Iowa","TRUE","","186","2.6","19159","Ringgold","{""19159"": 100}","Ringgold","19159","FALSE","FALSE","America/Chicago"
"50864","40.97648","-94.98009","Villisca","IA","Iowa","TRUE","","1875","4.9","19137","Montgomery","{""19137"": 65.59, ""19145"": 19.82, ""19173"": 8.92, ""19003"": 3.95, ""19029"": 1.72}","Montgomery|Page|Taylor|Adams|Cass","19137|19145|19173|19003|19029","FALSE","FALSE","America/Chicago"
"51001","42.83854","-96.54551","Akron","IA","Iowa","TRUE","","2254","5.3","19149","Plymouth","{""19149"": 60.2, ""46127"": 39.8}","Plymouth|Union","19149|46127","FALSE","FALSE","America/Chicago"
"51002","42.69859","-95.31863","Alta","IA","Iowa","TRUE","","2799","9.9","19021","Buena Vista","{""19021"": 98.62, ""19035"": 1.38}","Buena Vista|Cherokee","19021|19035","FALSE","FALSE","America/Chicago"
"51003","42.98355","-95.98642","Alton","IA","Iowa","TRUE","","1732","12.3","19167","Sioux","{""19167"": 100}","Sioux","19167","FALSE","FALSE","America/Chicago"
"51004","42.3762","-95.916","Anthon","IA","Iowa","TRUE","","961","4.4","19193","Woodbury","{""19193"": 100}","Woodbury","19193","FALSE","FALSE","America/Chicago"
"51005","42.72044","-95.42405","Aurelia","IA","Iowa","TRUE","","1481","6.1","19035","Cherokee","{""19035"": 86.14, ""19021"": 13.86}","Cherokee|Buena Vista","19035|19021","FALSE","FALSE","America/Chicago"
"51006","42.31088","-95.61299","Battle Creek","IA","Iowa","TRUE","","1173","5.8","19093","Ida","{""19093"": 85.87, ""19193"": 12.25, ""19047"": 1.88}","Ida|Woodbury|Crawford","19093|19193|19047","FALSE","FALSE","America/Chicago"
"51007","42.40225","-96.18857","Bronson","IA","Iowa","TRUE","","557","6.1","19193","Woodbury","{""19193"": 100}","Woodbury","19193","FALSE","FALSE","America/Chicago"
"51008","42.81127","-96.26724","Brunsville","IA","Iowa","TRUE","","179","245.2","19149","Plymouth","{""19149"": 100}","Plymouth","19149","FALSE","FALSE","America/Chicago"
"51009","42.94499","-95.55142","Calumet","IA","Iowa","TRUE","","175","253.7","19141","O'Brien","{""19141"": 100}","O'Brien","19141","FALSE","FALSE","America/Chicago"
"51010","42.09309","-95.92044","Castana","IA","Iowa","TRUE","","431","2.3","19133","Monona","{""19133"": 100}","Monona","19133","FALSE","FALSE","America/Chicago"
"51011","42.91562","-96.51388","Chatsworth","IA","Iowa","TRUE","","54","49.8","19167","Sioux","{""19167"": 100}","Sioux","19167","FALSE","FALSE","America/Chicago"
"51012","42.74474","-95.56171","Cherokee","IA","Iowa","TRUE","","6613","17.3","19035","Cherokee","{""19035"": 100}","Cherokee","19035","FALSE","FALSE","America/Chicago"
"51014","42.78428","-95.71155","Cleghorn","IA","Iowa","TRUE","","491","3.4","19035","Cherokee","{""19035"": 100}","Cherokee","19035","FALSE","FALSE","America/Chicago"
"51015","42.33936","-96.08107","Climbing Hill","IA","Iowa","TRUE","","69","20.8","19193","Woodbury","{""19193"": 100}","Woodbury","19193","FALSE","FALSE","America/Chicago"
"51016","42.46907","-95.80113","Correctionville","IA","Iowa","TRUE","","1268","4.7","19193","Woodbury","{""19193"": 90.49, ""19093"": 9.51}","Woodbury|Ida","19193|19093","FALSE","FALSE","America/Chicago"
"51018","42.44884","-95.67814","Cushing","IA","Iowa","TRUE","","602","7.1","19093","Ida","{""19093"": 56.28, ""19193"": 43.72}","Ida|Woodbury","19093|19193","FALSE","FALSE","America/Chicago"
"51019","42.2721","-95.72615","Danbury","IA","Iowa","TRUE","","561","2.4","19193","Woodbury","{""19193"": 79.23, ""19093"": 11.76, ""19047"": 8.25, ""19133"": 0.76}","Woodbury|Ida|Crawford|Monona","19193|19093|19047|19133","FALSE","FALSE","America/Chicago"
"51020","42.51215","-95.41249","Galva","IA","Iowa","TRUE","","543","3.7","19093","Ida","{""19093"": 71.53, ""19161"": 12.83, ""19035"": 12.01, ""19021"": 3.63}","Ida|Sac|Cherokee|Buena Vista","19093|19161|19035|19021","FALSE","FALSE","America/Chicago"
"51022","42.97819","-95.84722","Granville","IA","Iowa","TRUE","","818","4.1","19141","O'Brien","{""19141"": 58.0, ""19167"": 39.45, ""19149"": 2.55}","O'Brien|Sioux|Plymouth","19141|19167|19149","FALSE","FALSE","America/Chicago"
"51023","43.00893","-96.46845","Hawarden","IA","Iowa","TRUE","","3264","10.5","19167","Sioux","{""19167"": 70.36, ""46127"": 29.64}","Sioux|Union","19167|46127","FALSE","FALSE","America/Chicago"
"51024","42.6201","-96.26564","Hinton","IA","Iowa","TRUE","","2170","9.6","19149","Plymouth","{""19149"": 100}","Plymouth","19149","FALSE","FALSE","America/Chicago"
"51025","42.4973","-95.55853","Holstein","IA","Iowa","TRUE","","1886","6.8","19093","Ida","{""19093"": 87.34, ""19035"": 12.66}","Ida|Cherokee","19093|19035","FALSE","FALSE","America/Chicago"
"51026","42.24857","-96.07592","Hornick","IA","Iowa","TRUE","","900","3.1","19193","Woodbury","{""19193"": 64.74, ""19133"": 35.26}","Woodbury|Monona","19193|19133","FALSE","FALSE","America/Chicago"
"51027","42.96575","-96.32791","Ireton","IA","Iowa","TRUE","","1504","6.5","19167","Sioux","{""19167"": 83.93, ""19149"": 16.07}","Sioux|Plymouth","19167|19149","FALSE","FALSE","America/Chicago"
"51028","42.59909","-95.99199","Kingsley","IA","Iowa","TRUE","","2124","6.6","19149","Plymouth","{""19149"": 80.04, ""19193"": 19.96}","Plymouth|Woodbury","19149|19193","FALSE","FALSE","America/Chicago"
"51029","42.88549","-95.5414","Larrabee","IA","Iowa","TRUE","","310","4.4","19035","Cherokee","{""19035"": 85.16, ""19141"": 14.84}","Cherokee|O'Brien","19035|19141","FALSE","FALSE","America/Chicago"
"51030","42.49791","-96.19365","Lawton","IA","Iowa","TRUE","","1640","10.8","19193","Woodbury","{""19193"": 100}","Woodbury","19193","FALSE","FALSE","America/Chicago"
"51031","42.80282","-96.18092","Le Mars","IA","Iowa","TRUE","","12418","20.5","19149","Plymouth","{""19149"": 98.92, ""19167"": 1.08}","Plymouth|Sioux","19149|19167","FALSE","FALSE","America/Chicago"
"51033","42.91653","-95.25324","Linn Grove","IA","Iowa","TRUE","","432","2.7","19041","Clay","{""19041"": 50.11, ""19021"": 49.89}","Clay|Buena Vista","19041|19021","FALSE","FALSE","America/Chicago"
"51034","42.16241","-95.78947","Mapleton","IA","Iowa","TRUE","","1678","5.6","19133","Monona","{""19133"": 80.43, ""19193"": 15.76, ""19047"": 3.81}","Monona|Woodbury|Crawford","19133|19193|19047","FALSE","FALSE","America/Chicago"
"51035","42.78086","-95.80054","Marcus","IA","Iowa","TRUE","","1481","5.4","19035","Cherokee","{""19035"": 99.04, ""19149"": 0.96}","Cherokee|Plymouth","19035|19149","FALSE","FALSE","America/Chicago"
"51036","42.97074","-96.18938","Maurice","IA","Iowa","TRUE","","748","6.8","19167","Sioux","{""19167"": 100}","Sioux","19167","FALSE","FALSE","America/Chicago"
"51037","42.82567","-95.64269","Meriden","IA","Iowa","TRUE","","273","4.5","19035","Cherokee","{""19035"": 100}","Cherokee","19035","FALSE","FALSE","America/Chicago"
"51038","42.7056","-96.31569","Merrill","IA","Iowa","TRUE","","1957","8.5","19149","Plymouth","{""19149"": 100}","Plymouth","19149","FALSE","FALSE","America/Chicago"
"51039","42.45655","-96.05381","Moville","IA","Iowa","TRUE","","2755","12.3","19193","Woodbury","{""19193"": 100}","Woodbury","19193","FALSE","FALSE","America/Chicago"
"51040","42.03073","-96.0706","Onawa","IA","Iowa","TRUE","","3450","10.3","19133","Monona","{""19133"": 100}","Monona","19133","FALSE","FALSE","America/Chicago"
"51041","43.02443","-96.07701","Orange City","IA","Iowa","TRUE","","6988","38.0","19167","Sioux","{""19167"": 100}","Sioux","19167","FALSE","FALSE","America/Chicago"
"51044","42.30113","-95.91716","Oto","IA","Iowa","TRUE","","232","2.7","19193","Woodbury","{""19193"": 100}","Woodbury","19193","FALSE","FALSE","America/Chicago"
"51045","42.82019","-96.05772","Oyens","IA","Iowa","TRUE","","85","496.7","19149","Plymouth","{""19149"": 100}","Plymouth","19149","FALSE","FALSE","America/Chicago"
"51046","42.96621","-95.67949","Paullina","IA","Iowa","TRUE","","1448","6.0","19141","O'Brien","{""19141"": 94.6, ""19035"": 5.4}","O'Brien|Cherokee","19141|19035","FALSE","FALSE","America/Chicago"
"51047","42.93523","-95.35752","Peterson","IA","Iowa","TRUE","","741","3.7","19041","Clay","{""19041"": 55.15, ""19021"": 26.54, ""19035"": 13.25, ""19141"": 5.06}","Clay|Buena Vista|Cherokee|O'Brien","19041|19021|19035|19141","FALSE","FALSE","America/Chicago"
"51048","42.57963","-95.86412","Pierson","IA","Iowa","TRUE","","509","5.3","19193","Woodbury","{""19193"": 48.56, ""19035"": 40.09, ""19149"": 11.35}","Woodbury|Cherokee|Plymouth","19193|19035|19149","FALSE","FALSE","America/Chicago"
"51049","42.63005","-95.64463","Quimby","IA","Iowa","TRUE","","545","4.7","19035","Cherokee","{""19035"": 100}","Cherokee","19035","FALSE","FALSE","America/Chicago"
"51050","42.79545","-95.94772","Remsen","IA","Iowa","TRUE","","2872","7.9","19149","Plymouth","{""19149"": 98.55, ""19167"": 1.45}","Plymouth|Sioux","19149|19167","FALSE","FALSE","America/Chicago"
"51051","42.20443","-95.96988","Rodney","IA","Iowa","TRUE","","68","7.8","19133","Monona","{""19133"": 100}","Monona","19133","FALSE","FALSE","America/Chicago"
"51052","42.31063","-96.26343","Salix","IA","Iowa","TRUE","","1004","6.3","19193","Woodbury","{""19193"": 100}","Woodbury","19193","FALSE","FALSE","America/Chicago"
"51053","42.4938","-95.28842","Schaller","IA","Iowa","TRUE","","984","5.1","19161","Sac","{""19161"": 89.26, ""19093"": 10.74}","Sac|Ida","19161|19093","FALSE","FALSE","America/Chicago"
"51054","42.37832","-96.33159","Sergeant Bluff","IA","Iowa","TRUE","","5416","54.1","19193","Woodbury","{""19193"": 100}","Woodbury","19193","FALSE","FALSE","America/Chicago"
"51055","42.21162","-96.26069","Sloan","IA","Iowa","TRUE","","1482","9.1","19193","Woodbury","{""19193"": 50.98, ""19133"": 49.02}","Woodbury|Monona","19193|19133","FALSE","FALSE","America/Chicago"
"51056","42.23443","-95.95391","Smithland","IA","Iowa","TRUE","","349","4.0","19193","Woodbury","{""19193"": 85.24, ""19133"": 14.76}","Woodbury|Monona","19193|19133","FALSE","FALSE","America/Chicago"
"51058","42.98367","-95.46879","Sutherland","IA","Iowa","TRUE","","1058","4.8","19141","O'Brien","{""19141"": 92.62, ""19035"": 6.19, ""19041"": 1.19}","O'Brien|Cherokee|Clay","19141|19035|19041","FALSE","FALSE","America/Chicago"
"51060","42.04189","-95.69844","Ute","IA","Iowa","TRUE","","526","3.4","19133","Monona","{""19133"": 76.64, ""19047"": 23.36}","Monona|Crawford","19133|19047","FALSE","FALSE","America/Chicago"
"51061","42.57983","-95.72036","Washta","IA","Iowa","TRUE","","309","2.5","19035","Cherokee","{""19035"": 79.44, ""19093"": 20.56}","Cherokee|Ida","19035|19093","FALSE","FALSE","America/Chicago"
"51062","42.70623","-96.53511","Westfield","IA","Iowa","TRUE","","389","2.7","19149","Plymouth","{""19149"": 100}","Plymouth","19149","FALSE","FALSE","America/Chicago"
"51063","42.13103","-96.18611","Whiting","IA","Iowa","TRUE","","1110","5.9","19133","Monona","{""19133"": 100}","Monona","19133","FALSE","FALSE","America/Chicago"
"51101","42.49413","-96.39361","Sioux City","IA","Iowa","TRUE","","649","208.3","19193","Woodbury","{""19193"": 100}","Woodbury","19193","FALSE","FALSE","America/Chicago"
"51103","42.52173","-96.44642","Sioux City","IA","Iowa","TRUE","","17176","549.7","19193","Woodbury","{""19193"": 100}","Woodbury","19193","FALSE","FALSE","America/Chicago"
"51104","42.53518","-96.40389","Sioux City","IA","Iowa","TRUE","","23038","1189.9","19193","Woodbury","{""19193"": 100}","Woodbury","19193","FALSE","FALSE","America/Chicago"
"51105","42.50808","-96.3671","Sioux City","IA","Iowa","TRUE","","10902","707.2","19193","Woodbury","{""19193"": 100}","Woodbury","19193","FALSE","FALSE","America/Chicago"
"51106","42.46292","-96.32","Sioux City","IA","Iowa","TRUE","","27491","316.9","19193","Woodbury","{""19193"": 100}","Woodbury","19193","FALSE","FALSE","America/Chicago"
"51108","42.56625","-96.34858","Sioux City","IA","Iowa","TRUE","","5431","45.6","19149","Plymouth","{""19149"": 53.25, ""19193"": 46.75}","Plymouth|Woodbury","19149|19193","FALSE","FALSE","America/Chicago"
"51109","42.59873","-96.47804","Sioux City","IA","Iowa","TRUE","","3453","75.7","19149","Plymouth","{""19149"": 88.97, ""19193"": 11.03}","Plymouth|Woodbury","19149|19193","FALSE","FALSE","America/Chicago"
"51111","42.41129","-96.38606","Sioux City","IA","Iowa","TRUE","","80","5.1","19193","Woodbury","{""19193"": 100}","Woodbury","19193","FALSE","FALSE","America/Chicago"
"51201","43.18331","-95.8657","Sheldon","IA","Iowa","TRUE","","6139","20.5","19167","Sioux","{""19167"": 49.16, ""19141"": 48.64, ""19119"": 2.2}","Sioux|O'Brien|Lyon","19167|19141|19119","FALSE","FALSE","America/Chicago"
"51230","43.3562","-96.32217","Alvord","IA","Iowa","TRUE","","530","8.7","19119","Lyon","{""19119"": 100}","Lyon","19119","FALSE","FALSE","America/Chicago"
"51231","43.10567","-95.74131","Archer","IA","Iowa","TRUE","","659","10.5","19141","O'Brien","{""19141"": 100}","O'Brien","19141","FALSE","FALSE","America/Chicago"
"51232","43.30097","-95.8162","Ashton","IA","Iowa","TRUE","","790","5.0","19143","Osceola","{""19143"": 72.73, ""19119"": 25.68, ""19141"": 1.59}","Osceola|Lyon|O'Brien","19143|19119|19141","FALSE","FALSE","America/Chicago"
"51234","43.19412","-96.01992","Boyden","IA","Iowa","TRUE","","1215","9.4","19167","Sioux","{""19167"": 100}","Sioux","19167","FALSE","FALSE","America/Chicago"
"51235","43.29488","-96.21531","Doon","IA","Iowa","TRUE","","1126","8.1","19119","Lyon","{""19119"": 96.88, ""19167"": 3.12}","Lyon|Sioux","19119|19167","FALSE","FALSE","America/Chicago"
"51237","43.33885","-96.0005","George","IA","Iowa","TRUE","","1727","6.9","19119","Lyon","{""19119"": 100}","Lyon","19119","FALSE","FALSE","America/Chicago"
"51238","43.0758","-95.89071","Hospers","IA","Iowa","TRUE","","1383","10.9","19167","Sioux","{""19167"": 67.68, ""19141"": 32.32}","Sioux|O'Brien","19167|19141","FALSE","FALSE","America/Chicago"
"51239","43.20238","-96.14522","Hull","IA","Iowa","TRUE","","3198","18.4","19167","Sioux","{""19167"": 92.69, ""19119"": 7.31}","Sioux|Lyon","19167|19119","FALSE","FALSE","America/Chicago"
"51240","43.30986","-96.45727","Inwood","IA","Iowa","TRUE","","1837","7.1","19119","Lyon","{""19119"": 85.42, ""19167"": 14.58}","Lyon|Sioux","19119|19167","FALSE","FALSE","America/Chicago"
"51241","43.44992","-96.46001","Larchwood","IA","Iowa","TRUE","","2085","9.0","19119","Lyon","{""19119"": 100}","Lyon","19119","FALSE","FALSE","America/Chicago"
"51242","43.43227","-96.33806","Lester","IA","Iowa","TRUE","","306","21.7","19119","Lyon","{""19119"": 100}","Lyon","19119","FALSE","FALSE","America/Chicago"
"51243","43.4425","-95.90287","Little Rock","IA","Iowa","TRUE","","659","4.9","19119","Lyon","{""19119"": 85.94, ""19143"": 14.06}","Lyon|Osceola","19119|19143","FALSE","FALSE","America/Chicago"
"51244","43.2443","-95.93436","Matlock","IA","Iowa","TRUE","","159","162.3","19167","Sioux","{""19167"": 100}","Sioux","19167","FALSE","FALSE","America/Chicago"
"51245","43.07788","-95.60149","Primghar","IA","Iowa","TRUE","","1217","6.1","19141","O'Brien","{""19141"": 100}","O'Brien","19141","FALSE","FALSE","America/Chicago"
"51246","43.42764","-96.16564","Rock Rapids","IA","Iowa","TRUE","","3883","9.3","19119","Lyon","{""19119"": 100}","Lyon","19119","FALSE","FALSE","America/Chicago"
"51247","43.19259","-96.33723","Rock Valley","IA","Iowa","TRUE","","4898","16.8","19167","Sioux","{""19167"": 95.46, ""19119"": 4.54}","Sioux|Lyon","19167|19119","FALSE","FALSE","America/Chicago"
"51248","43.20445","-95.65911","Sanborn","IA","Iowa","TRUE","","1636","8.0","19141","O'Brien","{""19141"": 89.83, ""19143"": 10.17}","O'Brien|Osceola","19141|19143","FALSE","FALSE","America/Chicago"
"51249","43.41068","-95.73203","Sibley","IA","Iowa","TRUE","","3344","10.2","19143","Osceola","{""19143"": 100}","Osceola","19143","FALSE","FALSE","America/Chicago"
"51250","43.08437","-96.21232","Sioux Center","IA","Iowa","TRUE","","9627","50.7","19167","Sioux","{""19167"": 100}","Sioux","19167","FALSE","FALSE","America/Chicago"
"51301","43.15314","-95.14973","Spencer","IA","Iowa","TRUE","","12326","30.2","19041","Clay","{""19041"": 100}","Clay","19041","FALSE","FALSE","America/Chicago"
"51331","43.36431","-95.13028","Arnolds Park","IA","Iowa","TRUE","","1001","240.9","19059","Dickinson","{""19059"": 100}","Dickinson","19059","FALSE","FALSE","America/Chicago"
"51333","43.1324","-95.00437","Dickens","IA","Iowa","TRUE","","418","2.7","19041","Clay","{""19041"": 100}","Clay","19041","FALSE","FALSE","America/Chicago"
"51334","43.40379","-94.80698","Estherville","IA","Iowa","TRUE","","7038","14.6","19063","Emmet","{""19063"": 89.04, ""19059"": 10.96}","Emmet|Dickinson","19063|19059","FALSE","FALSE","America/Chicago"
"51338","43.2065","-95.32378","Everly","IA","Iowa","TRUE","","906","4.8","19041","Clay","{""19041"": 79.17, ""19059"": 20.83}","Clay|Dickinson","19041|19059","FALSE","FALSE","America/Chicago"
"51340","43.2404","-95.15613","Fostoria","IA","Iowa","TRUE","","89","287.2","19041","Clay","{""19041"": 100}","Clay","19041","FALSE","FALSE","America/Chicago"
"51341","43.01665","-95.04132","Gillett Grove","IA","Iowa","TRUE","","39","44.2","19041","Clay","{""19041"": 100}","Clay","19041","FALSE","FALSE","America/Chicago"
"51342","43.24359","-94.73832","Graettinger","IA","Iowa","TRUE","","1392","6.7","19147","Palo Alto","{""19147"": 65.97, ""19063"": 34.03}","Palo Alto|Emmet","19147|19063","FALSE","FALSE","America/Chicago"
"51343","43.01804","-95.11445","Greenville","IA","Iowa","TRUE","","263","3.6","19041","Clay","{""19041"": 100}","Clay","19041","FALSE","FALSE","America/Chicago"
"51345","43.4181","-95.43209","Harris","IA","Iowa","TRUE","","460","3.1","19143","Osceola","{""19143"": 97.27, ""19059"": 2.73}","Osceola|Dickinson","19143|19059","FALSE","FALSE","America/Chicago"
"51346","43.18638","-95.45927","Hartley","IA","Iowa","TRUE","","2124","5.6","19141","O'Brien","{""19141"": 71.4, ""19143"": 20.41, ""19041"": 8.19}","O'Brien|Osceola|Clay","19141|19143|19041","FALSE","FALSE","America/Chicago"
"51347","43.42547","-95.31363","Lake Park","IA","Iowa","TRUE","","1587","7.6","19059","Dickinson","{""19059"": 100}","Dickinson","19059","FALSE","FALSE","America/Chicago"
"51350","43.30752","-95.59827","Melvin","IA","Iowa","TRUE","","417","3.6","19143","Osceola","{""19143"": 93.4, ""19141"": 6.6}","Osceola|O'Brien","19143|19141","FALSE","FALSE","America/Chicago"
"51351","43.31656","-95.18626","Milford","IA","Iowa","TRUE","","4823","17.2","19059","Dickinson","{""19059"": 100}","Dickinson","19059","FALSE","FALSE","America/Chicago"
"51354","43.41267","-95.54352","Ocheyedan","IA","Iowa","TRUE","","1150","5.2","19143","Osceola","{""19143"": 100}","Osceola","19143","FALSE","FALSE","America/Chicago"
"51355","43.38996","-95.14082","Okoboji","IA","Iowa","TRUE","","905","137.6","19059","Dickinson","{""19059"": 100}","Dickinson","19059","FALSE","FALSE","America/Chicago"
"51357","43.06215","-95.28762","Royal","IA","Iowa","TRUE","","751","7.8","19041","Clay","{""19041"": 100}","Clay","19041","FALSE","FALSE","America/Chicago"
"51358","43.13033","-94.89579","Ruthven","IA","Iowa","TRUE","","1342","6.5","19147","Palo Alto","{""19147"": 63.28, ""19041"": 36.72}","Palo Alto|Clay","19147|19041","FALSE","FALSE","America/Chicago"
"51360","43.43626","-95.08556","Spirit Lake","IA","Iowa","TRUE","","8271","30.3","19059","Dickinson","{""19059"": 97.22, ""27063"": 2.78}","Dickinson|Jackson","19059|27063","FALSE","FALSE","America/Chicago"
"51363","43.43363","-94.94678","Superior","IA","Iowa","TRUE","","188","171.1","19059","Dickinson","{""19059"": 100}","Dickinson","19059","FALSE","FALSE","America/Chicago"
"51364","43.2993","-94.96293","Terril","IA","Iowa","TRUE","","775","4.7","19059","Dickinson","{""19059"": 75.68, ""19041"": 12.83, ""19063"": 11.49}","Dickinson|Clay|Emmet","19059|19041|19063","FALSE","FALSE","America/Chicago"
"51365","43.30652","-94.7349","Wallingford","IA","Iowa","TRUE","","462","8.3","19063","Emmet","{""19063"": 100}","Emmet","19063","FALSE","FALSE","America/Chicago"
"51366","42.96008","-95.0095","Webb","IA","Iowa","TRUE","","323","2.0","19041","Clay","{""19041"": 97.28, ""19021"": 2.72}","Clay|Buena Vista","19041|19021","FALSE","FALSE","America/Chicago"
"51401","42.06516","-94.87068","Carroll","IA","Iowa","TRUE","","12275","28.1","19027","Carroll","{""19027"": 100}","Carroll","19027","FALSE","FALSE","America/Chicago"
"51430","42.0869","-95.02633","Arcadia","IA","Iowa","TRUE","","1399","13.5","19027","Carroll","{""19027"": 100}","Carroll","19027","FALSE","FALSE","America/Chicago"
"51431","42.34446","-95.35146","Arthur","IA","Iowa","TRUE","","467","4.8","19093","Ida","{""19093"": 89.04, ""19161"": 10.96}","Ida|Sac","19093|19161","FALSE","FALSE","America/Chicago"
"51432","41.91009","-95.13795","Aspinwall","IA","Iowa","TRUE","","26","32.0","19047","Crawford","{""19047"": 100}","Crawford","19047","FALSE","FALSE","America/Chicago"
"51433","42.27635","-94.87057","Auburn","IA","Iowa","TRUE","","606","4.1","19161","Sac","{""19161"": 58.33, ""19025"": 41.67}","Sac|Calhoun","19161|19025","FALSE","FALSE","America/Chicago"
"51436","42.18254","-95.01247","Breda","IA","Iowa","TRUE","","866","5.5","19027","Carroll","{""19027"": 68.48, ""19047"": 18.37, ""19161"": 13.15}","Carroll|Crawford|Sac","19027|19047|19161","FALSE","FALSE","America/Chicago"
"51439","42.08298","-95.58347","Charter Oak","IA","Iowa","TRUE","","840","3.8","19047","Crawford","{""19047"": 100}","Crawford","19047","FALSE","FALSE","America/Chicago"
"51440","41.9117","-94.81379","Dedham","IA","Iowa","TRUE","","283","4.1","19027","Carroll","{""19027"": 100}","Carroll","19027","FALSE","FALSE","America/Chicago"
"51441","42.11784","-95.3157","Deloit","IA","Iowa","TRUE","","433","8.3","19047","Crawford","{""19047"": 100}","Crawford","19047","FALSE","FALSE","America/Chicago"
"51442","42.02696","-95.35915","Denison","IA","Iowa","TRUE","","9373","22.7","19047","Crawford","{""19047"": 100}","Crawford","19047","FALSE","FALSE","America/Chicago"
"51443","42.07748","-94.70517","Glidden","IA","Iowa","TRUE","","1329","5.1","19027","Carroll","{""19027"": 100}","Carroll","19027","FALSE","FALSE","America/Chicago"
"51444","42.01228","-94.97352","Halbur","IA","Iowa","TRUE","","356","99.1","19027","Carroll","{""19027"": 100}","Carroll","19027","FALSE","FALSE","America/Chicago"
"51445","42.32719","-95.46724","Ida Grove","IA","Iowa","TRUE","","2661","8.2","19093","Ida","{""19093"": 100}","Ida","19093","FALSE","FALSE","America/Chicago"
"51446","41.77663","-95.19277","Irwin","IA","Iowa","TRUE","","554","6.0","19165","Shelby","{""19165"": 100}","Shelby","19165","FALSE","FALSE","America/Chicago"
"51447","41.72101","-95.19196","Kirkman","IA","Iowa","TRUE","","222","2.3","19165","Shelby","{""19165"": 100}","Shelby","19165","FALSE","FALSE","America/Chicago"
"51448","42.20238","-95.30839","Kiron","IA","Iowa","TRUE","","607","4.1","19047","Crawford","{""19047"": 61.61, ""19161"": 19.94, ""19093"": 18.45}","Crawford|Sac|Ida","19047|19161|19093","FALSE","FALSE","America/Chicago"
"51449","42.26614","-94.73475","Lake City","IA","Iowa","TRUE","","1996","8.6","19025","Calhoun","{""19025"": 87.72, ""19027"": 12.28}","Calhoun|Carroll","19025|19027","FALSE","FALSE","America/Chicago"
"51450","42.31205","-95.02722","Lake View","IA","Iowa","TRUE","","1536","10.5","19161","Sac","{""19161"": 100}","Sac","19161","FALSE","FALSE","America/Chicago"
"51451","42.1846","-94.69471","Lanesboro","IA","Iowa","TRUE","","72","73.9","19027","Carroll","{""19027"": 100}","Carroll","19027","FALSE","FALSE","America/Chicago"
"51452","42.12242","-94.78366","Lidderdale","IA","Iowa","TRUE","","171","27.4","19027","Carroll","{""19027"": 100}","Carroll","19027","FALSE","FALSE","America/Chicago"
"51453","42.26366","-94.55155","Lohrville","IA","Iowa","TRUE","","503","2.5","19025","Calhoun","{""19025"": 90.65, ""19027"": 8.13, ""19073"": 1.22}","Calhoun|Carroll|Greene","19025|19027|19073","FALSE","FALSE","America/Chicago"
"51454","41.8798","-95.2072","Manilla","IA","Iowa","TRUE","","1373","5.5","19047","Crawford","{""19047"": 57.58, ""19165"": 42.42}","Crawford|Shelby","19047|19165","FALSE","FALSE","America/Chicago"
"51455","41.90829","-95.0559","Manning","IA","Iowa","TRUE","","2259","7.7","19027","Carroll","{""19027"": 55.78, ""19047"": 23.48, ""19009"": 18.23, ""19165"": 2.51}","Carroll|Crawford|Audubon|Shelby","19027|19047|19009|19165","FALSE","FALSE","America/Chicago"
"51458","42.32141","-95.23524","Odebolt","IA","Iowa","TRUE","","1194","4.7","19161","Sac","{""19161"": 100}","Sac","19161","FALSE","FALSE","America/Chicago"
"51459","42.04495","-94.63779","Ralston","IA","Iowa","TRUE","","81","56.6","19027","Carroll","{""19027"": 100}","Carroll","19027","FALSE","FALSE","America/Chicago"
"51460","42.1324","-95.571","Ricketts","IA","Iowa","TRUE","","99","65.8","19047","Crawford","{""19047"": 100}","Crawford","19047","FALSE","FALSE","America/Chicago"
"51461","42.172","-95.47579","Schleswig","IA","Iowa","TRUE","","1256","8.9","19047","Crawford","{""19047"": 92.71, ""19093"": 7.29}","Crawford|Ida","19047|19093","FALSE","FALSE","America/Chicago"
"51462","42.01319","-94.55744","Scranton","IA","Iowa","TRUE","","987","3.3","19073","Greene","{""19073"": 97.41, ""19027"": 2.59}","Greene|Carroll","19073|19027","FALSE","FALSE","America/Chicago"
"51463","41.90743","-94.91265","Templeton","IA","Iowa","TRUE","","453","5.8","19027","Carroll","{""19027"": 100}","Carroll","19027","FALSE","FALSE","America/Chicago"
"51465","42.08964","-95.19872","Vail","IA","Iowa","TRUE","","844","5.1","19047","Crawford","{""19047"": 100}","Crawford","19047","FALSE","FALSE","America/Chicago"
"51466","42.25302","-95.09837","Wall Lake","IA","Iowa","TRUE","","1214","9.0","19161","Sac","{""19161"": 98.59, ""19047"": 1.41}","Sac|Crawford","19161|19047","FALSE","FALSE","America/Chicago"
"51467","42.07377","-95.10919","Westside","IA","Iowa","TRUE","","531","3.6","19047","Crawford","{""19047"": 70.01, ""19027"": 29.99}","Crawford|Carroll","19047|19027","FALSE","FALSE","America/Chicago"
"51501","41.22828","-95.87889","Council Bluffs","IA","Iowa","TRUE","","35051","565.1","19155","Pottawattamie","{""19155"": 100}","Pottawattamie","19155","FALSE","FALSE","America/Chicago"
"51503","41.2304","-95.77795","Council Bluffs","IA","Iowa","TRUE","","37408","118.7","19155","Pottawattamie","{""19155"": 84.5, ""19129"": 15.5}","Pottawattamie|Mills","19155|19129","FALSE","FALSE","America/Chicago"
"51510","41.28844","-95.91715","Carter Lake","IA","Iowa","TRUE","","3796","816.8","19155","Pottawattamie","{""19155"": 100}","Pottawattamie","19155","FALSE","FALSE","America/Chicago"
"51520","41.9692","-95.4593","Arion","IA","Iowa","TRUE","","225","4.1","19047","Crawford","{""19047"": 100}","Crawford","19047","FALSE","FALSE","America/Chicago"
"51521","41.47987","-95.34526","Avoca","IA","Iowa","TRUE","","1741","7.7","19155","Pottawattamie","{""19155"": 69.12, ""19165"": 30.88}","Pottawattamie|Shelby","19155|19165","FALSE","FALSE","America/Chicago"
"51523","41.9122","-96.07172","Blencoe","IA","Iowa","TRUE","","402","3.1","19133","Monona","{""19133"": 91.84, ""19085"": 8.16}","Monona|Harrison","19133|19085","FALSE","FALSE","America/Chicago"
"51525","41.23443","-95.41999","Carson","IA","Iowa","TRUE","","1082","6.7","19155","Pottawattamie","{""19155"": 100}","Pottawattamie","19155","FALSE","FALSE","America/Chicago"
"51526","41.37186","-95.87818","Crescent","IA","Iowa","TRUE","","1749","15.5","19155","Pottawattamie","{""19155"": 100}","Pottawattamie","19155","FALSE","FALSE","America/Chicago"
"51527","41.82875","-95.348","Defiance","IA","Iowa","TRUE","","618","5.6","19165","Shelby","{""19165"": 83.28, ""19047"": 16.72}","Shelby|Crawford","19165|19047","FALSE","FALSE","America/Chicago"
"51528","41.92724","-95.50185","Dow City","IA","Iowa","TRUE","","681","3.7","19047","Crawford","{""19047"": 100}","Crawford","19047","FALSE","FALSE","America/Chicago"
"51529","41.8618","-95.62591","Dunlap","IA","Iowa","TRUE","","1789","5.2","19085","Harrison","{""19085"": 38.22, ""19047"": 28.13, ""19133"": 18.18, ""19165"": 15.47}","Harrison|Crawford|Monona|Shelby","19085|19047|19133|19165","FALSE","FALSE","America/Chicago"
"51530","41.78247","-95.42613","Earling","IA","Iowa","TRUE","","529","3.8","19165","Shelby","{""19165"": 100}","Shelby","19165","FALSE","FALSE","America/Chicago"
"51531","41.58751","-95.08837","Elk Horn","IA","Iowa","TRUE","","706","10.0","19165","Shelby","{""19165"": 78.56, ""19009"": 21.44}","Shelby|Audubon","19165|19009","FALSE","FALSE","America/Chicago"
"51532","41.13408","-95.11167","Elliott","IA","Iowa","TRUE","","699","4.5","19137","Montgomery","{""19137"": 86.25, ""19155"": 10.9, ""19029"": 2.85}","Montgomery|Pottawattamie|Cass","19137|19155|19029","FALSE","FALSE","America/Chicago"
"51533","41.03606","-95.37933","Emerson","IA","Iowa","TRUE","","964","4.7","19137","Montgomery","{""19137"": 54.78, ""19129"": 45.22}","Montgomery|Mills","19137|19129","FALSE","FALSE","America/Chicago"
"51534","41.04092","-95.71853","Glenwood","IA","Iowa","TRUE","","9246","35.5","19129","Mills","{""19129"": 100}","Mills","19129","FALSE","FALSE","America/Chicago"
"51535","41.2264","-95.13241","Griswold","IA","Iowa","TRUE","","1721","4.9","19029","Cass","{""19029"": 56.48, ""19155"": 43.52}","Cass|Pottawattamie","19029|19155","FALSE","FALSE","America/Chicago"
"51536","41.38385","-95.36025","Hancock","IA","Iowa","TRUE","","389","3.0","19155","Pottawattamie","{""19155"": 100}","Pottawattamie","19155","FALSE","FALSE","America/Chicago"
"51537","41.64646","-95.29531","Harlan","IA","Iowa","TRUE","","6738","15.9","19165","Shelby","{""19165"": 100}","Shelby","19165","FALSE","FALSE","America/Chicago"
"51540","41.02488","-95.49802","Hastings","IA","Iowa","TRUE","","306","2.1","19129","Mills","{""19129"": 100}","Mills","19129","FALSE","FALSE","America/Chicago"
"51541","41.13664","-95.41623","Henderson","IA","Iowa","TRUE","","440","4.0","19129","Mills","{""19129"": 71.0, ""19137"": 15.86, ""19155"": 13.14}","Mills|Montgomery|Pottawattamie","19129|19137|19155","FALSE","FALSE","America/Chicago"
"51542","41.43354","-95.84072","Honey Creek","IA","Iowa","TRUE","","985","10.0","19155","Pottawattamie","{""19155"": 100}","Pottawattamie","19155","FALSE","FALSE","America/Chicago"
"51543","41.65792","-95.07317","Kimballton","IA","Iowa","TRUE","","410","7.2","19009","Audubon","{""19009"": 69.77, ""19165"": 30.23}","Audubon|Shelby","19009|19165","FALSE","FALSE","America/Chicago"
"51544","41.31316","-95.10817","Lewis","IA","Iowa","TRUE","","681","5.3","19029","Cass","{""19029"": 73.98, ""19155"": 26.02}","Cass|Pottawattamie","19029|19155","FALSE","FALSE","America/Chicago"
"51545","41.83897","-96.02072","Little Sioux","IA","Iowa","TRUE","","296","2.5","19085","Harrison","{""19085"": 72.66, ""19133"": 27.34}","Harrison|Monona","19085|19133","FALSE","FALSE","America/Chicago"
"51546","41.6399","-95.77209","Logan","IA","Iowa","TRUE","","3239","10.3","19085","Harrison","{""19085"": 100}","Harrison","19085","FALSE","FALSE","America/Chicago"
"51548","41.31713","-95.63553","McClelland","IA","Iowa","TRUE","","503","7.3","19155","Pottawattamie","{""19155"": 100}","Pottawattamie","19155","FALSE","FALSE","America/Chicago"
"51549","41.18253","-95.45445","Macedonia","IA","Iowa","TRUE","","593","7.3","19155","Pottawattamie","{""19155"": 100}","Pottawattamie","19155","FALSE","FALSE","America/Chicago"
"51550","41.69203","-95.87399","Magnolia","IA","Iowa","TRUE","","123","87.6","19085","Harrison","{""19085"": 100}","Harrison","19085","FALSE","FALSE","America/Chicago"
"51551","40.99129","-95.58907","Malvern","IA","Iowa","TRUE","","1648","7.8","19129","Mills","{""19129"": 100}","Mills","19129","FALSE","FALSE","America/Chicago"
"51552","41.48613","-95.11439","Marne","IA","Iowa","TRUE","","271","3.5","19029","Cass","{""19029"": 63.11, ""19165"": 36.89}","Cass|Shelby","19029|19165","FALSE","FALSE","America/Chicago"
"51553","41.41577","-95.54638","Minden","IA","Iowa","TRUE","","1119","9.5","19155","Pottawattamie","{""19155"": 100}","Pottawattamie","19155","FALSE","FALSE","America/Chicago"
"51554","41.14512","-95.68122","Mineola","IA","Iowa","TRUE","","168","19.6","19129","Mills","{""19129"": 100}","Mills","19129","FALSE","FALSE","America/Chicago"
"51555","41.55937","-95.91398","Missouri Valley","IA","Iowa","TRUE","","4697","12.4","19085","Harrison","{""19085"": 81.15, ""19155"": 18.85}","Harrison|Pottawattamie","19085|19155","FALSE","FALSE","America/Chicago"
"51556","41.63548","-96.04198","Modale","IA","Iowa","TRUE","","417","3.3","19085","Harrison","{""19085"": 100}","Harrison","19085","FALSE","FALSE","America/Chicago"
"51557","41.72903","-96.00233","Mondamin","IA","Iowa","TRUE","","866","4.4","19085","Harrison","{""19085"": 89.2, ""31021"": 10.8}","Harrison|Burt","19085|31021","FALSE","FALSE","America/Chicago"
"51558","41.91497","-95.87023","Moorhead","IA","Iowa","TRUE","","651","3.0","19133","Monona","{""19133"": 90.83, ""19085"": 9.17}","Monona|Harrison","19133|19085","FALSE","FALSE","America/Chicago"
"51559","41.46034","-95.66049","Neola","IA","Iowa","TRUE","","2037","9.1","19155","Pottawattamie","{""19155"": 84.04, ""19085"": 15.96}","Pottawattamie|Harrison","19155|19085","FALSE","FALSE","America/Chicago"
"51560","41.31746","-95.39838","Oakland","IA","Iowa","TRUE","","2135","9.0","19155","Pottawattamie","{""19155"": 100}","Pottawattamie","19155","FALSE","FALSE","America/Chicago"
"51561","41.00571","-95.80992","Pacific Junction","IA","Iowa","TRUE","","1007","6.9","19129","Mills","{""19129"": 100}","Mills","19129","FALSE","FALSE","America/Chicago"
"51562","41.72591","-95.50128","Panama","IA","Iowa","TRUE","","532","6.0","19165","Shelby","{""19165"": 100}","Shelby","19165","FALSE","FALSE","America/Chicago"
"51563","41.5769","-95.59405","Persia","IA","Iowa","TRUE","","726","5.2","19085","Harrison","{""19085"": 99.73, ""19165"": 0.27}","Harrison|Shelby","19085|19165","FALSE","FALSE","America/Chicago"
"51564","41.81309","-95.90801","Pisgah","IA","Iowa","TRUE","","457","4.7","19085","Harrison","{""19085"": 100}","Harrison","19085","FALSE","FALSE","America/Chicago"
"51565","41.64555","-95.52391","Portsmouth","IA","Iowa","TRUE","","525","4.4","19165","Shelby","{""19165"": 74.05, ""19085"": 25.95}","Shelby|Harrison","19165|19085","FALSE","FALSE","America/Chicago"
"51566","41.0151","-95.22994","Red Oak","IA","Iowa","TRUE","","6707","14.7","19137","Montgomery","{""19137"": 91.46, ""19145"": 6.58, ""19155"": 1.96}","Montgomery|Page|Pottawattamie","19137|19145|19155","FALSE","FALSE","America/Chicago"
"51570","41.52271","-95.46039","Shelby","IA","Iowa","TRUE","","931","5.7","19165","Shelby","{""19165"": 53.42, ""19155"": 32.9, ""19085"": 13.68}","Shelby|Pottawattamie|Harrison","19165|19155|19085","FALSE","FALSE","America/Chicago"
"51571","41.14582","-95.60994","Silver City","IA","Iowa","TRUE","","699","5.9","19129","Mills","{""19129"": 66.05, ""19155"": 33.95}","Mills|Pottawattamie","19129|19155","FALSE","FALSE","America/Chicago"
"51572","41.9896","-95.79053","Soldier","IA","Iowa","TRUE","","478","4.4","19133","Monona","{""19133"": 100}","Monona","19133","FALSE","FALSE","America/Chicago"
"51573","40.97949","-95.09451","Stanton","IA","Iowa","TRUE","","1097","7.2","19137","Montgomery","{""19137"": 100}","Montgomery","19137","FALSE","FALSE","America/Chicago"
"51575","41.24111","-95.60218","Treynor","IA","Iowa","TRUE","","1485","12.0","19155","Pottawattamie","{""19155"": 100}","Pottawattamie","19155","FALSE","FALSE","America/Chicago"
"51576","41.3777","-95.70945","Underwood","IA","Iowa","TRUE","","2036","17.0","19155","Pottawattamie","{""19155"": 100}","Pottawattamie","19155","FALSE","FALSE","America/Chicago"
"51577","41.4644","-95.20296","Walnut","IA","Iowa","TRUE","","932","4.3","19155","Pottawattamie","{""19155"": 66.46, ""19165"": 31.23, ""19029"": 2.31}","Pottawattamie|Shelby|Cass","19155|19165|19029","FALSE","FALSE","America/Chicago"
"51578","41.72002","-95.39508","Westphalia","IA","Iowa","TRUE","","163","915.7","19165","Shelby","{""19165"": 100}","Shelby","19165","FALSE","FALSE","America/Chicago"
"51579","41.75171","-95.7069","Woodbine","IA","Iowa","TRUE","","2304","7.6","19085","Harrison","{""19085"": 100}","Harrison","19085","FALSE","FALSE","America/Chicago"
"51601","40.72938","-95.35037","Shenandoah","IA","Iowa","TRUE","","5451","20.4","19145","Page","{""19145"": 62.72, ""19071"": 37.28}","Page|Fremont","19145|19071","FALSE","FALSE","America/Chicago"
"51630","40.60101","-95.19427","Blanchard","IA","Iowa","TRUE","","178","2.6","19145","Page","{""19145"": 100}","Page","19145","FALSE","FALSE","America/Chicago"
"51631","40.60267","-95.00918","Braddyville","IA","Iowa","TRUE","","333","3.4","19145","Page","{""19145"": 100}","Page","19145","FALSE","FALSE","America/Chicago"
"51632","40.7478","-95.04939","Clarinda","IA","Iowa","TRUE","","6890","12.6","19145","Page","{""19145"": 98.51, ""19173"": 1.49}","Page|Taylor","19145|19173","FALSE","FALSE","America/Chicago"
"51636","40.66713","-95.23519","Coin","IA","Iowa","TRUE","","482","3.4","19145","Page","{""19145"": 100}","Page","19145","FALSE","FALSE","America/Chicago"
"51637","40.62046","-95.11832","College Springs","IA","Iowa","TRUE","","247","76.2","19145","Page","{""19145"": 100}","Page","19145","FALSE","FALSE","America/Chicago"
"51638","40.83919","-95.26663","Essex","IA","Iowa","TRUE","","1246","6.0","19145","Page","{""19145"": 98.02, ""19137"": 1.98}","Page|Montgomery","19145|19137","FALSE","FALSE","America/Chicago"
"51639","40.71859","-95.47362","Farragut","IA","Iowa","TRUE","","737","4.2","19071","Fremont","{""19071"": 100}","Fremont","19071","FALSE","FALSE","America/Chicago"
"51640","40.62262","-95.6634","Hamburg","IA","Iowa","TRUE","","1599","5.3","19071","Fremont","{""19071"": 81.66, ""29005"": 18.34}","Fremont|Atchison","19071|29005","FALSE","FALSE","America/Chicago"
"51645","40.88206","-95.4229","Imogene","IA","Iowa","TRUE","","266","2.3","19071","Fremont","{""19071"": 57.47, ""19129"": 30.08, ""19137"": 6.99, ""19145"": 5.46}","Fremont|Mills|Montgomery|Page","19071|19129|19137|19145","FALSE","FALSE","America/Chicago"
"51646","40.75315","-94.8725","New Market","IA","Iowa","TRUE","","894","6.1","19173","Taylor","{""19173"": 100}","Taylor","19173","FALSE","FALSE","America/Chicago"
"51647","40.60539","-95.34509","Northboro","IA","Iowa","TRUE","","180","2.8","19145","Page","{""19145"": 75.24, ""19071"": 24.76}","Page|Fremont","19145|19071","FALSE","FALSE","America/Chicago"
"51648","40.74215","-95.80325","Percival","IA","Iowa","TRUE","","268","1.8","19071","Fremont","{""19071"": 100}","Fremont","19071","FALSE","FALSE","America/Chicago"
"51649","40.8518","-95.53565","Randolph","IA","Iowa","TRUE","","379","3.5","19071","Fremont","{""19071"": 100}","Fremont","19071","FALSE","FALSE","America/Chicago"
"51650","40.673","-95.5492","Riverton","IA","Iowa","TRUE","","263","3.2","19071","Fremont","{""19071"": 100}","Fremont","19071","FALSE","FALSE","America/Chicago"
"51651","40.65652","-95.03473","Shambaugh","IA","Iowa","TRUE","","135","223.1","19145","Page","{""19145"": 100}","Page","19145","FALSE","FALSE","America/Chicago"
"51652","40.77032","-95.62815","Sidney","IA","Iowa","TRUE","","1496","7.8","19071","Fremont","{""19071"": 100}","Fremont","19071","FALSE","FALSE","America/Chicago"
"51653","40.88444","-95.67179","Tabor","IA","Iowa","TRUE","","1423","15.6","19071","Fremont","{""19071"": 74.55, ""19129"": 25.45}","Fremont|Mills","19071|19129","FALSE","FALSE","America/Chicago"
"51654","40.831","-95.76038","Thurman","IA","Iowa","TRUE","","397","3.3","19071","Fremont","{""19071"": 100}","Fremont","19071","FALSE","FALSE","America/Chicago"
"51656","40.73527","-95.15437","Yorktown","IA","Iowa","TRUE","","38","54.1","19145","Page","{""19145"": 100}","Page","19145","FALSE","FALSE","America/Chicago"
"52001","42.54819","-90.69348","Dubuque","IA","Iowa","TRUE","","43623","644.7","19061","Dubuque","{""19061"": 100}","Dubuque","19061","FALSE","FALSE","America/Chicago"
"52002","42.52481","-90.77184","Dubuque","IA","Iowa","TRUE","","17420","230.6","19061","Dubuque","{""19061"": 100}","Dubuque","19061","FALSE","FALSE","America/Chicago"
"52003","42.43434","-90.67506","Dubuque","IA","Iowa","TRUE","","13855","94.9","19061","Dubuque","{""19061"": 100}","Dubuque","19061","FALSE","FALSE","America/Chicago"
"52030","42.15322","-90.59219","Andrew","IA","Iowa","TRUE","","398","619.7","19097","Jackson","{""19097"": 100}","Jackson","19097","FALSE","FALSE","America/Chicago"
"52031","42.24874","-90.48922","Bellevue","IA","Iowa","TRUE","","5007","11.6","19097","Jackson","{""19097"": 94.87, ""19061"": 5.13}","Jackson|Dubuque","19097|19061","FALSE","FALSE","America/Chicago"
"52032","42.29006","-90.84317","Bernard","IA","Iowa","TRUE","","1437","5.4","19061","Dubuque","{""19061"": 46.96, ""19097"": 45.64, ""19105"": 7.4}","Dubuque|Jackson|Jones","19061|19097|19105","FALSE","FALSE","America/Chicago"
"52033","42.27941","-91.00177","Cascade","IA","Iowa","TRUE","","3314","13.0","19105","Jones","{""19105"": 57.96, ""19061"": 42.04}","Jones|Dubuque","19105|19061","FALSE","FALSE","America/Chicago"
"52035","42.65996","-91.18784","Colesburg","IA","Iowa","TRUE","","1078","8.3","19043","Clayton","{""19043"": 62.27, ""19055"": 37.73}","Clayton|Delaware","19043|19055","FALSE","FALSE","America/Chicago"
"52036","42.47285","-91.34086","Delaware","IA","Iowa","TRUE","","125","113.1","19055","Delaware","{""19055"": 100}","Delaware","19055","FALSE","FALSE","America/Chicago"
"52037","41.96712","-90.62899","Delmar","IA","Iowa","TRUE","","915","5.2","19045","Clinton","{""19045"": 97.77, ""19097"": 2.23}","Clinton|Jackson","19045|19097","FALSE","FALSE","America/Chicago"
"52038","42.58586","-91.55685","Dundee","IA","Iowa","TRUE","","558","8.0","19055","Delaware","{""19055"": 100}","Delaware","19055","FALSE","FALSE","America/Chicago"
"52039","42.53807","-90.85745","Durango","IA","Iowa","TRUE","","849","9.3","19061","Dubuque","{""19061"": 100}","Dubuque","19061","FALSE","FALSE","America/Chicago"
"52040","42.51114","-91.13884","Dyersville","IA","Iowa","TRUE","","5560","34.7","19055","Delaware","{""19055"": 53.67, ""19061"": 46.33}","Delaware|Dubuque","19055|19061","FALSE","FALSE","America/Chicago"
"52041","42.5051","-91.25515","Earlville","IA","Iowa","TRUE","","2163","14.2","19055","Delaware","{""19055"": 100}","Delaware","19055","FALSE","FALSE","America/Chicago"
"52042","42.68098","-91.36517","Edgewood","IA","Iowa","TRUE","","1662","10.6","19043","Clayton","{""19043"": 81.35, ""19055"": 18.65}","Clayton|Delaware","19043|19055","FALSE","FALSE","America/Chicago"
"52043","42.84403","-91.42201","Elkader","IA","Iowa","TRUE","","1780","7.1","19043","Clayton","{""19043"": 100}","Clayton","19043","FALSE","FALSE","America/Chicago"
"52044","42.76808","-91.32328","Elkport","IA","Iowa","TRUE","","265","8.0","19043","Clayton","{""19043"": 100}","Clayton","19043","FALSE","FALSE","America/Chicago"
"52045","42.45485","-90.93113","Epworth","IA","Iowa","TRUE","","2748","22.1","19061","Dubuque","{""19061"": 100}","Dubuque","19061","FALSE","FALSE","America/Chicago"
"52046","42.44024","-91.0119","Farley","IA","Iowa","TRUE","","2624","21.0","19061","Dubuque","{""19061"": 100}","Dubuque","19061","FALSE","FALSE","America/Chicago"
"52047","42.96401","-91.34301","Farmersburg","IA","Iowa","TRUE","","805","8.2","19043","Clayton","{""19043"": 100}","Clayton","19043","FALSE","FALSE","America/Chicago"
"52048","42.73735","-91.25584","Garber","IA","Iowa","TRUE","","334","3.6","19043","Clayton","{""19043"": 100}","Clayton","19043","FALSE","FALSE","America/Chicago"
"52049","42.8823","-91.20521","Garnavillo","IA","Iowa","TRUE","","1106","6.3","19043","Clayton","{""19043"": 100}","Clayton","19043","FALSE","FALSE","America/Chicago"
"52050","42.60532","-91.33204","Greeley","IA","Iowa","TRUE","","513","6.2","19055","Delaware","{""19055"": 88.26, ""19043"": 11.74}","Delaware|Clayton","19055|19043","FALSE","FALSE","America/Chicago"
"52052","42.7411","-91.12083","Guttenberg","IA","Iowa","TRUE","","2846","12.2","19043","Clayton","{""19043"": 90.38, ""19061"": 9.62}","Clayton|Dubuque","19043|19061","FALSE","FALSE","America/Chicago"
"52053","42.60656","-90.96399","Holy Cross","IA","Iowa","TRUE","","1222","8.1","19061","Dubuque","{""19061"": 78.28, ""19043"": 21.72}","Dubuque|Clayton","19061|19043","FALSE","FALSE","America/Chicago"
"52054","42.30569","-90.62811","La Motte","IA","Iowa","TRUE","","906","6.2","19097","Jackson","{""19097"": 92.97, ""19061"": 7.03}","Jackson|Dubuque","19097|19061","FALSE","FALSE","America/Chicago"
"52056","42.60401","-91.07257","Luxemburg","IA","Iowa","TRUE","","223","182.5","19061","Dubuque","{""19061"": 100}","Dubuque","19061","FALSE","FALSE","America/Chicago"
"52057","42.4916","-91.45333","Manchester","IA","Iowa","TRUE","","8006","22.3","19055","Delaware","{""19055"": 100}","Delaware","19055","FALSE","FALSE","America/Chicago"
"52060","42.10217","-90.67961","Maquoketa","IA","Iowa","TRUE","","8018","19.5","19097","Jackson","{""19097"": 88.17, ""19045"": 11.83}","Jackson|Clinton","19097|19045","FALSE","FALSE","America/Chicago"
"52064","42.08977","-90.31076","Miles","IA","Iowa","TRUE","","865","7.9","19097","Jackson","{""19097"": 86.06, ""19045"": 13.94}","Jackson|Clinton","19097|19045","FALSE","FALSE","America/Chicago"
"52065","42.58353","-91.10202","New Vienna","IA","Iowa","TRUE","","819","6.5","19061","Dubuque","{""19061"": 74.82, ""19055"": 25.18}","Dubuque|Delaware","19061|19055","FALSE","FALSE","America/Chicago"
"52066","42.693","-90.96925","North Buena Vista","IA","Iowa","TRUE","","99","14.1","19043","Clayton","{""19043"": 100}","Clayton","19043","FALSE","FALSE","America/Chicago"
"52068","42.42382","-90.81128","Peosta","IA","Iowa","TRUE","","4701","42.1","19061","Dubuque","{""19061"": 100}","Dubuque","19061","FALSE","FALSE","America/Chicago"
"52069","42.05772","-90.4279","Preston","IA","Iowa","TRUE","","1613","12.7","19097","Jackson","{""19097"": 77.66, ""19045"": 22.34}","Jackson|Clinton","19097|19045","FALSE","FALSE","America/Chicago"
"52070","42.08146","-90.21771","Sabula","IA","Iowa","TRUE","","1153","9.2","19097","Jackson","{""19097"": 82.09, ""19045"": 17.91}","Jackson|Clinton","19097|19045","FALSE","FALSE","America/Chicago"
"52071","42.36245","-90.54234","Saint Donatus","IA","Iowa","TRUE","","116","103.9","19097","Jackson","{""19097"": 100}","Jackson","19097","FALSE","FALSE","America/Chicago"
"52072","42.92022","-91.38025","Saint Olaf","IA","Iowa","TRUE","","961","11.2","19043","Clayton","{""19043"": 100}","Clayton","19043","FALSE","FALSE","America/Chicago"
"52073","42.62331","-90.82069","Sherrill","IA","Iowa","TRUE","","1517","12.2","19061","Dubuque","{""19061"": 92.82, ""19043"": 7.18}","Dubuque|Clayton","19061|19043","FALSE","FALSE","America/Chicago"
"52074","42.10966","-90.4724","Spragueville","IA","Iowa","TRUE","","356","4.4","19097","Jackson","{""19097"": 100}","Jackson","19097","FALSE","FALSE","America/Chicago"
"52075","42.16577","-90.47916","Springbrook","IA","Iowa","TRUE","","153","98.2","19097","Jackson","{""19097"": 100}","Jackson","19097","FALSE","FALSE","America/Chicago"
"52076","42.69805","-91.50984","Strawberry Point","IA","Iowa","TRUE","","2140","8.1","19043","Clayton","{""19043"": 82.71, ""19055"": 16.61, ""19065"": 0.68}","Clayton|Delaware|Fayette","19043|19055|19065","FALSE","FALSE","America/Chicago"
"52077","42.82258","-91.55393","Volga","IA","Iowa","TRUE","","296","3.8","19043","Clayton","{""19043"": 100}","Clayton","19043","FALSE","FALSE","America/Chicago"
"52078","42.39506","-91.11534","Worthington","IA","Iowa","TRUE","","649","6.0","19061","Dubuque","{""19061"": 64.18, ""19055"": 35.82}","Dubuque|Delaware","19061|19055","FALSE","FALSE","America/Chicago"
"52079","42.28781","-90.71908","Zwingle","IA","Iowa","TRUE","","753","4.9","19097","Jackson","{""19097"": 54.5, ""19061"": 45.5}","Jackson|Dubuque","19097|19061","FALSE","FALSE","America/Chicago"
"52101","43.35741","-91.76494","Decorah","IA","Iowa","TRUE","","13120","16.0","19191","Winneshiek","{""19191"": 97.07, ""19005"": 2.93}","Winneshiek|Allamakee","19191|19005","FALSE","FALSE","America/Chicago"
"52132","43.2067","-91.91881","Calmar","IA","Iowa","TRUE","","1824","11.4","19191","Winneshiek","{""19191"": 98.34, ""19089"": 1.66}","Winneshiek|Howard","19191|19089","FALSE","FALSE","America/Chicago"
"52133","43.10702","-91.66854","Castalia","IA","Iowa","TRUE","","605","5.3","19191","Winneshiek","{""19191"": 70.29, ""19065"": 29.71}","Winneshiek|Fayette","19191|19065","FALSE","FALSE","America/Chicago"
"52134","43.47156","-92.40078","Chester","IA","Iowa","TRUE","","309","4.3","19089","Howard","{""19089"": 100}","Howard","19089","FALSE","FALSE","America/Chicago"
"52135","43.01945","-91.66204","Clermont","IA","Iowa","TRUE","","636","8.7","19065","Fayette","{""19065"": 92.49, ""19043"": 7.51}","Fayette|Clayton","19065|19043","FALSE","FALSE","America/Chicago"
"52136","43.37139","-92.11289","Cresco","IA","Iowa","TRUE","","5765","10.6","19089","Howard","{""19089"": 66.89, ""19191"": 33.11}","Howard|Winneshiek","19089|19191","FALSE","FALSE","America/Chicago"
"52140","43.44173","-91.53108","Dorchester","IA","Iowa","TRUE","","446","2.3","19005","Allamakee","{""19005"": 91.08, ""19191"": 8.92}","Allamakee|Winneshiek","19005|19191","FALSE","FALSE","America/Chicago"
"52141","42.93924","-91.63007","Elgin","IA","Iowa","TRUE","","1288","6.0","19065","Fayette","{""19065"": 58.47, ""19043"": 41.53}","Fayette|Clayton","19065|19043","FALSE","FALSE","America/Chicago"
"52142","42.82752","-91.79441","Fayette","IA","Iowa","TRUE","","1665","8.5","19065","Fayette","{""19065"": 100}","Fayette","19065","FALSE","FALSE","America/Chicago"
"52144","43.13961","-91.96075","Fort Atkinson","IA","Iowa","TRUE","","922","4.8","19191","Winneshiek","{""19191"": 94.31, ""19065"": 5.69}","Winneshiek|Fayette","19191|19065","FALSE","FALSE","America/Chicago"
"52146","43.18826","-91.19588","Harpers Ferry","IA","Iowa","TRUE","","801","3.8","19005","Allamakee","{""19005"": 100}","Allamakee","19005","FALSE","FALSE","America/Chicago"
"52147","42.94957","-91.96106","Hawkeye","IA","Iowa","TRUE","","997","5.6","19065","Fayette","{""19065"": 100}","Fayette","19065","FALSE","FALSE","America/Chicago"
"52151","43.34706","-91.28013","Lansing","IA","Iowa","TRUE","","1816","6.1","19005","Allamakee","{""19005"": 100}","Allamakee","19005","FALSE","FALSE","America/Chicago"
"52154","43.12201","-92.16519","Lawler","IA","Iowa","TRUE","","837","4.4","19037","Chickasaw","{""19037"": 98.58, ""19089"": 1.42}","Chickasaw|Howard","19037|19089","FALSE","FALSE","America/Chicago"
"52155","43.41412","-92.29683","Lime Springs","IA","Iowa","TRUE","","1434","5.3","19089","Howard","{""19089"": 100}","Howard","19089","FALSE","FALSE","America/Chicago"
"52156","43.05316","-91.46534","Luana","IA","Iowa","TRUE","","674","5.5","19043","Clayton","{""19043"": 72.56, ""19005"": 27.44}","Clayton|Allamakee","19043|19005","FALSE","FALSE","America/Chicago"
"52157","43.01661","-91.23216","McGregor","IA","Iowa","TRUE","","1706","11.6","19043","Clayton","{""19043"": 100}","Clayton","19043","FALSE","FALSE","America/Chicago"
"52158","43.04388","-91.18647","Marquette","IA","Iowa","TRUE","","289","87.1","19043","Clayton","{""19043"": 100}","Clayton","19043","FALSE","FALSE","America/Chicago"
"52159","43.07979","-91.36134","Monona","IA","Iowa","TRUE","","2342","12.4","19005","Allamakee","{""19005"": 50.78, ""19043"": 49.22}","Allamakee|Clayton","19005|19043","FALSE","FALSE","America/Chicago"
"52160","43.46733","-91.3521","New Albin","IA","Iowa","TRUE","","957","8.2","19005","Allamakee","{""19005"": 100}","Allamakee","19005","FALSE","FALSE","America/Chicago"
"52161","43.12733","-91.75623","Ossian","IA","Iowa","TRUE","","1399","10.2","19191","Winneshiek","{""19191"": 86.28, ""19065"": 13.72}","Winneshiek|Fayette","19191|19065","FALSE","FALSE","America/Chicago"
"52162","43.11062","-91.55266","Postville","IA","Iowa","TRUE","","3455","13.8","19005","Allamakee","{""19005"": 59.92, ""19043"": 27.38, ""19191"": 9.59, ""19065"": 3.11}","Allamakee|Clayton|Winneshiek|Fayette","19005|19043|19191|19065","FALSE","FALSE","America/Chicago"
"52163","43.21976","-92.10315","Protivin","IA","Iowa","TRUE","","356","77.6","19089","Howard","{""19089"": 100}","Howard","19089","FALSE","FALSE","America/Chicago"
"52164","42.85212","-91.89941","Randalia","IA","Iowa","TRUE","","287","4.4","19065","Fayette","{""19065"": 100}","Fayette","19065","FALSE","FALSE","America/Chicago"
"52165","43.30671","-91.98465","Ridgeway","IA","Iowa","TRUE","","1065","6.2","19191","Winneshiek","{""19191"": 100}","Winneshiek","19191","FALSE","FALSE","America/Chicago"
"52166","43.06791","-91.93547","Saint Lucas","IA","Iowa","TRUE","","128","191.5","19065","Fayette","{""19065"": 100}","Fayette","19065","FALSE","FALSE","America/Chicago"
"52168","43.20339","-91.95338","Spillville","IA","Iowa","TRUE","","371","378.0","19191","Winneshiek","{""19191"": 100}","Winneshiek","19191","FALSE","FALSE","America/Chicago"
"52169","42.84739","-91.65971","Wadena","IA","Iowa","TRUE","","362","4.2","19065","Fayette","{""19065"": 94.02, ""19043"": 5.98}","Fayette|Clayton","19065|19043","FALSE","FALSE","America/Chicago"
"52170","43.22886","-91.30485","Waterville","IA","Iowa","TRUE","","523","4.1","19005","Allamakee","{""19005"": 100}","Allamakee","19005","FALSE","FALSE","America/Chicago"
"52171","43.07451","-92.04808","Waucoma","IA","Iowa","TRUE","","1021","4.8","19065","Fayette","{""19065"": 50.39, ""19037"": 31.15, ""19191"": 18.46}","Fayette|Chickasaw|Winneshiek","19065|19037|19191","FALSE","FALSE","America/Chicago"
"52172","43.27117","-91.48382","Waukon","IA","Iowa","TRUE","","6168","14.9","19005","Allamakee","{""19005"": 95.49, ""19191"": 4.51}","Allamakee|Winneshiek","19005|19191","FALSE","FALSE","America/Chicago"
"52175","42.99372","-91.82389","West Union","IA","Iowa","TRUE","","3522","15.9","19065","Fayette","{""19065"": 100}","Fayette","19065","FALSE","FALSE","America/Chicago"
"52201","41.33218","-91.54704","Ainsworth","IA","Iowa","TRUE","","1494","8.8","19183","Washington","{""19183"": 100}","Washington","19183","FALSE","FALSE","America/Chicago"
"52202","42.15836","-91.63792","Alburnett","IA","Iowa","TRUE","","1125","16.9","19113","Linn","{""19113"": 100}","Linn","19113","FALSE","FALSE","America/Chicago"
"52203","41.81035","-91.8906","Amana","IA","Iowa","TRUE","","2478","18.2","19095","Iowa","{""19095"": 78.74, ""19103"": 21.26}","Iowa|Johnson","19095|19103","FALSE","FALSE","America/Chicago"
"52205","42.11754","-91.28806","Anamosa","IA","Iowa","TRUE","","8427","26.4","19105","Jones","{""19105"": 85.19, ""19113"": 14.81}","Jones|Linn","19105|19113","FALSE","FALSE","America/Chicago"
"52206","41.99187","-91.88718","Atkins","IA","Iowa","TRUE","","2778","37.6","19011","Benton","{""19011"": 100}","Benton","19011","FALSE","FALSE","America/Chicago"
"52207","42.09286","-90.83","Baldwin","IA","Iowa","TRUE","","321","3.4","19097","Jackson","{""19097"": 87.22, ""19045"": 12.78}","Jackson|Clinton","19097|19045","FALSE","FALSE","America/Chicago"
"52208","41.88568","-92.26475","Belle Plaine","IA","Iowa","TRUE","","3015","19.2","19011","Benton","{""19011"": 55.79, ""19095"": 27.33, ""19171"": 13.46, ""19157"": 3.42}","Benton|Iowa|Tama|Poweshiek","19011|19095|19171|19157","FALSE","FALSE","America/Chicago"
"52209","41.90809","-92.09462","Blairstown","IA","Iowa","TRUE","","1025","10.1","19011","Benton","{""19011"": 96.28, ""19095"": 3.72}","Benton|Iowa","19011|19095","FALSE","FALSE","America/Chicago"
"52210","42.33905","-92.00537","Brandon","IA","Iowa","TRUE","","889","9.9","19019","Buchanan","{""19019"": 98.62, ""19011"": 1.38}","Buchanan|Benton","19019|19011","FALSE","FALSE","America/Chicago"
"52211","41.75978","-92.45062","Brooklyn","IA","Iowa","TRUE","","2566","11.3","19157","Poweshiek","{""19157"": 100}","Poweshiek","19157","FALSE","FALSE","America/Chicago"
"52212","42.10954","-91.08929","Center Junction","IA","Iowa","TRUE","","379","6.6","19105","Jones","{""19105"": 100}","Jones","19105","FALSE","FALSE","America/Chicago"
"52213","42.1995","-91.77222","Center Point","IA","Iowa","TRUE","","3955","21.0","19113","Linn","{""19113"": 76.16, ""19011"": 23.84}","Linn|Benton","19113|19011","FALSE","FALSE","America/Chicago"
"52214","42.19056","-91.50704","Central City","IA","Iowa","TRUE","","3093","13.2","19113","Linn","{""19113"": 100}","Linn","19113","FALSE","FALSE","America/Chicago"
"52215","41.91018","-92.40106","Chelsea","IA","Iowa","TRUE","","962","4.7","19171","Tama","{""19171"": 81.03, ""19157"": 18.97}","Tama|Poweshiek","19171|19157","FALSE","FALSE","America/Chicago"
"52216","41.89321","-91.0431","Clarence","IA","Iowa","TRUE","","1362","9.1","19031","Cedar","{""19031"": 85.83, ""19105"": 14.17}","Cedar|Jones","19031|19105","FALSE","FALSE","America/Chicago"
"52217","42.07948","-92.41067","Clutier","IA","Iowa","TRUE","","552","3.9","19171","Tama","{""19171"": 100}","Tama","19171","FALSE","FALSE","America/Chicago"
"52218","42.2946","-91.53826","Coggon","IA","Iowa","TRUE","","1657","8.5","19113","Linn","{""19113"": 55.76, ""19019"": 24.15, ""19055"": 20.09}","Linn|Buchanan|Delaware","19113|19019|19055","FALSE","FALSE","America/Chicago"
"52219","42.23758","-91.42576","Prairieburg","IA","Iowa","TRUE","","160","137.8","19113","Linn","{""19113"": 100}","Linn","19113","FALSE","FALSE","America/Chicago"
"52220","41.72661","-91.99853","Conroy","IA","Iowa","TRUE","","158","80.0","19095","Iowa","{""19095"": 100}","Iowa","19095","FALSE","FALSE","America/Chicago"
"52221","41.64151","-92.33215","Guernsey","IA","Iowa","TRUE","","247","4.5","19157","Poweshiek","{""19157"": 84.62, ""19095"": 15.38}","Poweshiek|Iowa","19157|19095","FALSE","FALSE","America/Chicago"
"52222","41.57623","-92.33693","Deep River","IA","Iowa","TRUE","","686","3.4","19157","Poweshiek","{""19157"": 70.72, ""19095"": 29.28}","Poweshiek|Iowa","19157|19095","FALSE","FALSE","America/Chicago"
"52223","42.41315","-91.32408","Delhi","IA","Iowa","TRUE","","1014","8.2","19055","Delaware","{""19055"": 100}","Delaware","19055","FALSE","FALSE","America/Chicago"
"52224","42.16386","-92.29836","Dysart","IA","Iowa","TRUE","","2026","7.9","19011","Benton","{""19011"": 52.18, ""19171"": 47.82}","Benton|Tama","19011|19171","FALSE","FALSE","America/Chicago"
"52225","42.01289","-92.32636","Elberon","IA","Iowa","TRUE","","428","4.3","19171","Tama","{""19171"": 72.35, ""19011"": 27.65}","Tama|Benton","19171|19011","FALSE","FALSE","America/Chicago"
"52227","41.89647","-91.5626","Ely","IA","Iowa","TRUE","","2881","37.8","19113","Linn","{""19113"": 93.55, ""19103"": 6.45}","Linn|Johnson","19113|19103","FALSE","FALSE","America/Chicago"
"52228","41.90282","-91.79132","Fairfax","IA","Iowa","TRUE","","3637","37.7","19113","Linn","{""19113"": 75.69, ""19011"": 13.04, ""19103"": 11.27}","Linn|Benton|Johnson","19113|19011|19103","FALSE","FALSE","America/Chicago"
"52229","42.14609","-92.16884","Garrison","IA","Iowa","TRUE","","893","6.5","19011","Benton","{""19011"": 100}","Benton","19011","FALSE","FALSE","America/Chicago"
"52231","41.36371","-92.05912","Harper","IA","Iowa","TRUE","","373","4.2","19107","Keokuk","{""19107"": 100}","Keokuk","19107","FALSE","FALSE","America/Chicago"
"52232","41.80128","-92.34043","Hartwick","IA","Iowa","TRUE","","323","5.9","19157","Poweshiek","{""19157"": 100}","Poweshiek","19157","FALSE","FALSE","America/Chicago"
"52233","42.04934","-91.68732","Hiawatha","IA","Iowa","TRUE","","7024","692.9","19113","Linn","{""19113"": 100}","Linn","19113","FALSE","FALSE","America/Chicago"
"52235","41.57024","-91.53281","Hills","IA","Iowa","TRUE","","821","147.8","19103","Johnson","{""19103"": 100}","Johnson","19103","FALSE","FALSE","America/Chicago"
"52236","41.73143","-91.87647","Homestead","IA","Iowa","TRUE","","457","6.7","19095","Iowa","{""19095"": 100}","Iowa","19095","FALSE","FALSE","America/Chicago"
"52237","42.34368","-91.25193","Hopkinton","IA","Iowa","TRUE","","1570","7.2","19055","Delaware","{""19055"": 95.59, ""19105"": 2.9, ""19061"": 1.51}","Delaware|Jones|Dubuque","19055|19105|19061","FALSE","FALSE","America/Chicago"
"52240","41.63143","-91.49924","Iowa City","IA","Iowa","TRUE","","36370","98.8","19103","Johnson","{""19103"": 100}","Johnson","19103","FALSE","FALSE","America/Chicago"
"52241","41.69708","-91.59746","Coralville","IA","Iowa","TRUE","","22226","635.4","19103","Johnson","{""19103"": 100}","Johnson","19103","FALSE","FALSE","America/Chicago"
"52242","41.66195","-91.54317","Iowa City","IA","Iowa","TRUE","","3836","2069.5","19103","Johnson","{""19103"": 100}","Johnson","19103","FALSE","FALSE","America/Chicago"
"52245","41.67071","-91.50666","Iowa City","IA","Iowa","TRUE","","22179","1019.9","19103","Johnson","{""19103"": 100}","Johnson","19103","FALSE","FALSE","America/Chicago"
"52246","41.64903","-91.59718","Iowa City","IA","Iowa","TRUE","","22411","517.8","19103","Johnson","{""19103"": 100}","Johnson","19103","FALSE","FALSE","America/Chicago"
"52247","41.51503","-91.71774","Kalona","IA","Iowa","TRUE","","4806","23.0","19103","Johnson","{""19103"": 55.02, ""19183"": 44.98}","Johnson|Washington","19103|19183","FALSE","FALSE","America/Chicago"
"52248","41.34386","-91.93891","Keota","IA","Iowa","TRUE","","1499","5.2","19183","Washington","{""19183"": 51.59, ""19107"": 48.41}","Washington|Keokuk","19183|19107","FALSE","FALSE","America/Chicago"
"52249","42.01202","-92.20517","Keystone","IA","Iowa","TRUE","","906","7.0","19011","Benton","{""19011"": 100}","Benton","19011","FALSE","FALSE","America/Chicago"
"52251","41.71218","-92.20314","Ladora","IA","Iowa","TRUE","","721","7.1","19095","Iowa","{""19095"": 100}","Iowa","19095","FALSE","FALSE","America/Chicago"
"52252","42.19712","-91.22727","Langworthy","IA","Iowa","TRUE","","117","32.0","19105","Jones","{""19105"": 100}","Jones","19105","FALSE","FALSE","America/Chicago"
"52253","41.89713","-91.35154","Lisbon","IA","Iowa","TRUE","","2816","23.1","19031","Cedar","{""19031"": 49.91, ""19113"": 23.56, ""19105"": 17.73, ""19103"": 8.79}","Cedar|Linn|Jones|Johnson","19031|19113|19105|19103","FALSE","FALSE","America/Chicago"
"52254","41.95232","-90.80538","Lost Nation","IA","Iowa","TRUE","","926","6.0","19045","Clinton","{""19045"": 100}","Clinton","19045","FALSE","FALSE","America/Chicago"
"52255","41.86294","-90.96129","Lowden","IA","Iowa","TRUE","","1276","11.5","19031","Cedar","{""19031"": 100}","Cedar","19031","FALSE","FALSE","America/Chicago"
"52257","41.91836","-92.17742","Luzerne","IA","Iowa","TRUE","","210","4.9","19011","Benton","{""19011"": 100}","Benton","19011","FALSE","FALSE","America/Chicago"
"52301","41.78658","-92.09013","Marengo","IA","Iowa","TRUE","","3856","11.8","19095","Iowa","{""19095"": 96.43, ""19011"": 3.57}","Iowa|Benton","19095|19011","FALSE","FALSE","America/Chicago"
"52302","42.0656","-91.57091","Marion","IA","Iowa","TRUE","","42386","220.1","19113","Linn","{""19113"": 100}","Linn","19113","FALSE","FALSE","America/Chicago"
"52305","42.01801","-91.34207","Martelle","IA","Iowa","TRUE","","842","12.0","19105","Jones","{""19105"": 78.09, ""19113"": 21.91}","Jones|Linn","19105|19113","FALSE","FALSE","America/Chicago"
"52306","41.89729","-91.25296","Mechanicsville","IA","Iowa","TRUE","","1334","6.8","19031","Cedar","{""19031"": 79.09, ""19105"": 20.91}","Cedar|Jones","19031|19105","FALSE","FALSE","America/Chicago"
"52307","41.79158","-91.90244","Middle Amana","IA","Iowa","TRUE","","119","85.7","19095","Iowa","{""19095"": 100}","Iowa","19095","FALSE","FALSE","America/Chicago"
"52308","41.5733","-92.1592","Millersburg","IA","Iowa","TRUE","","162","514.4","19095","Iowa","{""19095"": 100}","Iowa","19095","FALSE","FALSE","America/Chicago"
"52309","42.12415","-90.88733","Monmouth","IA","Iowa","TRUE","","542","6.1","19097","Jackson","{""19097"": 72.13, ""19105"": 27.87}","Jackson|Jones","19097|19105","FALSE","FALSE","America/Chicago"
"52310","42.21983","-91.19737","Monticello","IA","Iowa","TRUE","","6184","16.4","19105","Jones","{""19105"": 95.34, ""19113"": 4.16, ""19055"": 0.5}","Jones|Linn|Delaware","19105|19113|19055","FALSE","FALSE","America/Chicago"
"52312","42.00617","-91.24526","Morley","IA","Iowa","TRUE","","60","322.7","19105","Jones","{""19105"": 100}","Jones","19105","FALSE","FALSE","America/Chicago"
"52313","42.25955","-92.09726","Mount Auburn","IA","Iowa","TRUE","","344","4.3","19011","Benton","{""19011"": 100}","Benton","19011","FALSE","FALSE","America/Chicago"
"52314","41.93439","-91.44985","Mount Vernon","IA","Iowa","TRUE","","5995","39.0","19113","Linn","{""19113"": 100}","Linn","19113","FALSE","FALSE","America/Chicago"
"52315","42.00181","-91.96985","Newhall","IA","Iowa","TRUE","","1331","18.0","19011","Benton","{""19011"": 100}","Benton","19011","FALSE","FALSE","America/Chicago"
"52316","41.53727","-92.09367","North English","IA","Iowa","TRUE","","1519","8.0","19095","Iowa","{""19095"": 87.15, ""19107"": 12.85}","Iowa|Keokuk","19095|19107","FALSE","FALSE","America/Chicago"
"52317","41.76277","-91.63142","North Liberty","IA","Iowa","TRUE","","21848","245.5","19103","Johnson","{""19103"": 100}","Johnson","19103","FALSE","FALSE","America/Chicago"
"52318","41.89012","-91.89656","Norway","IA","Iowa","TRUE","","1015","11.2","19011","Benton","{""19011"": 81.72, ""19095"": 18.28}","Benton|Iowa","19011|19095","FALSE","FALSE","America/Chicago"
"52320","41.99997","-91.14643","Olin","IA","Iowa","TRUE","","1279","8.5","19105","Jones","{""19105"": 87.14, ""19031"": 12.86}","Jones|Cedar","19105|19031","FALSE","FALSE","America/Chicago"
"52321","42.14168","-90.98307","Onslow","IA","Iowa","TRUE","","488","5.0","19105","Jones","{""19105"": 100}","Jones","19105","FALSE","FALSE","America/Chicago"
"52322","41.69221","-91.76284","Oxford","IA","Iowa","TRUE","","1966","8.7","19103","Johnson","{""19103"": 99.18, ""19095"": 0.82}","Johnson|Iowa","19103|19095","FALSE","FALSE","America/Chicago"
"52323","41.98445","-90.95344","Oxford Junction","IA","Iowa","TRUE","","1121","9.2","19105","Jones","{""19105"": 78.31, ""19045"": 13.11, ""19031"": 8.58}","Jones|Clinton|Cedar","19105|19045|19031","FALSE","FALSE","America/Chicago"
"52324","42.06421","-91.80583","Palo","IA","Iowa","TRUE","","2030","18.7","19113","Linn","{""19113"": 81.87, ""19011"": 18.13}","Linn|Benton","19113|19011","FALSE","FALSE","America/Chicago"
"52325","41.58028","-91.92305","Parnell","IA","Iowa","TRUE","","529","5.1","19095","Iowa","{""19095"": 86.17, ""19103"": 13.83}","Iowa|Johnson","19095|19103","FALSE","FALSE","America/Chicago"
"52326","42.39513","-91.75641","Quasqueton","IA","Iowa","TRUE","","781","304.0","19019","Buchanan","{""19019"": 100}","Buchanan","19019","FALSE","FALSE","America/Chicago"
"52327","41.477","-91.58046","Riverside","IA","Iowa","TRUE","","3498","16.8","19183","Washington","{""19183"": 72.67, ""19103"": 27.2, ""19115"": 0.13}","Washington|Johnson|Louisa","19183|19103|19115","FALSE","FALSE","America/Chicago"
"52328","42.07195","-91.66641","Robins","IA","Iowa","TRUE","","2816","402.6","19113","Linn","{""19113"": 100}","Linn","19113","FALSE","FALSE","America/Chicago"
"52329","42.35894","-91.85405","Rowley","IA","Iowa","TRUE","","733","5.7","19019","Buchanan","{""19019"": 100}","Buchanan","19019","FALSE","FALSE","America/Chicago"
"52330","42.35261","-91.50076","Ryan","IA","Iowa","TRUE","","892","7.3","19055","Delaware","{""19055"": 100}","Delaware","19055","FALSE","FALSE","America/Chicago"
"52332","42.09861","-91.88772","Shellsburg","IA","Iowa","TRUE","","1695","16.5","19011","Benton","{""19011"": 91.09, ""19113"": 8.91}","Benton|Linn","19011|19113","FALSE","FALSE","America/Chicago"
"52333","41.80376","-91.48685","Solon","IA","Iowa","TRUE","","7249","32.7","19103","Johnson","{""19103"": 95.5, ""19031"": 4.5}","Johnson|Cedar","19103|19031","FALSE","FALSE","America/Chicago"
"52334","41.73084","-91.94355","South Amana","IA","Iowa","TRUE","","211","6.0","19095","Iowa","{""19095"": 100}","Iowa","19095","FALSE","FALSE","America/Chicago"
"52335","41.45935","-92.05895","South English","IA","Iowa","TRUE","","697","5.6","19107","Keokuk","{""19107"": 100}","Keokuk","19107","FALSE","FALSE","America/Chicago"
"52336","42.0689","-91.44111","Springville","IA","Iowa","TRUE","","2576","20.7","19113","Linn","{""19113"": 100}","Linn","19113","FALSE","FALSE","America/Chicago"
"52337","41.88217","-91.14282","Stanwood","IA","Iowa","TRUE","","862","11.1","19031","Cedar","{""19031"": 100}","Cedar","19031","FALSE","FALSE","America/Chicago"
"52338","41.82904","-91.70858","Swisher","IA","Iowa","TRUE","","3877","44.9","19103","Johnson","{""19103"": 93.99, ""19113"": 6.01}","Johnson|Linn","19103|19113","FALSE","FALSE","America/Chicago"
"52339","41.92313","-92.58307","Tama","IA","Iowa","TRUE","","4189","16.4","19171","Tama","{""19171"": 97.28, ""19157"": 2.72}","Tama|Poweshiek","19171|19157","FALSE","FALSE","America/Chicago"
"52340","41.70615","-91.68019","Tiffin","IA","Iowa","TRUE","","4695","95.2","19103","Johnson","{""19103"": 100}","Johnson","19103","FALSE","FALSE","America/Chicago"
"52341","42.10535","-91.7341","Toddville","IA","Iowa","TRUE","","1180","33.6","19113","Linn","{""19113"": 100}","Linn","19113","FALSE","FALSE","America/Chicago"
"52342","42.05047","-92.55849","Toledo","IA","Iowa","TRUE","","2915","12.7","19171","Tama","{""19171"": 100}","Tama","19171","FALSE","FALSE","America/Chicago"
"52344","42.29202","-91.68325","Troy Mills","IA","Iowa","TRUE","","42","1717.2","19113","Linn","{""19113"": 100}","Linn","19113","FALSE","FALSE","America/Chicago"
"52345","42.22239","-91.89177","Urbana","IA","Iowa","TRUE","","1489","180.8","19011","Benton","{""19011"": 100}","Benton","19011","FALSE","FALSE","America/Chicago"
"52346","42.01298","-92.08119","Van Horne","IA","Iowa","TRUE","","1018","8.1","19011","Benton","{""19011"": 100}","Benton","19011","FALSE","FALSE","America/Chicago"
"52347","41.71345","-92.28591","Victor","IA","Iowa","TRUE","","1352","8.2","19095","Iowa","{""19095"": 66.92, ""19157"": 33.08}","Iowa|Poweshiek","19095|19157","FALSE","FALSE","America/Chicago"
"52348","41.99331","-92.38597","Vining","IA","Iowa","TRUE","","78","104.4","19171","Tama","{""19171"": 100}","Tama","19171","FALSE","FALSE","America/Chicago"
"52349","42.17246","-92.00566","Vinton","IA","Iowa","TRUE","","7754","20.0","19011","Benton","{""19011"": 100}","Benton","19011","FALSE","FALSE","America/Chicago"
"52351","41.87496","-91.83529","Walford","IA","Iowa","TRUE","","1498","313.5","19011","Benton","{""19011"": 67.34, ""19113"": 32.49, ""19095"": 0.17}","Benton|Linn|Iowa","19011|19113|19095","FALSE","FALSE","America/Chicago"
"52352","42.28706","-91.77897","Walker","IA","Iowa","TRUE","","1933","9.3","19113","Linn","{""19113"": 47.12, ""19019"": 36.49, ""19011"": 16.38}","Linn|Buchanan|Benton","19113|19019|19011","FALSE","FALSE","America/Chicago"
"52353","41.29923","-91.71596","Washington","IA","Iowa","TRUE","","9208","22.6","19183","Washington","{""19183"": 100}","Washington","19183","FALSE","FALSE","America/Chicago"
"52354","41.91883","-91.98856","Watkins","IA","Iowa","TRUE","","268","3.5","19011","Benton","{""19011"": 100}","Benton","19011","FALSE","FALSE","America/Chicago"
"52355","41.4576","-92.18387","Webster","IA","Iowa","TRUE","","238","2.6","19107","Keokuk","{""19107"": 91.83, ""19095"": 8.17}","Keokuk|Iowa","19107|19095","FALSE","FALSE","America/Chicago"
"52356","41.4749","-91.84769","Wellman","IA","Iowa","TRUE","","2807","11.4","19183","Washington","{""19183"": 73.71, ""19095"": 16.85, ""19103"": 8.16, ""19107"": 1.28}","Washington|Iowa|Johnson|Keokuk","19183|19095|19103|19107","FALSE","FALSE","America/Chicago"
"52358","41.69644","-91.32097","West Branch","IA","Iowa","TRUE","","3926","19.3","19031","Cedar","{""19031"": 82.52, ""19103"": 17.48}","Cedar|Johnson","19031|19103","FALSE","FALSE","America/Chicago"
"52359","41.35428","-91.81006","West Chester","IA","Iowa","TRUE","","294","8.2","19183","Washington","{""19183"": 100}","Washington","19183","FALSE","FALSE","America/Chicago"
"52361","41.6446","-92.0154","Williamsburg","IA","Iowa","TRUE","","4686","13.9","19095","Iowa","{""19095"": 100}","Iowa","19095","FALSE","FALSE","America/Chicago"
"52362","42.05881","-91.00258","Wyoming","IA","Iowa","TRUE","","896","6.5","19105","Jones","{""19105"": 100}","Jones","19105","FALSE","FALSE","America/Chicago"
"52401","41.97534","-91.65871","Cedar Rapids","IA","Iowa","TRUE","","2130","690.9","19113","Linn","{""19113"": 100}","Linn","19113","FALSE","FALSE","America/Chicago"
"52402","42.02272","-91.66001","Cedar Rapids","IA","Iowa","TRUE","","42649","1203.1","19113","Linn","{""19113"": 100}","Linn","19113","FALSE","FALSE","America/Chicago"
"52403","41.96813","-91.57964","Cedar Rapids","IA","Iowa","TRUE","","24789","364.1","19113","Linn","{""19113"": 100}","Linn","19113","FALSE","FALSE","America/Chicago"
"52404","41.92153","-91.69077","Cedar Rapids","IA","Iowa","TRUE","","40474","275.9","19113","Linn","{""19113"": 94.99, ""19103"": 5.01}","Linn|Johnson","19113|19103","FALSE","FALSE","America/Chicago"
"52405","41.98644","-91.74774","Cedar Rapids","IA","Iowa","TRUE","","26307","678.3","19113","Linn","{""19113"": 100}","Linn","19113","FALSE","FALSE","America/Chicago"
"52411","42.05093","-91.72723","Cedar Rapids","IA","Iowa","TRUE","","8298","195.5","19113","Linn","{""19113"": 100}","Linn","19113","FALSE","FALSE","America/Chicago"
"52501","41.03828","-92.43252","Ottumwa","IA","Iowa","TRUE","","30470","52.2","19179","Wapello","{""19179"": 99.35, ""19107"": 0.43, ""19123"": 0.22}","Wapello|Keokuk|Mahaska","19179|19107|19123","FALSE","FALSE","America/Chicago"
"52530","40.98953","-92.29492","Agency","IA","Iowa","TRUE","","1025","22.4","19179","Wapello","{""19179"": 100}","Wapello","19179","FALSE","FALSE","America/Chicago"
"52531","41.02684","-92.81562","Albia","IA","Iowa","TRUE","","5754","10.0","19135","Monroe","{""19135"": 99.05, ""19179"": 0.95}","Monroe|Wapello","19135|19179","FALSE","FALSE","America/Chicago"
"52533","41.01228","-92.15043","Batavia","IA","Iowa","TRUE","","1075","4.7","19101","Jefferson","{""19101"": 68.91, ""19179"": 31.09}","Jefferson|Wapello","19101|19179","FALSE","FALSE","America/Chicago"
"52534","41.27342","-92.6806","Beacon","IA","Iowa","TRUE","","503","252.7","19123","Mahaska","{""19123"": 100}","Mahaska","19123","FALSE","FALSE","America/Chicago"
"52535","40.86533","-91.96407","Birmingham","IA","Iowa","TRUE","","802","5.5","19177","Van Buren","{""19177"": 82.62, ""19101"": 17.38}","Van Buren|Jefferson","19177|19101","FALSE","FALSE","America/Chicago"
"52536","40.95291","-92.61802","Blakesburg","IA","Iowa","TRUE","","817","5.2","19179","Wapello","{""19179"": 67.55, ""19135"": 32.45}","Wapello|Monroe","19179|19135","FALSE","FALSE","America/Chicago"
"52537","40.7355","-92.41426","Bloomfield","IA","Iowa","TRUE","","6642","7.6","19051","Davis","{""19051"": 95.55, ""19179"": 4.45}","Davis|Wapello","19051|19179","FALSE","FALSE","America/Chicago"
"52540","41.15769","-91.82281","Brighton","IA","Iowa","TRUE","","1185","4.8","19101","Jefferson","{""19101"": 52.97, ""19183"": 47.03}","Jefferson|Washington","19101|19183","FALSE","FALSE","America/Chicago"
"52542","40.62712","-92.05164","Cantril","IA","Iowa","TRUE","","401","3.3","19177","Van Buren","{""19177"": 80.48, ""29199"": 19.52}","Van Buren|Scotland","19177|29199","FALSE","FALSE","America/Chicago"
"52543","41.20065","-92.51773","Cedar","IA","Iowa","TRUE","","397","7.1","19123","Mahaska","{""19123"": 100}","Mahaska","19123","FALSE","FALSE","America/Chicago"
"52544","40.71774","-92.90831","Centerville","IA","Iowa","TRUE","","7685","21.4","19007","Appanoose","{""19007"": 100}","Appanoose","19007","FALSE","FALSE","America/Chicago"
"52548","41.0855","-92.5306","Chillicothe","IA","Iowa","TRUE","","103","202.4","19179","Wapello","{""19179"": 100}","Wapello","19179","FALSE","FALSE","America/Chicago"
"52549","40.61392","-92.94602","Cincinnati","IA","Iowa","TRUE","","691","6.1","19007","Appanoose","{""19007"": 100}","Appanoose","19007","FALSE","FALSE","America/Chicago"
"52550","41.31635","-92.36254","Delta","IA","Iowa","TRUE","","699","7.1","19107","Keokuk","{""19107"": 97.62, ""19123"": 2.38}","Keokuk|Mahaska","19107|19123","FALSE","FALSE","America/Chicago"
"52551","40.81877","-92.1058","Douds","IA","Iowa","TRUE","","597","4.0","19177","Van Buren","{""19177"": 91.99, ""19051"": 8.01}","Van Buren|Davis","19177|19051","FALSE","FALSE","America/Chicago"
"52552","40.83552","-92.53633","Drakesville","IA","Iowa","TRUE","","1105","7.3","19051","Davis","{""19051"": 95.83, ""19179"": 4.17}","Davis|Wapello","19051|19179","FALSE","FALSE","America/Chicago"
"52553","41.14865","-92.65668","Eddyville","IA","Iowa","TRUE","","1678","7.9","19179","Wapello","{""19179"": 37.07, ""19123"": 33.86, ""19135"": 29.07}","Wapello|Mahaska|Monroe","19179|19123|19135","FALSE","FALSE","America/Chicago"
"52554","40.92562","-92.23387","Eldon","IA","Iowa","TRUE","","1092","11.1","19179","Wapello","{""19179"": 76.41, ""19051"": 10.44, ""19101"": 9.1, ""19177"": 4.05}","Wapello|Davis|Jefferson|Van Buren","19179|19051|19101|19177","FALSE","FALSE","America/Chicago"
"52555","40.63905","-92.81046","Exline","IA","Iowa","TRUE","","190","3.4","19007","Appanoose","{""19007"": 100}","Appanoose","19007","FALSE","FALSE","America/Chicago"
"52556","41.01842","-91.9264","Fairfield","IA","Iowa","TRUE","","11862","26.1","19101","Jefferson","{""19101"": 100}","Jefferson","19101","FALSE","FALSE","America/Chicago"
"52557","41.02026","-91.96653","Fairfield","IA","Iowa","TRUE","","432","624.2","19101","Jefferson","{""19101"": 100}","Jefferson","19101","FALSE","FALSE","America/Chicago"
"52560","40.85491","-92.25312","Floris","IA","Iowa","TRUE","","164","2.1","19051","Davis","{""19051"": 100}","Davis","19051","FALSE","FALSE","America/Chicago"
"52561","41.22135","-92.44081","Fremont","IA","Iowa","TRUE","","965","10.0","19123","Mahaska","{""19123"": 83.7, ""19107"": 16.3}","Mahaska|Keokuk","19123|19107","FALSE","FALSE","America/Chicago"
"52562","41.26539","-92.24858","Hayesville","IA","Iowa","TRUE","","62","126.6","19107","Keokuk","{""19107"": 100}","Keokuk","19107","FALSE","FALSE","America/Chicago"
"52563","41.17295","-92.27765","Hedrick","IA","Iowa","TRUE","","1636","5.8","19107","Keokuk","{""19107"": 58.29, ""19179"": 38.22, ""19101"": 3.49}","Keokuk|Wapello|Jefferson","19107|19179|19101","FALSE","FALSE","America/Chicago"
"52565","40.74005","-91.94332","Keosauqua","IA","Iowa","TRUE","","1870","6.4","19177","Van Buren","{""19177"": 100}","Van Buren","19177","FALSE","FALSE","America/Chicago"
"52566","41.12887","-92.50547","Kirkville","IA","Iowa","TRUE","","250","58.3","19179","Wapello","{""19179"": 100}","Wapello","19179","FALSE","FALSE","America/Chicago"
"52567","40.93174","-92.07224","Libertyville","IA","Iowa","TRUE","","505","7.7","19101","Jefferson","{""19101"": 89.28, ""19177"": 10.72}","Jefferson|Van Buren","19101|19177","FALSE","FALSE","America/Chicago"
"52568","41.1779","-92.25077","Martinsburg","IA","Iowa","TRUE","","83","122.4","19107","Keokuk","{""19107"": 100}","Keokuk","19107","FALSE","FALSE","America/Chicago"
"52569","40.97968","-93.04939","Melrose","IA","Iowa","TRUE","","652","2.5","19135","Monroe","{""19135"": 80.6, ""19007"": 7.15, ""19185"": 6.37, ""19117"": 5.88}","Monroe|Appanoose|Wayne|Lucas","19135|19007|19185|19117","FALSE","FALSE","America/Chicago"
"52570","40.68656","-92.14853","Milton","IA","Iowa","TRUE","","1028","6.1","19177","Van Buren","{""19177"": 73.62, ""19051"": 26.38}","Van Buren|Davis","19177|19051","FALSE","FALSE","America/Chicago"
"52571","40.87739","-92.83114","Moravia","IA","Iowa","TRUE","","1313","5.3","19007","Appanoose","{""19007"": 72.52, ""19135"": 27.48}","Appanoose|Monroe","19007|19135","FALSE","FALSE","America/Chicago"
"52572","40.67795","-92.69163","Moulton","IA","Iowa","TRUE","","1223","4.8","19007","Appanoose","{""19007"": 84.12, ""19051"": 15.88}","Appanoose|Davis","19007|19051","FALSE","FALSE","America/Chicago"
"52573","40.62378","-91.92979","Mount Sterling","IA","Iowa","TRUE","","259","2.7","19177","Van Buren","{""19177"": 65.33, ""29045"": 23.85, ""29199"": 10.82}","Van Buren|Clark|Scotland","19177|29045|29199","FALSE","FALSE","America/Chicago"
"52574","40.80822","-92.96948","Mystic","IA","Iowa","TRUE","","539","5.3","19007","Appanoose","{""19007"": 100}","Appanoose","19007","FALSE","FALSE","America/Chicago"
"52576","41.21337","-92.1125","Ollie","IA","Iowa","TRUE","","466","3.8","19107","Keokuk","{""19107"": 98.9, ""19101"": 1.1}","Keokuk|Jefferson","19107|19101","FALSE","FALSE","America/Chicago"
"52577","41.27174","-92.6602","Oskaloosa","IA","Iowa","TRUE","","14551","35.5","19123","Mahaska","{""19123"": 100}","Mahaska","19123","FALSE","FALSE","America/Chicago"
