"zip","lat","lng","city","state_id","state_name","zcta","parent_zcta","population","density","county_fips","county_name","county_weights","county_names_all","county_fips_all","imprecise","military","timezone"
"67756","39.79815","-101.84265","Saint Francis","KS","Kansas","TRUE","","1796","1.1","20023","Cheyenne","{""20023"": 100}","Cheyenne","20023","FALSE","FALSE","America/Chicago"
"67757","39.54527","-100.60881","Selden","KS","Kansas","TRUE","","413","0.8","20179","Sheridan","{""20179"": 61.06, ""20039"": 38.94}","Sheridan|Decatur","20179|20039","FALSE","FALSE","America/Chicago"
"67758","38.89658","-101.7842","Sharon Springs","KS","Kansas","TRUE","","1160","1.0","20199","Wallace","{""20199"": 100}","Wallace","20199","FALSE","FALSE","America/Denver"
"67761","38.95066","-101.52523","Wallace","KS","Kansas","TRUE","","229","0.2","20199","Wallace","{""20199"": 66.35, ""20109"": 33.65}","Wallace|Logan","20199|20109","FALSE","FALSE","America/Denver"
"67762","38.84166","-101.98611","Weskan","KS","Kansas","TRUE","","207","0.3","20199","Wallace","{""20199"": 80.96, ""20071"": 19.04}","Wallace|Greeley","20199|20071","FALSE","FALSE","America/Denver"
"67764","38.89135","-101.15041","Winona","KS","Kansas","TRUE","","389","0.3","20109","Logan","{""20109"": 94.07, ""20193"": 5.93}","Logan|Thomas","20109|20193","FALSE","FALSE","America/Chicago"
"67801","37.72961","-100.05406","Dodge City","KS","Kansas","TRUE","","31044","32.6","20057","Ford","{""20057"": 98.65, ""20083"": 1.35}","Ford|Hodgeman","20057|20083","FALSE","FALSE","America/Chicago"
"67831","37.17956","-99.8018","Ashland","KS","Kansas","TRUE","","1026","0.9","20025","Clark","{""20025"": 100}","Clark","20025","FALSE","FALSE","America/Chicago"
"67834","37.53174","-99.61886","Bucklin","KS","Kansas","TRUE","","1004","1.9","20057","Ford","{""20057"": 66.64, ""20025"": 27.88, ""20097"": 5.48}","Ford|Clark|Kiowa","20057|20025|20097","FALSE","FALSE","America/Chicago"
"67835","37.98071","-100.31746","Cimarron","KS","Kansas","TRUE","","2508","2.0","20069","Gray","{""20069"": 49.28, ""20055"": 43.04, ""20083"": 7.68}","Gray|Finney|Hodgeman","20069|20055|20083","FALSE","FALSE","America/Chicago"
"67836","38.03977","-101.9942","Coolidge","KS","Kansas","TRUE","","131","0.5","20075","Hamilton","{""20075"": 100}","Hamilton","20075","FALSE","FALSE","America/Denver"
"67837","37.55615","-100.66289","Copeland","KS","Kansas","TRUE","","1096","1.9","20081","Haskell","{""20081"": 58.6, ""20069"": 32.63, ""20119"": 8.77}","Haskell|Gray|Meade","20081|20069|20119","FALSE","FALSE","America/Chicago"
"67838","38.05641","-101.13086","Deerfield","KS","Kansas","TRUE","","1161","5.7","20093","Kearny","{""20093"": 85.47, ""20055"": 14.53}","Kearny|Finney","20093|20055","FALSE","FALSE","America/Chicago"
"67839","38.47911","-100.43961","Dighton","KS","Kansas","TRUE","","1020","0.7","20101","Lane","{""20101"": 92.81, ""20063"": 7.19}","Lane|Gove","20101|20063","FALSE","FALSE","America/Chicago"
"67840","37.0736","-100.01097","Englewood","KS","Kansas","TRUE","","87","1.0","20025","Clark","{""20025"": 100}","Clark","20025","FALSE","FALSE","America/Chicago"
"67841","37.62997","-100.22878","Ensign","KS","Kansas","TRUE","","308","1.1","20069","Gray","{""20069"": 60.85, ""20057"": 39.15}","Gray|Ford","20069|20057","FALSE","FALSE","America/Chicago"
"67842","37.54766","-99.77138","Ford","KS","Kansas","TRUE","","444","1.0","20057","Ford","{""20057"": 75.28, ""20025"": 24.72}","Ford|Clark","20057|20025","FALSE","FALSE","America/Chicago"
"67843","37.73027","-99.93728","Fort Dodge","KS","Kansas","TRUE","","122","286.5","20057","Ford","{""20057"": 100}","Ford","20057","FALSE","FALSE","America/Chicago"
"67844","37.37798","-100.19562","Fowler","KS","Kansas","TRUE","","747","1.2","20119","Meade","{""20119"": 82.16, ""20057"": 10.02, ""20069"": 7.82}","Meade|Ford|Gray","20119|20057|20069","FALSE","FALSE","America/Chicago"
"67846","38.02311","-100.77756","Garden City","KS","Kansas","TRUE","","34694","17.1","20055","Finney","{""20055"": 96.15, ""20069"": 2.32, ""20101"": 1.53}","Finney|Gray|Lane","20055|20069|20101","FALSE","FALSE","America/Chicago"
"67849","38.15061","-99.71725","Hanston","KS","Kansas","TRUE","","404","1.1","20083","Hodgeman","{""20083"": 94.82, ""20135"": 5.18}","Hodgeman|Ness","20083|20135","FALSE","FALSE","America/Chicago"
"67850","38.6315","-100.63896","Healy","KS","Kansas","TRUE","","497","1.0","20101","Lane","{""20101"": 59.86, ""20063"": 22.22, ""20171"": 17.92}","Lane|Gove|Scott","20101|20063|20171","FALSE","FALSE","America/Chicago"
"67851","38.08796","-101.01972","Holcomb","KS","Kansas","TRUE","","3165","6.0","20055","Finney","{""20055"": 96.1, ""20171"": 3.9}","Finney|Scott","20055|20171","FALSE","FALSE","America/Chicago"
"67853","37.88416","-100.51616","Ingalls","KS","Kansas","TRUE","","928","1.1","20069","Gray","{""20069"": 83.97, ""20055"": 16.03}","Gray|Finney","20069|20055","FALSE","FALSE","America/Chicago"
"67854","38.09034","-100.0023","Jetmore","KS","Kansas","TRUE","","1122","0.9","20083","Hodgeman","{""20083"": 100}","Hodgeman","20083","FALSE","FALSE","America/Chicago"
"67855","37.54551","-101.69477","Johnson","KS","Kansas","TRUE","","1797","1.4","20187","Stanton","{""20187"": 89.18, ""20129"": 9.7, ""20067"": 1.12}","Stanton|Morton|Grant","20187|20129|20067","FALSE","FALSE","America/Chicago"
"67857","37.99598","-101.55154","Kendall","KS","Kansas","TRUE","","153","0.2","20075","Hamilton","{""20075"": 52.97, ""20093"": 47.03}","Hamilton|Kearny","20075|20093","FALSE","FALSE","America/Denver"
"67859","37.23636","-100.77421","Kismet","KS","Kansas","TRUE","","638","1.3","20175","Seward","{""20175"": 100}","Seward","20175","FALSE","FALSE","America/Chicago"
"67860","38.0185","-101.29831","Lakin","KS","Kansas","TRUE","","2691","1.9","20093","Kearny","{""20093"": 100}","Kearny","20093","FALSE","FALSE","America/Chicago"
"67861","38.46768","-101.38914","Leoti","KS","Kansas","TRUE","","1965","1.3","20203","Wichita","{""20203"": 93.82, ""20109"": 5.92, ""20199"": 0.26}","Wichita|Logan|Wallace","20203|20109|20199","FALSE","FALSE","America/Chicago"
"67862","37.47961","-101.95409","Manter","KS","Kansas","TRUE","","303","0.4","20187","Stanton","{""20187"": 74.1, ""20129"": 25.9}","Stanton|Morton","20187|20129","FALSE","FALSE","America/Chicago"
"67863","38.56533","-101.20829","Marienthal","KS","Kansas","TRUE","","298","0.6","20203","Wichita","{""20203"": 90.74, ""20171"": 9.26}","Wichita|Scott","20203|20171","FALSE","FALSE","America/Chicago"
"67864","37.17178","-100.31807","Meade","KS","Kansas","TRUE","","1823","1.5","20119","Meade","{""20119"": 100}","Meade","20119","FALSE","FALSE","America/Chicago"
"67865","37.4368","-99.96506","Minneola","KS","Kansas","TRUE","","973","1.3","20025","Clark","{""20025"": 62.89, ""20057"": 37.11}","Clark|Ford","20025|20057","FALSE","FALSE","America/Chicago"
"67867","37.56812","-100.45804","Montezuma","KS","Kansas","TRUE","","1598","2.7","20069","Gray","{""20069"": 84.63, ""20119"": 15.37}","Gray|Meade","20069|20119","FALSE","FALSE","America/Chicago"
"67868","37.82028","-100.71029","Pierceville","KS","Kansas","TRUE","","237","1.5","20055","Finney","{""20055"": 100}","Finney","20055","FALSE","FALSE","America/Chicago"
"67869","37.24489","-100.57358","Plains","KS","Kansas","TRUE","","1544","1.9","20119","Meade","{""20119"": 83.53, ""20175"": 16.47}","Meade|Seward","20119|20175","FALSE","FALSE","America/Chicago"
"67870","37.53255","-101.01829","Satanta","KS","Kansas","TRUE","","1383","2.0","20081","Haskell","{""20081"": 75.45, ""20175"": 13.4, ""20067"": 11.15}","Haskell|Seward|Grant","20081|20175|20067","FALSE","FALSE","America/Chicago"
"67871","38.49162","-100.91145","Scott City","KS","Kansas","TRUE","","5211","2.7","20171","Scott","{""20171"": 87.63, ""20063"": 4.93, ""20109"": 3.25, ""20055"": 3.16, ""20203"": 1.03}","Scott|Gove|Logan|Finney|Wichita","20171|20063|20109|20055|20203","FALSE","FALSE","America/Chicago"
"67876","37.86154","-99.73654","Spearville","KS","Kansas","TRUE","","1568","2.7","20057","Ford","{""20057"": 68.63, ""20083"": 31.37}","Ford|Hodgeman","20057|20083","FALSE","FALSE","America/Chicago"
"67877","37.54887","-100.84342","Sublette","KS","Kansas","TRUE","","2161","3.1","20081","Haskell","{""20081"": 92.85, ""20175"": 7.15}","Haskell|Seward","20081|20175","FALSE","FALSE","America/Chicago"
"67878","38.00218","-101.80824","Syracuse","KS","Kansas","TRUE","","2348","1.2","20075","Hamilton","{""20075"": 95.72, ""20187"": 4.28}","Hamilton|Stanton","20075|20187","FALSE","FALSE","America/Denver"
"67879","38.47091","-101.79459","Tribune","KS","Kansas","TRUE","","1257","0.7","20071","Greeley","{""20071"": 100}","Greeley","20071","FALSE","FALSE","America/Denver"
"67880","37.60489","-101.32384","Ulysses","KS","Kansas","TRUE","","7583","4.4","20067","Grant","{""20067"": 80.44, ""20093"": 18.05, ""20075"": 1.51}","Grant|Kearny|Hamilton","20067|20093|20075","FALSE","FALSE","America/Chicago"
"67882","37.8019","-99.88505","Wright","KS","Kansas","TRUE","","217","0.8","20057","Ford","{""20057"": 100}","Ford","20057","FALSE","FALSE","America/Chicago"
"67901","37.0943","-100.89864","Liberal","KS","Kansas","TRUE","","21334","26.5","20175","Seward","{""20175"": 93.65, ""20189"": 6.35}","Seward|Stevens","20175|20189","FALSE","FALSE","America/Chicago"
"67950","37.06277","-101.86765","Elkhart","KS","Kansas","TRUE","","1761","3.8","20129","Morton","{""20129"": 100}","Morton","20129","FALSE","FALSE","America/Chicago"
"67951","37.1639","-101.33486","Hugoton","KS","Kansas","TRUE","","4733","3.6","20189","Stevens","{""20189"": 100}","Stevens","20189","FALSE","FALSE","America/Chicago"
"67952","37.29886","-101.13934","Moscow","KS","Kansas","TRUE","","555","1.0","20189","Stevens","{""20189"": 73.04, ""20175"": 26.96}","Stevens|Seward","20189|20175","FALSE","FALSE","America/Chicago"
"67953","37.22653","-101.86093","Richfield","KS","Kansas","TRUE","","85","0.1","20129","Morton","{""20129"": 100}","Morton","20129","FALSE","FALSE","America/Chicago"
"67954","37.17999","-101.61179","Rolla","KS","Kansas","TRUE","","925","1.4","20129","Morton","{""20129"": 79.08, ""20189"": 20.92}","Morton|Stevens","20129|20189","FALSE","FALSE","America/Chicago"
"68001","41.33369","-96.95489","Abie","NE","Nebraska","TRUE","","48","12.1","31023","Butler","{""31023"": 100}","Butler","31023","FALSE","FALSE","America/Chicago"
"68002","41.50163","-96.33975","Arlington","NE","Nebraska","TRUE","","2393","12.6","31177","Washington","{""31177"": 100}","Washington","31177","FALSE","FALSE","America/Chicago"
"68003","41.07161","-96.38013","Ashland","NE","Nebraska","TRUE","","4825","17.1","31155","Saunders","{""31155"": 73.96, ""31025"": 26.04}","Saunders|Cass","31155|31025","FALSE","FALSE","America/Chicago"
"68004","42.00888","-96.62978","Bancroft","NE","Nebraska","TRUE","","989","4.9","31039","Cuming","{""31039"": 99.08, ""31021"": 0.92}","Cuming|Burt","31039|31021","FALSE","FALSE","America/Chicago"
"68005","41.14161","-95.89394","Bellevue","NE","Nebraska","TRUE","","22266","460.9","31153","Sarpy","{""31153"": 100}","Sarpy","31153","FALSE","FALSE","America/Chicago"
"68007","41.37184","-96.19524","Bennington","NE","Nebraska","TRUE","","14932","153.0","31055","Douglas","{""31055"": 74.09, ""31177"": 25.91}","Douglas|Washington","31055|31177","FALSE","FALSE","America/Chicago"
"68008","41.54573","-96.17421","Blair","NE","Nebraska","TRUE","","12521","39.0","31177","Washington","{""31177"": 100}","Washington","31177","FALSE","FALSE","America/Chicago"
"68010","41.25616","-96.13352","Boys Town","NE","Nebraska","TRUE","","818","228.7","31055","Douglas","{""31055"": 100}","Douglas","31055","FALSE","FALSE","America/Chicago"
"68014","41.28219","-96.96458","Bruno","NE","Nebraska","TRUE","","392","3.9","31023","Butler","{""31023"": 100}","Butler","31023","FALSE","FALSE","America/Chicago"
"68015","41.38351","-96.64737","Cedar Bluffs","NE","Nebraska","TRUE","","1220","8.5","31155","Saunders","{""31155"": 100}","Saunders","31155","FALSE","FALSE","America/Chicago"
"68016","41.02518","-96.1063","Cedar Creek","NE","Nebraska","TRUE","","399","35.9","31025","Cass","{""31025"": 100}","Cass","31025","FALSE","FALSE","America/Chicago"
"68017","41.05938","-96.66179","Ceresco","NE","Nebraska","TRUE","","1986","10.4","31155","Saunders","{""31155"": 68.55, ""31109"": 31.45}","Saunders|Lancaster","31155|31109","FALSE","FALSE","America/Chicago"
"68018","41.30207","-96.61573","Colon","NE","Nebraska","TRUE","","560","4.8","31155","Saunders","{""31155"": 100}","Saunders","31155","FALSE","FALSE","America/Chicago"
"68019","41.77965","-96.37323","Craig","NE","Nebraska","TRUE","","397","2.0","31021","Burt","{""31021"": 96.92, ""31177"": 1.89, ""31053"": 1.19}","Burt|Washington|Dodge","31021|31177|31053","FALSE","FALSE","America/Chicago"
"68020","41.9762","-96.25627","Decatur","NE","Nebraska","TRUE","","654","3.3","31021","Burt","{""31021"": 86.69, ""31173"": 13.31}","Burt|Thurston","31021|31173","FALSE","FALSE","America/Chicago"
"68022","41.27744","-96.24558","Elkhorn","NE","Nebraska","TRUE","","31127","316.6","31055","Douglas","{""31055"": 100}","Douglas","31055","FALSE","FALSE","America/Chicago"
"68023","41.46191","-96.02226","Fort Calhoun","NE","Nebraska","TRUE","","2665","25.7","31177","Washington","{""31177"": 100}","Washington","31177","FALSE","FALSE","America/Chicago"
"68025","41.43749","-96.49158","Fremont","NE","Nebraska","TRUE","","31260","97.4","31053","Dodge","{""31053"": 73.6, ""31155"": 26.27, ""31177"": 0.13}","Dodge|Saunders|Washington","31053|31155|31177","FALSE","FALSE","America/Chicago"
"68028","41.10513","-96.26098","Gretna","NE","Nebraska","TRUE","","17434","106.8","31153","Sarpy","{""31153"": 100}","Sarpy","31153","FALSE","FALSE","America/Chicago"
"68029","41.65873","-96.27394","Herman","NE","Nebraska","TRUE","","708","3.5","31177","Washington","{""31177"": 78.02, ""31021"": 21.98}","Washington|Burt","31177|31021","FALSE","FALSE","America/Chicago"
"68030","42.3184","-96.45057","Homer","NE","Nebraska","TRUE","","668","6.6","31043","Dakota","{""31043"": 100}","Dakota","31043","FALSE","FALSE","America/Chicago"
"68031","41.64041","-96.53046","Hooper","NE","Nebraska","TRUE","","1820","6.0","31053","Dodge","{""31053"": 89.9, ""31177"": 10.1}","Dodge|Washington","31053|31177","FALSE","FALSE","America/Chicago"
"68033","41.12933","-96.52425","Ithaca","NE","Nebraska","TRUE","","308","4.0","31155","Saunders","{""31155"": 100}","Saunders","31155","FALSE","FALSE","America/Chicago"
"68034","41.45558","-96.2203","Kennard","NE","Nebraska","TRUE","","672","8.2","31177","Washington","{""31177"": 100}","Washington","31177","FALSE","FALSE","America/Chicago"
"68036","41.39031","-96.95086","Linwood","NE","Nebraska","TRUE","","511","3.1","31023","Butler","{""31023"": 77.56, ""31155"": 22.44}","Butler|Saunders","31023|31155","FALSE","FALSE","America/Chicago"
"68037","40.9844","-96.12673","Louisville","NE","Nebraska","TRUE","","2827","20.5","31025","Cass","{""31025"": 100}","Cass","31025","FALSE","FALSE","America/Chicago"
"68038","41.95458","-96.4432","Lyons","NE","Nebraska","TRUE","","1220","4.5","31021","Burt","{""31021"": 94.85, ""31039"": 2.8, ""31173"": 2.35}","Burt|Cuming|Thurston","31021|31039|31173","FALSE","FALSE","America/Chicago"
"68039","42.112","-96.34397","Macy","NE","Nebraska","TRUE","","1286","11.5","31173","Thurston","{""31173"": 100}","Thurston","31173","FALSE","FALSE","America/Chicago"
"68040","41.28555","-96.73815","Malmo","NE","Nebraska","TRUE","","348","3.9","31155","Saunders","{""31155"": 100}","Saunders","31155","FALSE","FALSE","America/Chicago"
"68041","41.23633","-96.48793","Mead","NE","Nebraska","TRUE","","1003","8.7","31155","Saunders","{""31155"": 100}","Saunders","31155","FALSE","FALSE","America/Chicago"
"68042","41.09426","-96.43683","Memphis","NE","Nebraska","TRUE","","66","29.7","31155","Saunders","{""31155"": 100}","Saunders","31155","FALSE","FALSE","America/Chicago"
"68044","41.54798","-96.44871","Nickerson","NE","Nebraska","TRUE","","679","7.3","31053","Dodge","{""31053"": 54.57, ""31177"": 45.43}","Dodge|Washington","31053|31177","FALSE","FALSE","America/Chicago"
"68045","41.8273","-96.49523","Oakland","NE","Nebraska","TRUE","","2091","8.2","31021","Burt","{""31021"": 79.06, ""31039"": 19.87, ""31053"": 1.07}","Burt|Cuming|Dodge","31021|31039|31053","FALSE","FALSE","America/Chicago"
"68046","41.12206","-96.06138","Papillion","NE","Nebraska","TRUE","","31695","436.4","31153","Sarpy","{""31153"": 100}","Sarpy","31153","FALSE","FALSE","America/Chicago"
"68047","42.10592","-96.7325","Pender","NE","Nebraska","TRUE","","1873","5.8","31173","Thurston","{""31173"": 55.75, ""31039"": 32.54, ""31179"": 11.71}","Thurston|Cuming|Wayne","31173|31039|31179","FALSE","FALSE","America/Chicago"
"68048","40.98304","-95.9345","Plattsmouth","NE","Nebraska","TRUE","","13518","55.3","31025","Cass","{""31025"": 100}","Cass","31025","FALSE","FALSE","America/Chicago"
"68050","41.30593","-96.84303","Prague","NE","Nebraska","TRUE","","567","3.8","31155","Saunders","{""31155"": 100}","Saunders","31155","FALSE","FALSE","America/Chicago"
"68055","42.05747","-96.47192","Rosalie","NE","Nebraska","TRUE","","286","2.3","31173","Thurston","{""31173"": 100}","Thurston","31173","FALSE","FALSE","America/Chicago"
"68056","41.14123","-95.90438","St Columbans","NE","Nebraska","TRUE","","15","103.8","31153","Sarpy","{""31153"": 100}","Sarpy","31153","FALSE","FALSE","America/Chicago"
"68057","41.65888","-96.71893","Scribner","NE","Nebraska","TRUE","","1429","4.3","31053","Dodge","{""31053"": 98.99, ""31039"": 1.01}","Dodge|Cuming","31053|31039","FALSE","FALSE","America/Chicago"
"68058","41.00842","-96.2483","South Bend","NE","Nebraska","TRUE","","258","153.0","31025","Cass","{""31025"": 100}","Cass","31025","FALSE","FALSE","America/Chicago"
"68059","41.06673","-96.1595","Springfield","NE","Nebraska","TRUE","","3221","26.1","31153","Sarpy","{""31153"": 100}","Sarpy","31153","FALSE","FALSE","America/Chicago"
"68061","41.80078","-96.21165","Tekamah","NE","Nebraska","TRUE","","2399","6.4","31021","Burt","{""31021"": 100}","Burt","31021","FALSE","FALSE","America/Chicago"
"68062","42.19538","-96.6743","Thurston","NE","Nebraska","TRUE","","293","2.9","31173","Thurston","{""31173"": 100}","Thurston","31173","FALSE","FALSE","America/Chicago"
"68063","41.72124","-96.49345","Uehling","NE","Nebraska","TRUE","","229","27.1","31053","Dodge","{""31053"": 100}","Dodge","31053","FALSE","FALSE","America/Chicago"
"68064","41.34925","-96.35545","Valley","NE","Nebraska","TRUE","","3679","27.8","31055","Douglas","{""31055"": 89.75, ""31155"": 9.32, ""31053"": 0.93}","Douglas|Saunders|Dodge","31055|31155|31053","FALSE","FALSE","America/Chicago"
"68065","41.0766","-96.84854","Valparaiso","NE","Nebraska","TRUE","","1210","5.4","31155","Saunders","{""31155"": 64.07, ""31109"": 23.36, ""31159"": 6.83, ""31023"": 5.74}","Saunders|Lancaster|Seward|Butler","31155|31109|31159|31023","FALSE","FALSE","America/Chicago"
"68066","41.18451","-96.61996","Wahoo","NE","Nebraska","TRUE","","5474","23.5","31155","Saunders","{""31155"": 100}","Saunders","31155","FALSE","FALSE","America/Chicago"
"68067","42.1519","-96.48603","Walthill","NE","Nebraska","TRUE","","1172","7.5","31173","Thurston","{""31173"": 100}","Thurston","31173","FALSE","FALSE","America/Chicago"
"68068","41.39759","-96.20741","Washington","NE","Nebraska","TRUE","","163","307.4","31177","Washington","{""31177"": 100}","Washington","31177","FALSE","FALSE","America/Chicago"
"68069","41.24166","-96.31542","Waterloo","NE","Nebraska","TRUE","","3043","39.4","31055","Douglas","{""31055"": 88.65, ""31153"": 11.35}","Douglas|Sarpy","31055|31153","FALSE","FALSE","America/Chicago"
"68070","41.1924","-96.79973","Weston","NE","Nebraska","TRUE","","1023","5.9","31155","Saunders","{""31155"": 100}","Saunders","31155","FALSE","FALSE","America/Chicago"
"68071","42.23605","-96.47446","Winnebago","NE","Nebraska","TRUE","","1969","9.8","31173","Thurston","{""31173"": 100}","Thurston","31173","FALSE","FALSE","America/Chicago"
"68072","41.61016","-96.50473","Winslow","NE","Nebraska","TRUE","","111","296.6","31053","Dodge","{""31053"": 100}","Dodge","31053","FALSE","FALSE","America/Chicago"
"68073","41.23931","-96.40931","Yutan","NE","Nebraska","TRUE","","2475","21.3","31155","Saunders","{""31155"": 100}","Saunders","31155","FALSE","FALSE","America/Chicago"
"68102","41.26231","-95.93224","Omaha","NE","Nebraska","TRUE","","8839","1916.1","31055","Douglas","{""31055"": 100}","Douglas","31055","FALSE","FALSE","America/Chicago"
"68104","41.29525","-96.00104","Omaha","NE","Nebraska","TRUE","","37274","2181.5","31055","Douglas","{""31055"": 100}","Douglas","31055","FALSE","FALSE","America/Chicago"
"68105","41.2406","-95.96429","Omaha","NE","Nebraska","TRUE","","22974","2472.7","31055","Douglas","{""31055"": 100}","Douglas","31055","FALSE","FALSE","America/Chicago"
"68106","41.23885","-96.00244","Omaha","NE","Nebraska","TRUE","","21627","1620.6","31055","Douglas","{""31055"": 100}","Douglas","31055","FALSE","FALSE","America/Chicago"
"68107","41.20888","-95.95126","Omaha","NE","Nebraska","TRUE","","29601","1734.5","31055","Douglas","{""31055"": 100}","Douglas","31055","FALSE","FALSE","America/Chicago"
"68108","41.23753","-95.93118","Omaha","NE","Nebraska","TRUE","","14829","1744.0","31055","Douglas","{""31055"": 100}","Douglas","31055","FALSE","FALSE","America/Chicago"
"68110","41.29867","-95.91143","Omaha","NE","Nebraska","TRUE","","9372","425.5","31055","Douglas","{""31055"": 100}","Douglas","31055","FALSE","FALSE","America/Chicago"
"68111","41.29564","-95.96395","Omaha","NE","Nebraska","TRUE","","23591","1742.3","31055","Douglas","{""31055"": 100}","Douglas","31055","FALSE","FALSE","America/Chicago"
"68112","41.38183","-95.95804","Omaha","NE","Nebraska","TRUE","","12047","257.4","31055","Douglas","{""31055"": 58.85, ""31177"": 41.15}","Douglas|Washington","31055|31177","FALSE","FALSE","America/Chicago"
"68113","41.11745","-95.90889","Offutt Afb","NE","Nebraska","TRUE","","780","92.7","31153","Sarpy","{""31153"": 100}","Sarpy","31153","FALSE","FALSE","America/Chicago"
"68114","41.26318","-96.05208","Omaha","NE","Nebraska","TRUE","","17787","1186.8","31055","Douglas","{""31055"": 100}","Douglas","31055","FALSE","FALSE","America/Chicago"
"68116","41.29842","-96.16629","Omaha","NE","Nebraska","TRUE","","33641","1528.0","31055","Douglas","{""31055"": 100}","Douglas","31055","FALSE","FALSE","America/Chicago"
"68117","41.2062","-96.00138","Omaha","NE","Nebraska","TRUE","","8941","707.1","31055","Douglas","{""31055"": 100}","Douglas","31055","FALSE","FALSE","America/Chicago"
"68118","41.263","-96.1772","Omaha","NE","Nebraska","TRUE","","9486","920.8","31055","Douglas","{""31055"": 100}","Douglas","31055","FALSE","FALSE","America/Chicago"
"68122","41.36451","-96.05036","Omaha","NE","Nebraska","TRUE","","12568","276.3","31055","Douglas","{""31055"": 80.13, ""31177"": 19.87}","Douglas|Washington","31055|31177","FALSE","FALSE","America/Chicago"
"68123","41.10108","-95.94774","Bellevue","NE","Nebraska","TRUE","","32945","510.1","31153","Sarpy","{""31153"": 100}","Sarpy","31153","FALSE","FALSE","America/Chicago"
"68124","41.23515","-96.0522","Omaha","NE","Nebraska","TRUE","","15352","1054.1","31055","Douglas","{""31055"": 100}","Douglas","31055","FALSE","FALSE","America/Chicago"
"68127","41.2061","-96.05245","Omaha","NE","Nebraska","TRUE","","20681","1251.5","31055","Douglas","{""31055"": 100}","Douglas","31055","FALSE","FALSE","America/Chicago"
"68128","41.17972","-96.07081","La Vista","NE","Nebraska","TRUE","","18972","1094.0","31153","Sarpy","{""31153"": 100}","Sarpy","31153","FALSE","FALSE","America/Chicago"
"68130","41.23394","-96.19613","Omaha","NE","Nebraska","TRUE","","20879","1063.6","31055","Douglas","{""31055"": 100}","Douglas","31055","FALSE","FALSE","America/Chicago"
"68131","41.26435","-95.96479","Omaha","NE","Nebraska","TRUE","","13497","2520.0","31055","Douglas","{""31055"": 100}","Douglas","31055","FALSE","FALSE","America/Chicago"
"68132","41.26506","-96.00153","Omaha","NE","Nebraska","TRUE","","14341","2153.6","31055","Douglas","{""31055"": 100}","Douglas","31055","FALSE","FALSE","America/Chicago"
"68133","41.11754","-96.00292","Papillion","NE","Nebraska","TRUE","","13470","338.2","31153","Sarpy","{""31153"": 100}","Sarpy","31153","FALSE","FALSE","America/Chicago"
"68134","41.29776","-96.0503","Omaha","NE","Nebraska","TRUE","","30212","1414.1","31055","Douglas","{""31055"": 100}","Douglas","31055","FALSE","FALSE","America/Chicago"
"68135","41.2052","-96.19576","Omaha","NE","Nebraska","TRUE","","29860","1465.7","31055","Douglas","{""31055"": 100}","Douglas","31055","FALSE","FALSE","America/Chicago"
"68136","41.16932","-96.18783","Omaha","NE","Nebraska","TRUE","","19482","863.0","31153","Sarpy","{""31153"": 100}","Sarpy","31153","FALSE","FALSE","America/Chicago"
"68137","41.20595","-96.11924","Omaha","NE","Nebraska","TRUE","","24733","1143.0","31055","Douglas","{""31055"": 100}","Douglas","31055","FALSE","FALSE","America/Chicago"
"68138","41.15661","-96.13891","Omaha","NE","Nebraska","TRUE","","11552","401.4","31153","Sarpy","{""31153"": 100}","Sarpy","31153","FALSE","FALSE","America/Chicago"
"68142","41.37012","-96.10276","Omaha","NE","Nebraska","TRUE","","4779","91.6","31055","Douglas","{""31055"": 73.2, ""31177"": 26.8}","Douglas|Washington","31055|31177","FALSE","FALSE","America/Chicago"
"68144","41.23473","-96.11909","Omaha","NE","Nebraska","TRUE","","25923","1365.5","31055","Douglas","{""31055"": 100}","Douglas","31055","FALSE","FALSE","America/Chicago"
"68147","41.17655","-95.95678","Bellevue","NE","Nebraska","TRUE","","11807","934.6","31153","Sarpy","{""31153"": 99.33, ""31055"": 0.67}","Sarpy|Douglas","31153|31055","FALSE","FALSE","America/Chicago"
"68152","41.36282","-95.99995","Omaha","NE","Nebraska","TRUE","","7215","207.6","31055","Douglas","{""31055"": 84.92, ""31177"": 15.08}","Douglas|Washington","31055|31177","FALSE","FALSE","America/Chicago"
"68154","41.26408","-96.11665","Omaha","NE","Nebraska","TRUE","","23015","1308.2","31055","Douglas","{""31055"": 100}","Douglas","31055","FALSE","FALSE","America/Chicago"
"68157","41.17902","-95.99536","Omaha","NE","Nebraska","TRUE","","5473","820.8","31153","Sarpy","{""31153"": 99.72, ""31055"": 0.28}","Sarpy|Douglas","31153|31055","FALSE","FALSE","America/Chicago"
"68164","41.29886","-96.10949","Omaha","NE","Nebraska","TRUE","","29642","1295.2","31055","Douglas","{""31055"": 100}","Douglas","31055","FALSE","FALSE","America/Chicago"
"68178","41.26535","-95.94535","Omaha","NE","Nebraska","TRUE","","2561","4593.4","31055","Douglas","{""31055"": 100}","Douglas","31055","FALSE","FALSE","America/Chicago"
"68182","41.25775","-96.01072","Omaha","NE","Nebraska","TRUE","","871","2182.8","31055","Douglas","{""31055"": 100}","Douglas","31055","FALSE","FALSE","America/Chicago"
"68183","41.25709","-95.93977","Omaha","NE","Nebraska","TRUE","","0","0.0","31055","Douglas","{""31055"": 100}","Douglas","31055","FALSE","FALSE","America/Chicago"
"68301","40.46847","-96.52244","Adams","NE","Nebraska","TRUE","","1596","5.7","31067","Gage","{""31067"": 76.76, ""31109"": 17.11, ""31131"": 6.13}","Gage|Lancaster|Otoe","31067|31109|31131","FALSE","FALSE","America/Chicago"
"68303","40.25753","-97.41033","Alexandria","NE","Nebraska","TRUE","","268","1.6","31169","Thayer","{""31169"": 85.01, ""31095"": 14.99}","Thayer|Jefferson","31169|31095","FALSE","FALSE","America/Chicago"
"68304","40.88971","-96.38781","Alvo","NE","Nebraska","TRUE","","318","5.0","31025","Cass","{""31025"": 100}","Cass","31025","FALSE","FALSE","America/Chicago"
"68305","40.36392","-95.85788","Auburn","NE","Nebraska","TRUE","","4292","11.4","31127","Nemaha","{""31127"": 100}","Nemaha","31127","FALSE","FALSE","America/Chicago"
"68307","40.78769","-96.14054","Avoca","NE","Nebraska","TRUE","","430","3.9","31025","Cass","{""31025"": 54.14, ""31131"": 45.86}","Cass|Otoe","31025|31131","FALSE","FALSE","America/Chicago"
"68309","40.04907","-96.57285","Barneston","NE","Nebraska","TRUE","","127","220.1","31067","Gage","{""31067"": 100}","Gage","31067","FALSE","FALSE","America/Chicago"
"68310","40.24957","-96.74943","Beatrice","NE","Nebraska","TRUE","","14235","25.5","31067","Gage","{""31067"": 97.38, ""31095"": 2.62}","Gage|Jefferson","31067|31095","FALSE","FALSE","America/Chicago"
"68313","40.78142","-97.27193","Beaver Crossing","NE","Nebraska","TRUE","","720","3.6","31159","Seward","{""31159"": 98.69, ""31185"": 1.31}","Seward|York","31159|31185","FALSE","FALSE","America/Chicago"
"68314","41.01643","-97.0248","Bee","NE","Nebraska","TRUE","","384","4.7","31159","Seward","{""31159"": 94.78, ""31023"": 5.22}","Seward|Butler","31159|31023","FALSE","FALSE","America/Chicago"
"68315","40.24605","-97.53841","Belvidere","NE","Nebraska","TRUE","","78","0.9","31169","Thayer","{""31169"": 100}","Thayer","31169","FALSE","FALSE","America/Chicago"
"68316","41.01688","-97.61577","Benedict","NE","Nebraska","TRUE","","477","3.7","31185","York","{""31185"": 87.81, ""31143"": 12.19}","York|Polk","31185|31143","FALSE","FALSE","America/Chicago"
"68317","40.67325","-96.50451","Bennet","NE","Nebraska","TRUE","","1948","16.4","31109","Lancaster","{""31109"": 87.75, ""31131"": 12.25}","Lancaster|Otoe","31109|31131","FALSE","FALSE","America/Chicago"
"68318","40.15598","-96.64439","Blue Springs","NE","Nebraska","TRUE","","438","4.0","31067","Gage","{""31067"": 100}","Gage","31067","FALSE","FALSE","America/Chicago"
"68319","40.93656","-97.75817","Bradshaw","NE","Nebraska","TRUE","","610","3.4","31185","York","{""31185"": 98.57, ""31081"": 1.43}","York|Hamilton","31185|31081","FALSE","FALSE","America/Chicago"
"68320","40.48148","-95.9533","Brock","NE","Nebraska","TRUE","","338","2.3","31127","Nemaha","{""31127"": 100}","Nemaha","31127","FALSE","FALSE","America/Chicago"
"68321","40.39491","-95.69371","Brownville","NE","Nebraska","TRUE","","322","4.7","31127","Nemaha","{""31127"": 100}","Nemaha","31127","FALSE","FALSE","America/Chicago"
"68322","40.3346","-97.55356","Bruning","NE","Nebraska","TRUE","","499","3.1","31169","Thayer","{""31169"": 70.69, ""31059"": 29.31}","Thayer|Fillmore","31169|31059","FALSE","FALSE","America/Chicago"
"68323","40.13197","-96.37034","Burchard","NE","Nebraska","TRUE","","245","0.9","31133","Pawnee","{""31133"": 100}","Pawnee","31133","FALSE","FALSE","America/Chicago"
"68324","40.55407","-96.29014","Burr","NE","Nebraska","TRUE","","76","1.0","31131","Otoe","{""31131"": 90.51, ""31097"": 9.49}","Otoe|Johnson","31131|31097","FALSE","FALSE","America/Chicago"
"68325","40.0131","-97.75156","Byron","NE","Nebraska","TRUE","","129","1.0","31169","Thayer","{""31169"": 55.18, ""20157"": 44.82}","Thayer|Republic","31169|20157","FALSE","FALSE","America/Chicago"
"68326","40.28569","-97.68243","Carleton","NE","Nebraska","TRUE","","363","2.6","31169","Thayer","{""31169"": 94.5, ""31059"": 5.5}","Thayer|Fillmore","31169|31059","FALSE","FALSE","America/Chicago"
"68327","40.01079","-97.62113","Chester","NE","Nebraska","TRUE","","358","2.9","31169","Thayer","{""31169"": 66.07, ""20157"": 33.93}","Thayer|Republic","31169|20157","FALSE","FALSE","America/Chicago"
"68328","40.47694","-96.8384","Clatonia","NE","Nebraska","TRUE","","407","5.3","31067","Gage","{""31067"": 100}","Gage","31067","FALSE","FALSE","America/Chicago"
"68329","40.50089","-96.16772","Cook","NE","Nebraska","TRUE","","624","3.7","31097","Johnson","{""31097"": 72.02, ""31131"": 27.98}","Johnson|Otoe","31097|31131","FALSE","FALSE","America/Chicago"
"68330","40.70651","-97.34041","Cordova","NE","Nebraska","TRUE","","40","14.3","31159","Seward","{""31159"": 100}","Seward","31159","FALSE","FALSE","America/Chicago"
"68331","40.4712","-96.70863","Cortland","NE","Nebraska","TRUE","","1045","8.3","31067","Gage","{""31067"": 100}","Gage","31067","FALSE","FALSE","America/Chicago"
"68332","40.32829","-96.41123","Crab Orchard","NE","Nebraska","TRUE","","91","0.8","31097","Johnson","{""31097"": 100}","Johnson","31097","FALSE","FALSE","America/Chicago"
"68333","40.62126","-96.94901","Crete","NE","Nebraska","TRUE","","8704","30.5","31151","Saline","{""31151"": 66.8, ""31109"": 33.2}","Saline|Lancaster","31151|31109","FALSE","FALSE","America/Chicago"
"68335","40.28243","-97.803","Davenport","NE","Nebraska","TRUE","","567","2.5","31169","Thayer","{""31169"": 56.9, ""31129"": 33.36, ""31059"": 9.74}","Thayer|Nuckolls|Fillmore","31169|31129|31059","FALSE","FALSE","America/Chicago"
"68336","40.9615","-96.68405","Davey","NE","Nebraska","TRUE","","765","17.7","31109","Lancaster","{""31109"": 100}","Lancaster","31109","FALSE","FALSE","America/Chicago"
"68337","40.09504","-95.83418","Dawson","NE","Nebraska","TRUE","","330","2.3","31147","Richardson","{""31147"": 100}","Richardson","31147","FALSE","FALSE","America/Chicago"
"68338","40.31865","-97.24863","Daykin","NE","Nebraska","TRUE","","223","2.2","31095","Jefferson","{""31095"": 100}","Jefferson","31095","FALSE","FALSE","America/Chicago"
"68339","40.73214","-96.86696","Denton","NE","Nebraska","TRUE","","1112","9.6","31109","Lancaster","{""31109"": 86.75, ""31159"": 8.8, ""31151"": 4.45}","Lancaster|Seward|Saline","31109|31159|31151","FALSE","FALSE","America/Chicago"
"68340","40.12525","-97.74126","Deshler","NE","Nebraska","TRUE","","994","7.0","31169","Thayer","{""31169"": 100}","Thayer","31169","FALSE","FALSE","America/Chicago"
"68341","40.3855","-96.91378","De Witt","NE","Nebraska","TRUE","","939","3.8","31067","Gage","{""31067"": 51.87, ""31151"": 45.02, ""31095"": 3.11}","Gage|Saline|Jefferson","31067|31151|31095","FALSE","FALSE","America/Chicago"
"68342","40.1034","-96.94496","Diller","NE","Nebraska","TRUE","","642","3.3","31095","Jefferson","{""31095"": 73.7, ""31067"": 26.3}","Jefferson|Gage","31095|31067","FALSE","FALSE","America/Chicago"
"68343","40.61989","-97.13194","Dorchester","NE","Nebraska","TRUE","","855","3.7","31151","Saline","{""31151"": 94.9, ""31159"": 5.1}","Saline|Seward","31151|31159","FALSE","FALSE","America/Chicago"
"68344","40.57159","-96.39544","Douglas","NE","Nebraska","TRUE","","536","6.2","31131","Otoe","{""31131"": 100}","Otoe","31131","FALSE","FALSE","America/Chicago"
"68345","40.03692","-96.01928","Du Bois","NE","Nebraska","TRUE","","147","1.2","31133","Pawnee","{""31133"": 65.12, ""31147"": 34.88}","Pawnee|Richardson","31133|31147","FALSE","FALSE","America/Chicago"
"68346","40.66195","-96.03066","Dunbar","NE","Nebraska","TRUE","","468","3.2","31131","Otoe","{""31131"": 100}","Otoe","31131","FALSE","FALSE","America/Chicago"
"68347","40.80347","-96.42274","Eagle","NE","Nebraska","TRUE","","2334","28.7","31025","Cass","{""31025"": 65.91, ""31131"": 34.09}","Cass|Otoe","31025|31131","FALSE","FALSE","America/Chicago"
"68348","40.29569","-96.12208","Elk Creek","NE","Nebraska","TRUE","","249","2.2","31097","Johnson","{""31097"": 75.38, ""31133"": 13.3, ""31127"": 11.32}","Johnson|Pawnee|Nemaha","31097|31133|31127","FALSE","FALSE","America/Chicago"
"68349","40.82962","-96.30028","Elmwood","NE","Nebraska","TRUE","","1146","9.1","31025","Cass","{""31025"": 100}","Cass","31025","FALSE","FALSE","America/Chicago"
"68350","40.03961","-97.09166","Endicott","NE","Nebraska","TRUE","","258","3.3","31095","Jefferson","{""31095"": 100}","Jefferson","31095","FALSE","FALSE","America/Chicago"
"68351","40.65393","-97.43015","Exeter","NE","Nebraska","TRUE","","771","3.3","31059","Fillmore","{""31059"": 73.99, ""31185"": 26.01}","Fillmore|York","31059|31185","FALSE","FALSE","America/Chicago"
"68352","40.15255","-97.21931","Fairbury","NE","Nebraska","TRUE","","4868","6.9","31095","Jefferson","{""31095"": 100}","Jefferson","31095","FALSE","FALSE","America/Chicago"
"68354","40.63935","-97.58032","Fairmont","NE","Nebraska","TRUE","","908","3.3","31059","Fillmore","{""31059"": 86.86, ""31185"": 13.14}","Fillmore|York","31059|31185","FALSE","FALSE","America/Chicago"
"68355","40.11677","-95.56702","Falls City","NE","Nebraska","TRUE","","4897","12.2","31147","Richardson","{""31147"": 100}","Richardson","31147","FALSE","FALSE","America/Chicago"
"68357","40.31541","-96.54658","Filley","NE","Nebraska","TRUE","","351","2.7","31067","Gage","{""31067"": 98.92, ""31097"": 1.08}","Gage|Johnson","31067|31097","FALSE","FALSE","America/Chicago"
"68358","40.53321","-96.60973","Firth","NE","Nebraska","TRUE","","1536","13.1","31109","Lancaster","{""31109"": 67.45, ""31067"": 32.55}","Lancaster|Gage","31109|31067","FALSE","FALSE","America/Chicago"
"68359","40.63059","-97.28333","Friend","NE","Nebraska","TRUE","","1505","4.8","31151","Saline","{""31151"": 85.42, ""31159"": 14.16, ""31059"": 0.42}","Saline|Seward|Fillmore","31151|31159|31059","FALSE","FALSE","America/Chicago"
"68360","40.94613","-96.95661","Garland","NE","Nebraska","TRUE","","472","7.8","31159","Seward","{""31159"": 100}","Seward","31159","FALSE","FALSE","America/Chicago"
"68361","40.50756","-97.60146","Geneva","NE","Nebraska","TRUE","","2340","8.6","31059","Fillmore","{""31059"": 100}","Fillmore","31059","FALSE","FALSE","America/Chicago"
"68362","40.15323","-97.42553","Gilead","NE","Nebraska","TRUE","","29","4.9","31169","Thayer","{""31169"": 100}","Thayer","31169","FALSE","FALSE","America/Chicago"
"68364","40.83656","-97.22563","Goehner","NE","Nebraska","TRUE","","241","93.3","31159","Seward","{""31159"": 100}","Seward","31159","FALSE","FALSE","America/Chicago"
"68365","40.61565","-97.73065","Grafton","NE","Nebraska","TRUE","","241","1.8","31059","Fillmore","{""31059"": 97.33, ""31185"": 2.67}","Fillmore|York","31059|31185","FALSE","FALSE","America/Chicago"
"68366","40.98215","-96.44222","Greenwood","NE","Nebraska","TRUE","","877","6.2","31025","Cass","{""31025"": 62.32, ""31109"": 32.58, ""31155"": 5.1}","Cass|Lancaster|Saunders","31025|31109|31155","FALSE","FALSE","America/Chicago"
"68367","41.03807","-97.40128","Gresham","NE","Nebraska","TRUE","","316","2.0","31143","Polk","{""31143"": 36.37, ""31185"": 32.92, ""31159"": 30.71}","Polk|York|Seward","31143|31185|31159","FALSE","FALSE","America/Chicago"
"68368","40.55598","-96.81665","Hallam","NE","Nebraska","TRUE","","515","5.3","31109","Lancaster","{""31109"": 89.67, ""31067"": 10.33}","Lancaster|Gage","31109|31067","FALSE","FALSE","America/Chicago"
"68370","40.14148","-97.55567","Hebron","NE","Nebraska","TRUE","","1816","4.3","31169","Thayer","{""31169"": 100}","Thayer","31169","FALSE","FALSE","America/Chicago"
"68371","40.77304","-97.78417","Henderson","NE","Nebraska","TRUE","","1337","6.6","31185","York","{""31185"": 76.91, ""31081"": 23.09}","York|Hamilton","31185|31081","FALSE","FALSE","America/Chicago"
"68372","40.60498","-96.60539","Hickman","NE","Nebraska","TRUE","","4153","44.6","31109","Lancaster","{""31109"": 100}","Lancaster","31109","FALSE","FALSE","America/Chicago"
"68375","40.03939","-97.48826","Hubbell","NE","Nebraska","TRUE","","140","1.9","31169","Thayer","{""31169"": 100}","Thayer","31169","FALSE","FALSE","America/Chicago"
"68376","40.171","-95.93809","Humboldt","NE","Nebraska","TRUE","","1416","3.5","31147","Richardson","{""31147"": 82.47, ""31127"": 10.33, ""31133"": 7.2}","Richardson|Nemaha|Pawnee","31147|31127|31133","FALSE","FALSE","America/Chicago"
"68377","40.217","-97.02303","Jansen","NE","Nebraska","TRUE","","397","2.9","31095","Jefferson","{""31095"": 100}","Jefferson","31095","FALSE","FALSE","America/Chicago"
"68378","40.39355","-96.02615","Johnson","NE","Nebraska","TRUE","","570","4.0","31127","Nemaha","{""31127"": 85.37, ""31097"": 14.63}","Nemaha|Johnson","31127|31097","FALSE","FALSE","America/Chicago"
"68379","40.52908","-95.86979","Julian","NE","Nebraska","TRUE","","68","21.1","31131","Otoe","{""31131"": 92.63, ""31127"": 7.37}","Otoe|Nemaha","31131|31127","FALSE","FALSE","America/Chicago"
"68380","40.24283","-96.4059","Lewiston","NE","Nebraska","TRUE","","46","2.5","31133","Pawnee","{""31133"": 99.9, ""31097"": 0.1}","Pawnee|Johnson","31133|31097","FALSE","FALSE","America/Chicago"
"68381","40.07979","-96.48176","Liberty","NE","Nebraska","TRUE","","123","0.8","31067","Gage","{""31067"": 71.33, ""31133"": 28.67}","Gage|Pawnee","31067|31133","FALSE","FALSE","America/Chicago"
"68382","40.59724","-96.02425","Lorton","NE","Nebraska","TRUE","","28","253.8","31131","Otoe","{""31131"": 100}","Otoe","31131","FALSE","FALSE","America/Chicago"
"68401","40.74233","-97.58569","McCool Junction","NE","Nebraska","TRUE","","925","9.1","31185","York","{""31185"": 100}","York","31185","FALSE","FALSE","America/Chicago"
"68402","40.90829","-96.8571","Malcolm","NE","Nebraska","TRUE","","1069","12.6","31109","Lancaster","{""31109"": 100}","Lancaster","31109","FALSE","FALSE","America/Chicago"
"68403","40.92045","-96.16707","Manley","NE","Nebraska","TRUE","","199","103.7","31025","Cass","{""31025"": 100}","Cass","31025","FALSE","FALSE","America/Chicago"
"68404","40.619","-96.75566","Martell","NE","Nebraska","TRUE","","1141","8.8","31109","Lancaster","{""31109"": 100}","Lancaster","31109","FALSE","FALSE","America/Chicago"
"68405","40.76522","-97.07315","Milford","NE","Nebraska","TRUE","","3493","17.0","31159","Seward","{""31159"": 99.04, ""31151"": 0.96}","Seward|Saline","31159|31151","FALSE","FALSE","America/Chicago"
"68406","40.50566","-97.37874","Milligan","NE","Nebraska","TRUE","","404","2.9","31059","Fillmore","{""31059"": 61.55, ""31151"": 38.45}","Fillmore|Saline","31059|31151","FALSE","FALSE","America/Chicago"
"68407","40.921","-96.26263","Murdock","NE","Nebraska","TRUE","","938","7.9","31025","Cass","{""31025"": 100}","Cass","31025","FALSE","FALSE","America/Chicago"
"68409","40.90906","-95.95074","Murray","NE","Nebraska","TRUE","","730","9.5","31025","Cass","{""31025"": 100}","Cass","31025","FALSE","FALSE","America/Chicago"
"68410","40.63729","-95.88584","Nebraska City","NE","Nebraska","TRUE","","8802","23.7","31131","Otoe","{""31131"": 100}","Otoe","31131","FALSE","FALSE","America/Chicago"
"68413","40.83775","-96.01053","Nehawka","NE","Nebraska","TRUE","","476","3.3","31025","Cass","{""31025"": 85.49, ""31131"": 14.51}","Cass|Otoe","31025|31131","FALSE","FALSE","America/Chicago"
"68414","40.31966","-95.6991","Nemaha","NE","Nebraska","TRUE","","180","2.2","31127","Nemaha","{""31127"": 100}","Nemaha","31127","FALSE","FALSE","America/Chicago"
"68415","40.06249","-96.82157","Odell","NE","Nebraska","TRUE","","561","3.1","31067","Gage","{""31067"": 100}","Gage","31067","FALSE","FALSE","America/Chicago"
"68416","40.41093","-97.46185","Ohiowa","NE","Nebraska","TRUE","","221","1.9","31059","Fillmore","{""31059"": 100}","Fillmore","31059","FALSE","FALSE","America/Chicago"
"68417","40.7359","-96.09199","Otoe","NE","Nebraska","TRUE","","325","5.5","31131","Otoe","{""31131"": 100}","Otoe","31131","FALSE","FALSE","America/Chicago"
"68418","40.69568","-96.38435","Palmyra","NE","Nebraska","TRUE","","1150","6.5","31131","Otoe","{""31131"": 97.12, ""31025"": 2.88}","Otoe|Cass","31131|31025","FALSE","FALSE","America/Chicago"
"68419","40.60297","-96.51129","Panama","NE","Nebraska","TRUE","","254","97.4","31109","Lancaster","{""31109"": 100}","Lancaster","31109","FALSE","FALSE","America/Chicago"
"68420","40.08556","-96.19125","Pawnee City","NE","Nebraska","TRUE","","1255","3.7","31133","Pawnee","{""31133"": 97.66, ""20131"": 2.34}","Pawnee|Nemaha","31133|20131","FALSE","FALSE","America/Chicago"
"68421","40.492","-95.74426","Peru","NE","Nebraska","TRUE","","1193","9.3","31127","Nemaha","{""31127"": 94.22, ""31131"": 5.78}","Nemaha|Otoe","31127|31131","FALSE","FALSE","America/Chicago"
"68422","40.38863","-96.69755","Pickrell","NE","Nebraska","TRUE","","643","4.8","31067","Gage","{""31067"": 100}","Gage","31067","FALSE","FALSE","America/Chicago"
"68423","40.80112","-96.95117","Pleasant Dale","NE","Nebraska","TRUE","","987","6.9","31159","Seward","{""31159"": 96.26, ""31109"": 2.82, ""31151"": 0.92}","Seward|Lancaster|Saline","31159|31109|31151","FALSE","FALSE","America/Chicago"
"68424","40.30111","-97.01818","Plymouth","NE","Nebraska","TRUE","","649","3.9","31095","Jefferson","{""31095"": 98.57, ""31067"": 1.43}","Jefferson|Gage","31095|31067","FALSE","FALSE","America/Chicago"
"68428","40.97244","-96.79624","Raymond","NE","Nebraska","TRUE","","1556","10.5","31109","Lancaster","{""31109"": 95.75, ""31159"": 4.25}","Lancaster|Seward","31109|31159","FALSE","FALSE","America/Chicago"
"68429","40.06406","-97.37437","Reynolds","NE","Nebraska","TRUE","","90","1.8","31095","Jefferson","{""31095"": 52.11, ""31169"": 47.89}","Jefferson|Thayer","31095|31169","FALSE","FALSE","America/Chicago"
"68430","40.66599","-96.66012","Roca","NE","Nebraska","TRUE","","1635","13.9","31109","Lancaster","{""31109"": 100}","Lancaster","31109","FALSE","FALSE","America/Chicago"
"68431","40.0677","-95.43402","Rulo","NE","Nebraska","TRUE","","192","1.5","31147","Richardson","{""31147"": 100}","Richardson","31147","FALSE","FALSE","America/Chicago"
"68433","40.05251","-95.73969","Salem","NE","Nebraska","TRUE","","159","1.1","31147","Richardson","{""31147"": 100}","Richardson","31147","FALSE","FALSE","America/Chicago"
"68434","40.90947","-97.11675","Seward","NE","Nebraska","TRUE","","9100","22.3","31159","Seward","{""31159"": 100}","Seward","31159","FALSE","FALSE","America/Chicago"
"68436","40.43357","-97.74427","Shickley","NE","Nebraska","TRUE","","553","2.7","31059","Fillmore","{""31059"": 95.59, ""31035"": 4.41}","Fillmore|Clay","31059|31035","FALSE","FALSE","America/Chicago"
"68437","40.2513","-95.63534","Shubert","NE","Nebraska","TRUE","","311","2.6","31147","Richardson","{""31147"": 61.45, ""31127"": 38.55}","Richardson|Nemaha","31147|31127","FALSE","FALSE","America/Chicago"
"68438","40.62656","-96.74463","Sprague","NE","Nebraska","TRUE","","106","406.1","31109","Lancaster","{""31109"": 100}","Lancaster","31109","FALSE","FALSE","America/Chicago"
"68439","40.99937","-97.21136","Staplehurst","NE","Nebraska","TRUE","","648","7.0","31159","Seward","{""31159"": 100}","Seward","31159","FALSE","FALSE","America/Chicago"
"68440","40.05266","-97.01168","Steele City","NE","Nebraska","TRUE","","79","1.4","31095","Jefferson","{""31095"": 100}","Jefferson","31095","FALSE","FALSE","America/Chicago"
"68441","40.22581","-96.25461","Steinauer","NE","Nebraska","TRUE","","210","1.2","31133","Pawnee","{""31133"": 89.47, ""31097"": 10.53}","Pawnee|Johnson","31133|31097","FALSE","FALSE","America/Chicago"
"68442","40.239","-95.7729","Stella","NE","Nebraska","TRUE","","237","2.5","31147","Richardson","{""31147"": 80.09, ""31127"": 19.91}","Richardson|Nemaha","31147|31127","FALSE","FALSE","America/Chicago"
"68443","40.45627","-96.36758","Sterling","NE","Nebraska","TRUE","","1060","4.3","31097","Johnson","{""31097"": 98.41, ""31131"": 1.59}","Johnson|Otoe","31097|31131","FALSE","FALSE","America/Chicago"
"68444","40.41117","-97.5847","Strang","NE","Nebraska","TRUE","","41","0.6","31059","Fillmore","{""31059"": 100}","Fillmore","31059","FALSE","FALSE","America/Chicago"
"68445","40.40146","-97.08662","Swanton","NE","Nebraska","TRUE","","181","3.2","31151","Saline","{""31151"": 100}","Saline","31151","FALSE","FALSE","America/Chicago"
"68446","40.65002","-96.17535","Syracuse","NE","Nebraska","TRUE","","2747","10.9","31131","Otoe","{""31131"": 100}","Otoe","31131","FALSE","FALSE","America/Chicago"
"68447","40.20044","-96.07366","Table Rock","NE","Nebraska","TRUE","","600","4.3","31133","Pawnee","{""31133"": 89.24, ""31127"": 6.87, ""31097"": 3.89}","Pawnee|Nemaha|Johnson","31133|31127|31097","FALSE","FALSE","America/Chicago"
"68448","40.54429","-96.035","Talmage","NE","Nebraska","TRUE","","363","3.0","31131","Otoe","{""31131"": 80.61, ""31127"": 10.77, ""31097"": 8.62}","Otoe|Nemaha|Johnson","31131|31127|31097","FALSE","FALSE","America/Chicago"
"68450","40.36197","-96.22383","Tecumseh","NE","Nebraska","TRUE","","3244","9.5","31097","Johnson","{""31097"": 100}","Johnson","31097","FALSE","FALSE","America/Chicago"
"68452","40.39755","-97.85036","Ong","NE","Nebraska","TRUE","","78","2.0","31035","Clay","{""31035"": 100}","Clay","31035","FALSE","FALSE","America/Chicago"
"68453","40.40774","-97.33455","Tobias","NE","Nebraska","TRUE","","254","1.3","31151","Saline","{""31151"": 69.8, ""31059"": 19.63, ""31095"": 6.75, ""31169"": 3.82}","Saline|Fillmore|Jefferson|Thayer","31151|31059|31095|31169","FALSE","FALSE","America/Chicago"
"68454","40.69275","-96.28686","Unadilla","NE","Nebraska","TRUE","","702","4.8","31131","Otoe","{""31131"": 98.25, ""31025"": 1.75}","Otoe|Cass","31131|31025","FALSE","FALSE","America/Chicago"
"68455","40.82286","-95.90123","Union","NE","Nebraska","TRUE","","632","6.3","31025","Cass","{""31025"": 92.99, ""31131"": 7.01}","Cass|Otoe","31025|31131","FALSE","FALSE","America/Chicago"
"68456","40.91278","-97.31007","Utica","NE","Nebraska","TRUE","","1317","9.7","31159","Seward","{""31159"": 100}","Seward","31159","FALSE","FALSE","America/Chicago"
"68457","40.15618","-95.71095","Verdon","NE","Nebraska","TRUE","","453","4.7","31147","Richardson","{""31147"": 100}","Richardson","31147","FALSE","FALSE","America/Chicago"
"68458","40.23107","-96.48742","Virginia","NE","Nebraska","TRUE","","156","1.8","31067","Gage","{""31067"": 74.15, ""31133"": 17.23, ""31097"": 8.62}","Gage|Pawnee|Johnson","31067|31133|31097","FALSE","FALSE","America/Chicago"
"68460","40.89596","-97.43169","Waco","NE","Nebraska","TRUE","","688","2.4","31185","York","{""31185"": 96.79, ""31159"": 3.21}","York|Seward","31185|31159","FALSE","FALSE","America/Chicago"
"68461","40.76682","-96.51419","Walton","NE","Nebraska","TRUE","","777","12.7","31109","Lancaster","{""31109"": 100}","Lancaster","31109","FALSE","FALSE","America/Chicago"
"68462","40.94804","-96.52806","Waverly","NE","Nebraska","TRUE","","4635","32.4","31109","Lancaster","{""31109"": 94.66, ""31025"": 5.34}","Lancaster|Cass","31109|31025","FALSE","FALSE","America/Chicago"
"68463","40.8759","-96.13518","Weeping Water","NE","Nebraska","TRUE","","1519","10.1","31025","Cass","{""31025"": 100}","Cass","31025","FALSE","FALSE","America/Chicago"
"68464","40.42232","-97.1955","Western","NE","Nebraska","TRUE","","504","2.4","31151","Saline","{""31151"": 97.72, ""31095"": 2.28}","Saline|Jefferson","31151|31095","FALSE","FALSE","America/Chicago"
"68465","40.49248","-97.01987","Wilber","NE","Nebraska","TRUE","","2663","10.1","31151","Saline","{""31151"": 91.29, ""31067"": 6.01, ""31109"": 2.7}","Saline|Gage|Lancaster","31151|31067|31109","FALSE","FALSE","America/Chicago"
"68466","40.07109","-96.63773","Wymore","NE","Nebraska","TRUE","","1869","6.9","31067","Gage","{""31067"": 100}","Gage","31067","FALSE","FALSE","America/Chicago"
"68467","40.86528","-97.59778","York","NE","Nebraska","TRUE","","9650","21.5","31185","York","{""31185"": 100}","York","31185","FALSE","FALSE","America/Chicago"
"68502","40.78361","-96.70083","Lincoln","NE","Nebraska","TRUE","","27546","1593.9","31109","Lancaster","{""31109"": 100}","Lancaster","31109","FALSE","FALSE","America/Chicago"
"68503","40.82447","-96.67387","Lincoln","NE","Nebraska","TRUE","","15696","2076.7","31109","Lancaster","{""31109"": 100}","Lancaster","31109","FALSE","FALSE","America/Chicago"
"68504","40.85451","-96.66104","Lincoln","NE","Nebraska","TRUE","","16924","934.3","31109","Lancaster","{""31109"": 100}","Lancaster","31109","FALSE","FALSE","America/Chicago"
"68505","40.82446","-96.61562","Lincoln","NE","Nebraska","TRUE","","17842","1593.3","31109","Lancaster","{""31109"": 100}","Lancaster","31109","FALSE","FALSE","America/Chicago"
"68506","40.78422","-96.63959","Lincoln","NE","Nebraska","TRUE","","28464","1571.5","31109","Lancaster","{""31109"": 100}","Lancaster","31109","FALSE","FALSE","America/Chicago"
"68507","40.85954","-96.61172","Lincoln","NE","Nebraska","TRUE","","15044","522.3","31109","Lancaster","{""31109"": 100}","Lancaster","31109","FALSE","FALSE","America/Chicago"
"68508","40.81831","-96.70621","Lincoln","NE","Nebraska","TRUE","","16848","2194.1","31109","Lancaster","{""31109"": 100}","Lancaster","31109","FALSE","FALSE","America/Chicago"
"68510","40.80654","-96.64835","Lincoln","NE","Nebraska","TRUE","","19879","1686.6","31109","Lancaster","{""31109"": 100}","Lancaster","31109","FALSE","FALSE","America/Chicago"
"68512","40.73746","-96.70567","Lincoln","NE","Nebraska","TRUE","","13830","585.6","31109","Lancaster","{""31109"": 100}","Lancaster","31109","FALSE","FALSE","America/Chicago"
"68514","40.93408","-96.65076","Lincoln","NE","Nebraska","TRUE","","279","16.0","31109","Lancaster","{""31109"": 100}","Lancaster","31109","FALSE","FALSE","America/Chicago"
"68516","40.73493","-96.6428","Lincoln","NE","Nebraska","TRUE","","47520","969.9","31109","Lancaster","{""31109"": 100}","Lancaster","31109","FALSE","FALSE","America/Chicago"
"68517","40.93341","-96.60487","Lincoln","NE","Nebraska","TRUE","","554","8.2","31109","Lancaster","{""31109"": 100}","Lancaster","31109","FALSE","FALSE","America/Chicago"
"68520","40.79827","-96.55313","Lincoln","NE","Nebraska","TRUE","","1731","58.3","31109","Lancaster","{""31109"": 100}","Lancaster","31109","FALSE","FALSE","America/Chicago"
"68521","40.8618","-96.71519","Lincoln","NE","Nebraska","TRUE","","37409","1096.3","31109","Lancaster","{""31109"": 100}","Lancaster","31109","FALSE","FALSE","America/Chicago"
"68522","40.78941","-96.76214","Lincoln","NE","Nebraska","TRUE","","13527","493.2","31109","Lancaster","{""31109"": 100}","Lancaster","31109","FALSE","FALSE","America/Chicago"
"68523","40.73555","-96.75708","Lincoln","NE","Nebraska","TRUE","","1909","46.8","31109","Lancaster","{""31109"": 100}","Lancaster","31109","FALSE","FALSE","America/Chicago"
"68524","40.87145","-96.80264","Lincoln","NE","Nebraska","TRUE","","6247","84.2","31109","Lancaster","{""31109"": 100}","Lancaster","31109","FALSE","FALSE","America/Chicago"
"68526","40.7324","-96.58269","Lincoln","NE","Nebraska","TRUE","","8009","254.9","31109","Lancaster","{""31109"": 100}","Lancaster","31109","FALSE","FALSE","America/Chicago"
"68527","40.84573","-96.51753","Lincoln","NE","Nebraska","TRUE","","1639","21.4","31109","Lancaster","{""31109"": 93.71, ""31025"": 6.29}","Lancaster|Cass","31109|31025","FALSE","FALSE","America/Chicago"
"68528","40.82244","-96.81762","Lincoln","NE","Nebraska","TRUE","","6292","147.7","31109","Lancaster","{""31109"": 99.06, ""31159"": 0.94}","Lancaster|Seward","31109|31159","FALSE","FALSE","America/Chicago"
"68531","40.90211","-96.71415","Lincoln","NE","Nebraska","TRUE","","256","16.4","31109","Lancaster","{""31109"": 100}","Lancaster","31109","FALSE","FALSE","America/Chicago"
"68532","40.79544","-96.84332","Lincoln","NE","Nebraska","TRUE","","592","20.2","31109","Lancaster","{""31109"": 100}","Lancaster","31109","FALSE","FALSE","America/Chicago"
"68588","40.82482","-96.69644","Lincoln","NE","Nebraska","TRUE","","0","0.0","31109","Lancaster","{""31109"": 100}","Lancaster","31109","FALSE","FALSE","America/Chicago"
"68601","41.45205","-97.39477","Columbus","NE","Nebraska","TRUE","","29699","40.0","31141","Platte","{""31141"": 73.91, ""31037"": 13.31, ""31143"": 10.69, ""31023"": 2.09}","Platte|Colfax|Polk|Butler","31141|31037|31143|31023","FALSE","FALSE","America/Chicago"
"68620","41.72452","-98.05814","Albion","NE","Nebraska","TRUE","","2842","3.9","31011","Boone","{""31011"": 100}","Boone","31011","FALSE","FALSE","America/Chicago"
"68621","41.48963","-96.63911","Ames","NE","Nebraska","TRUE","","242","2.9","31053","Dodge","{""31053"": 100}","Dodge","31053","FALSE","FALSE","America/Chicago"
"68622","41.92209","-98.53311","Bartlett","NE","Nebraska","TRUE","","299","0.4","31183","Wheeler","{""31183"": 100}","Wheeler","31183","FALSE","FALSE","America/Chicago"
"68623","41.44327","-98.11602","Belgrade","NE","Nebraska","TRUE","","352","2.1","31125","Nance","{""31125"": 93.04, ""31011"": 6.96}","Nance|Boone","31125|31011","FALSE","FALSE","America/Chicago"
"68624","41.34974","-97.22858","Bellwood","NE","Nebraska","TRUE","","948","5.2","31023","Butler","{""31023"": 100}","Butler","31023","FALSE","FALSE","America/Chicago"
"68626","41.16821","-96.9921","Brainard","NE","Nebraska","TRUE","","560","3.6","31023","Butler","{""31023"": 100}","Butler","31023","FALSE","FALSE","America/Chicago"
"68627","41.54445","-98.17041","Cedar Rapids","NE","Nebraska","TRUE","","690","1.8","31011","Boone","{""31011"": 84.75, ""31125"": 10.73, ""31077"": 4.52}","Boone|Nance|Greeley","31011|31125|31077","FALSE","FALSE","America/Chicago"
"68628","41.21694","-97.84355","Clarks","NE","Nebraska","TRUE","","842","3.0","31121","Merrick","{""31121"": 76.55, ""31143"": 18.8, ""31081"": 4.65}","Merrick|Polk|Hamilton","31121|31143|31081","FALSE","FALSE","America/Chicago"
"68629","41.71336","-97.12936","Clarkson","NE","Nebraska","TRUE","","1190","3.2","31037","Colfax","{""31037"": 63.7, ""31167"": 36.3}","Colfax|Stanton","31037|31167","FALSE","FALSE","America/Chicago"
"68631","41.68753","-97.35074","Creston","NE","Nebraska","TRUE","","329","3.3","31141","Platte","{""31141"": 87.69, ""31167"": 12.31}","Platte|Stanton","31141|31167","FALSE","FALSE","America/Chicago"
"68632","41.24266","-97.13288","David City","NE","Nebraska","TRUE","","3722","9.3","31023","Butler","{""31023"": 100}","Butler","31023","FALSE","FALSE","America/Chicago"
"68633","41.70585","-96.89668","Dodge","NE","Nebraska","TRUE","","1094","4.3","31053","Dodge","{""31053"": 48.01, ""31039"": 32.22, ""31037"": 19.78}","Dodge|Cuming|Colfax","31053|31039|31037","FALSE","FALSE","America/Chicago"
"68634","41.39073","-97.50659","Duncan","NE","Nebraska","TRUE","","757","43.9","31141","Platte","{""31141"": 100}","Platte","31141","FALSE","FALSE","America/Chicago"
"68635","41.08544","-97.02298","Dwight","NE","Nebraska","TRUE","","478","3.8","31023","Butler","{""31023"": 100}","Butler","31023","FALSE","FALSE","America/Chicago"
"68636","42.00494","-98.15674","Elgin","NE","Nebraska","TRUE","","1214","2.3","31003","Antelope","{""31003"": 93.73, ""31183"": 6.27}","Antelope|Wheeler","31003|31183","FALSE","FALSE","America/Chicago"
"68637","41.78778","-98.68997","Ericson","NE","Nebraska","TRUE","","322","0.8","31183","Wheeler","{""31183"": 55.37, ""31071"": 25.16, ""31077"": 19.47}","Wheeler|Garfield|Greeley","31183|31071|31077","FALSE","FALSE","America/Chicago"
"68638","41.36848","-97.98977","Fullerton","NE","Nebraska","TRUE","","1919","4.9","31125","Nance","{""31125"": 97.93, ""31121"": 2.07}","Nance|Merrick","31125|31121","FALSE","FALSE","America/Chicago"
"68640","41.46111","-97.77237","Genoa","NE","Nebraska","TRUE","","1189","3.6","31125","Nance","{""31125"": 75.59, ""31141"": 24.41}","Nance|Platte","31125|31141","FALSE","FALSE","America/Chicago"
"68641","41.73452","-97.00829","Howells","NE","Nebraska","TRUE","","1076","4.2","31037","Colfax","{""31037"": 52.15, ""31167"": 25.66, ""31039"": 22.19}","Colfax|Stanton|Cuming","31037|31167|31039","FALSE","FALSE","America/Chicago"
"68642","41.68717","-97.51232","Humphrey","NE","Nebraska","TRUE","","1917","5.8","31141","Platte","{""31141"": 83.46, ""31119"": 16.54}","Platte|Madison","31141|31119","FALSE","FALSE","America/Chicago"
"68643","41.70231","-97.25918","Leigh","NE","Nebraska","TRUE","","911","3.5","31141","Platte","{""31141"": 34.54, ""31167"": 34.03, ""31037"": 31.43}","Platte|Stanton|Colfax","31141|31167|31037","FALSE","FALSE","America/Chicago"
"68644","41.7079","-97.67579","Lindsay","NE","Nebraska","TRUE","","682","2.8","31141","Platte","{""31141"": 71.19, ""31119"": 28.81}","Platte|Madison","31141|31119","FALSE","FALSE","America/Chicago"
"68647","41.51971","-97.62021","Monroe","NE","Nebraska","TRUE","","770","4.8","31141","Platte","{""31141"": 100}","Platte","31141","FALSE","FALSE","America/Chicago"
"68648","41.40482","-96.78949","Morse Bluff","NE","Nebraska","TRUE","","242","2.3","31155","Saunders","{""31155"": 100}","Saunders","31155","FALSE","FALSE","America/Chicago"
"68649","41.50784","-96.78896","North Bend","NE","Nebraska","TRUE","","2110","8.0","31053","Dodge","{""31053"": 100}","Dodge","31053","FALSE","FALSE","America/Chicago"
"68651","41.22443","-97.57472","Osceola","NE","Nebraska","TRUE","","1287","4.1","31143","Polk","{""31143"": 100}","Polk","31143","FALSE","FALSE","America/Chicago"
"68652","41.86174","-98.08906","Petersburg","NE","Nebraska","TRUE","","648","1.7","31011","Boone","{""31011"": 100}","Boone","31011","FALSE","FALSE","America/Chicago"
"68653","41.55551","-97.4888","Platte Center","NE","Nebraska","TRUE","","710","4.9","31141","Platte","{""31141"": 100}","Platte","31141","FALSE","FALSE","America/Chicago"
"68654","41.06791","-97.7772","Polk","NE","Nebraska","TRUE","","574","3.9","31143","Polk","{""31143"": 62.88, ""31185"": 28.27, ""31081"": 8.85}","Polk|York|Hamilton","31143|31185|31081","FALSE","FALSE","America/Chicago"
"68655","41.64881","-98.26222","Primrose","NE","Nebraska","TRUE","","101","1.0","31011","Boone","{""31011"": 83.08, ""31077"": 16.92}","Boone|Greeley","31011|31077","FALSE","FALSE","America/Chicago"
"68658","41.19971","-97.2937","Rising City","NE","Nebraska","TRUE","","750","4.0","31023","Butler","{""31023"": 98.63, ""31143"": 1.37}","Butler|Polk","31023|31143","FALSE","FALSE","America/Chicago"
"68659","41.54388","-96.94438","Rogers","NE","Nebraska","TRUE","","185","2.0","31037","Colfax","{""31037"": 100}","Colfax","31037","FALSE","FALSE","America/Chicago"
"68660","41.57398","-97.86792","Saint Edward","NE","Nebraska","TRUE","","1131","3.3","31011","Boone","{""31011"": 56.16, ""31141"": 28.15, ""31125"": 15.69}","Boone|Platte|Nance","31011|31141|31125","FALSE","FALSE","America/Chicago"
"68661","41.49559","-97.08347","Schuyler","NE","Nebraska","TRUE","","7417","19.8","31037","Colfax","{""31037"": 100}","Colfax","31037","FALSE","FALSE","America/Chicago"
"68662","41.20698","-97.41535","Shelby","NE","Nebraska","TRUE","","1331","5.5","31143","Polk","{""31143"": 93.8, ""31023"": 6.2}","Polk|Butler","31143|31023","FALSE","FALSE","America/Chicago"
"68663","41.31193","-97.69927","Silver Creek","NE","Nebraska","TRUE","","821","3.2","31121","Merrick","{""31121"": 45.78, ""31143"": 30.07, ""31125"": 24.15}","Merrick|Polk|Nance","31121|31143|31125","FALSE","FALSE","America/Chicago"
"68664","41.70453","-96.78694","Snyder","NE","Nebraska","TRUE","","311","247.5","31053","Dodge","{""31053"": 100}","Dodge","31053","FALSE","FALSE","America/Chicago"
"68665","41.70543","-98.41445","Spalding","NE","Nebraska","TRUE","","691","1.5","31077","Greeley","{""31077"": 67.01, ""31183"": 32.99}","Greeley|Wheeler","31077|31183","FALSE","FALSE","America/Chicago"
"68666","41.10775","-97.61369","Stromsburg","NE","Nebraska","TRUE","","1598","7.2","31143","Polk","{""31143"": 97.53, ""31185"": 2.47}","Polk|York","31143|31185","FALSE","FALSE","America/Chicago"
"68667","41.11231","-97.30278","Surprise","NE","Nebraska","TRUE","","145","3.6","31023","Butler","{""31023"": 100}","Butler","31023","FALSE","FALSE","America/Chicago"
"68669","41.07789","-97.23612","Ulysses","NE","Nebraska","TRUE","","474","3.0","31023","Butler","{""31023"": 90.02, ""31159"": 9.98}","Butler|Seward","31023|31159","FALSE","FALSE","America/Chicago"
"68701","42.02024","-97.44099","Norfolk","NE","Nebraska","TRUE","","31155","63.8","31119","Madison","{""31119"": 68.93, ""31167"": 18.85, ""31139"": 12.22}","Madison|Stanton|Pierce","31119|31167|31139","FALSE","FALSE","America/Chicago"
"68710","42.439","-96.84784","Allen","NE","Nebraska","TRUE","","739","3.5","31051","Dixon","{""31051"": 100}","Dixon","31051","FALSE","FALSE","America/Chicago"
"68711","42.2034","-99.02407","Amelia","NE","Nebraska","TRUE","","62","0.1","31089","Holt","{""31089"": 100}","Holt","31089","FALSE","FALSE","America/Chicago"
"68713","42.54061","-98.9718","Atkinson","NE","Nebraska","TRUE","","2334","1.5","31089","Holt","{""31089"": 100}","Holt","31089","FALSE","FALSE","America/Chicago"
"68714","42.36957","-99.50258","Bassett","NE","Nebraska","TRUE","","1148","0.5","31149","Rock","{""31149"": 86.25, ""31115"": 11.65, ""31017"": 2.1}","Rock|Loup|Brown","31149|31115|31017","FALSE","FALSE","America/Chicago"
"68715","41.97003","-97.60883","Battle Creek","NE","Nebraska","TRUE","","1796","13.5","31119","Madison","{""31119"": 100}","Madison","31119","FALSE","FALSE","America/Chicago"
"68716","41.9314","-96.82337","Beemer","NE","Nebraska","TRUE","","978","6.7","31039","Cuming","{""31039"": 100}","Cuming","31039","FALSE","FALSE","America/Chicago"
"68717","42.38962","-97.2192","Belden","NE","Nebraska","TRUE","","268","5.7","31027","Cedar","{""31027"": 100}","Cedar","31027","FALSE","FALSE","America/Chicago"
"68718","42.6619","-97.69844","Bloomfield","NE","Nebraska","TRUE","","1688","2.9","31107","Knox","{""31107"": 100}","Knox","31107","FALSE","FALSE","America/Chicago"
"68719","42.96446","-98.57426","Bristow","NE","Nebraska","TRUE","","178","1.3","31015","Boyd","{""31015"": 60.08, ""46053"": 39.92}","Boyd|Gregory","31015|46053","FALSE","FALSE","America/Chicago"
"68720","42.34659","-98.01418","Brunswick","NE","Nebraska","TRUE","","240","1.4","31003","Antelope","{""31003"": 100}","Antelope","31003","FALSE","FALSE","America/Chicago"
"68722","42.92074","-98.87123","Butte","NE","Nebraska","TRUE","","471","1.9","31015","Boyd","{""31015"": 100}","Boyd","31015","FALSE","FALSE","America/Chicago"
"68723","42.28759","-97.21456","Carroll","NE","Nebraska","TRUE","","627","3.7","31179","Wayne","{""31179"": 100}","Wayne","31179","FALSE","FALSE","America/Chicago"
"68724","42.6276","-97.88496","Center","NE","Nebraska","TRUE","","298","2.7","31107","Knox","{""31107"": 100}","Knox","31107","FALSE","FALSE","America/Chicago"
"68725","42.20118","-98.77703","Chambers","NE","Nebraska","TRUE","","609","1.4","31089","Holt","{""31089"": 97.4, ""31183"": 2.6}","Holt|Wheeler","31089|31183","FALSE","FALSE","America/Chicago"
"68726","42.17877","-98.19954","Clearwater","NE","Nebraska","TRUE","","643","1.9","31003","Antelope","{""31003"": 92.97, ""31089"": 7.03}","Antelope|Holt","31003|31089","FALSE","FALSE","America/Chicago"
"68727","42.5116","-97.20596","Coleridge","NE","Nebraska","TRUE","","552","3.2","31027","Cedar","{""31027"": 100}","Cedar","31027","FALSE","FALSE","America/Chicago"
"68728","42.38085","-96.93641","Concord","NE","Nebraska","TRUE","","239","3.8","31051","Dixon","{""31051"": 100}","Dixon","31051","FALSE","FALSE","America/Chicago"
"68729","42.47479","-97.90784","Creighton","NE","Nebraska","TRUE","","1761","4.1","31107","Knox","{""31107"": 82.01, ""31003"": 17.99}","Knox|Antelope","31107|31003","FALSE","FALSE","America/Chicago"
"68730","42.76688","-97.53488","Crofton","NE","Nebraska","TRUE","","2061","5.3","31107","Knox","{""31107"": 69.84, ""31027"": 30.16}","Knox|Cedar","31107|31027","FALSE","FALSE","America/Chicago"
"68731","42.40993","-96.48341","Dakota City","NE","Nebraska","TRUE","","3738","39.6","31043","Dakota","{""31043"": 100}","Dakota","31043","FALSE","FALSE","America/Chicago"
"68732","42.48176","-96.97387","Dixon","NE","Nebraska","TRUE","","187","1.8","31051","Dixon","{""31051"": 100}","Dixon","31051","FALSE","FALSE","America/Chicago"
"68733","42.28278","-96.72245","Emerson","NE","Nebraska","TRUE","","1096","4.5","31173","Thurston","{""31173"": 42.16, ""31051"": 31.0, ""31043"": 26.84}","Thurston|Dixon|Dakota","31173|31051|31043","FALSE","FALSE","America/Chicago"
"68734","42.42528","-98.8044","Emmet","NE","Nebraska","TRUE","","96","0.7","31089","Holt","{""31089"": 100}","Holt","31089","FALSE","FALSE","America/Chicago"
"68735","42.14911","-98.45402","Ewing","NE","Nebraska","TRUE","","919","1.0","31089","Holt","{""31089"": 64.83, ""31183"": 30.34, ""31003"": 4.83}","Holt|Wheeler|Antelope","31089|31183|31003","FALSE","FALSE","America/Chicago"
"68736","42.74481","-97.37136","Fordyce","NE","Nebraska","TRUE","","735","4.9","31027","Cedar","{""31027"": 100}","Cedar","31027","FALSE","FALSE","America/Chicago"
"68739","42.6284","-97.26265","Hartington","NE","Nebraska","TRUE","","2770","4.5","31027","Cedar","{""31027"": 98.74, ""31051"": 1.26}","Cedar|Dixon","31027|31051","FALSE","FALSE","America/Chicago"
"68740","42.14561","-97.29245","Hoskins","NE","Nebraska","TRUE","","873","5.0","31179","Wayne","{""31179"": 93.46, ""31167"": 6.54}","Wayne|Stanton","31179|31167","FALSE","FALSE","America/Chicago"
"68741","42.35711","-96.59375","Hubbard","NE","Nebraska","TRUE","","771","4.3","31043","Dakota","{""31043"": 100}","Dakota","31043","FALSE","FALSE","America/Chicago"
"68742","42.3572","-98.51459","Inman","NE","Nebraska","TRUE","","288","2.8","31089","Holt","{""31089"": 100}","Holt","31089","FALSE","FALSE","America/Chicago"
"68743","42.47271","-96.62586","Jackson","NE","Nebraska","TRUE","","574","4.2","31043","Dakota","{""31043"": 100}","Dakota","31043","FALSE","FALSE","America/Chicago"
"68745","42.44662","-97.08781","Laurel","NE","Nebraska","TRUE","","1550","4.6","31027","Cedar","{""31027"": 88.19, ""31179"": 6.08, ""31051"": 5.73}","Cedar|Wayne|Dixon","31027|31179|31051","FALSE","FALSE","America/Chicago"
"68746","42.80726","-98.4354","Lynch","NE","Nebraska","TRUE","","340","0.6","31015","Boyd","{""31015"": 62.22, ""31089"": 37.78}","Boyd|Holt","31015|31089","FALSE","FALSE","America/Chicago"
"68747","42.39398","-97.48873","Mclean","NE","Nebraska","TRUE","","159","2.4","31139","Pierce","{""31139"": 96.11, ""31027"": 3.89}","Pierce|Cedar","31139|31027","FALSE","FALSE","America/Chicago"
"68748","41.83883","-97.47638","Madison","NE","Nebraska","TRUE","","2434","5.4","31119","Madison","{""31119"": 82.71, ""31167"": 17.29}","Madison|Stanton","31119|31167","FALSE","FALSE","America/Chicago"
"68749","42.46032","-97.47531","Magnet","NE","Nebraska","TRUE","","48","18.4","31027","Cedar","{""31027"": 100}","Cedar","31027","FALSE","FALSE","America/Chicago"
"68751","42.69035","-96.98138","Maskell","NE","Nebraska","TRUE","","68","189.5","31051","Dixon","{""31051"": 100}","Dixon","31051","FALSE","FALSE","America/Chicago"
"68752","42.02269","-97.7154","Meadow Grove","NE","Nebraska","TRUE","","694","2.0","31119","Madison","{""31119"": 75.87, ""31139"": 24.13}","Madison|Pierce","31119|31139","FALSE","FALSE","America/Chicago"
"68753","42.84464","-99.45588","Mills","NE","Nebraska","TRUE","","68","0.3","31103","Keya Paha","{""31103"": 100}","Keya Paha","31103","FALSE","FALSE","America/Chicago"
"68755","42.92329","-99.12963","Naper","NE","Nebraska","TRUE","","391","1.0","31015","Boyd","{""31015"": 99.57, ""46053"": 0.43}","Boyd|Gregory","31015|46053","FALSE","FALSE","America/Chicago"
"68756","42.18544","-97.97985","Neligh","NE","Nebraska","TRUE","","1882","6.0","31003","Antelope","{""31003"": 100}","Antelope","31003","FALSE","FALSE","America/Chicago"
"68757","42.65247","-96.92554","Newcastle","NE","Nebraska","TRUE","","812","2.5","31051","Dixon","{""31051"": 91.91, ""31027"": 8.09}","Dixon|Cedar","31051|31027","FALSE","FALSE","America/Chicago"
"68758","41.7829","-97.78863","Newman Grove","NE","Nebraska","TRUE","","1341","4.6","31119","Madison","{""31119"": 56.41, ""31141"": 24.53, ""31011"": 19.06}","Madison|Platte|Boone","31119|31141|31011","FALSE","FALSE","America/Chicago"
"68759","42.75096","-99.33762","Newport","NE","Nebraska","TRUE","","391","0.5","31149","Rock","{""31149"": 56.05, ""31103"": 43.95}","Rock|Keya Paha","31149|31103","FALSE","FALSE","America/Chicago"
"68760","42.76616","-98.03831","Niobrara","NE","Nebraska","TRUE","","1289","2.5","31107","Knox","{""31107"": 100}","Knox","31107","FALSE","FALSE","America/Chicago"
"68761","42.02287","-97.9601","Oakdale","NE","Nebraska","TRUE","","434","2.9","31003","Antelope","{""31003"": 100}","Antelope","31003","FALSE","FALSE","America/Chicago"
"68763","42.51809","-98.58254","Oneill","NE","Nebraska","TRUE","","4583","3.2","31089","Holt","{""31089"": 98.58, ""31107"": 1.42}","Holt|Knox","31089|31107","FALSE","FALSE","America/Chicago"
"68764","42.39881","-98.23177","Orchard","NE","Nebraska","TRUE","","837","2.4","31003","Antelope","{""31003"": 55.32, ""31107"": 35.96, ""31089"": 8.72}","Antelope|Knox|Holt","31003|31107|31089","FALSE","FALSE","America/Chicago"
"68765","42.33397","-97.6232","Osmond","NE","Nebraska","TRUE","","1186","3.4","31139","Pierce","{""31139"": 100}","Pierce","31139","FALSE","FALSE","America/Chicago"
"68766","42.42375","-98.40321","Page","NE","Nebraska","TRUE","","485","1.7","31089","Holt","{""31089"": 100}","Holt","31089","FALSE","FALSE","America/Chicago"
"68767","42.1969","-97.53622","Pierce","NE","Nebraska","TRUE","","3563","7.1","31139","Pierce","{""31139"": 98.85, ""31179"": 1.15}","Pierce|Wayne","31139|31179","FALSE","FALSE","America/Chicago"
"68768","41.99871","-97.06871","Pilger","NE","Nebraska","TRUE","","626","3.3","31167","Stanton","{""31167"": 92.46, ""31179"": 5.19, ""31039"": 2.35}","Stanton|Wayne|Cuming","31167|31179|31039","FALSE","FALSE","America/Chicago"
"68769","42.3158","-97.81636","Plainview","NE","Nebraska","TRUE","","1718","4.2","31139","Pierce","{""31139"": 64.04, ""31003"": 35.48, ""31107"": 0.48}","Pierce|Antelope|Knox","31139|31003|31107","FALSE","FALSE","America/Chicago"
"68770","42.56287","-96.76898","Ponca","NE","Nebraska","TRUE","","1347","5.2","31051","Dixon","{""31051"": 94.51, ""31043"": 5.49}","Dixon|Dakota","31051|31043","FALSE","FALSE","America/Chicago"
"68771","42.38419","-97.35706","Randolph","NE","Nebraska","TRUE","","1507","3.8","31027","Cedar","{""31027"": 49.36, ""31139"": 30.95, ""31179"": 19.69}","Cedar|Pierce|Wayne","31027|31139|31179","FALSE","FALSE","America/Chicago"
"68773","42.36245","-98.1199","Royal","NE","Nebraska","TRUE","","163","1.2","31003","Antelope","{""31003"": 100}","Antelope","31003","FALSE","FALSE","America/Chicago"
"68774","42.81403","-97.27747","Saint Helena","NE","Nebraska","TRUE","","331","3.2","31027","Cedar","{""31027"": 100}","Cedar","31027","FALSE","FALSE","America/Chicago"
"68776","42.4601","-96.44424","South Sioux City","NE","Nebraska","TRUE","","15156","263.8","31043","Dakota","{""31043"": 100}","Dakota","31043","FALSE","FALSE","America/Chicago"
"68777","42.86088","-98.68504","Spencer","NE","Nebraska","TRUE","","502","1.1","31015","Boyd","{""31015"": 71.99, ""31089"": 28.01}","Boyd|Holt","31015|31089","FALSE","FALSE","America/Chicago"
"68778","42.86963","-99.79483","Springview","NE","Nebraska","TRUE","","648","0.5","31103","Keya Paha","{""31103"": 100}","Keya Paha","31103","FALSE","FALSE","America/Chicago"
"68779","41.9516","-97.21175","Stanton","NE","Nebraska","TRUE","","2517","5.6","31167","Stanton","{""31167"": 100}","Stanton","31167","FALSE","FALSE","America/Chicago"
"68780","42.64621","-99.14062","Stuart","NE","Nebraska","TRUE","","904","1.2","31089","Holt","{""31089"": 100}","Holt","31089","FALSE","FALSE","America/Chicago"
"68781","42.02743","-97.84561","Tilden","NE","Nebraska","TRUE","","1560","4.7","31003","Antelope","{""31003"": 54.51, ""31119"": 27.25, ""31139"": 12.42, ""31011"": 5.82}","Antelope|Madison|Pierce|Boone","31003|31119|31139|31011","FALSE","FALSE","America/Chicago"
"68783","42.62523","-98.14612","Verdigre","NE","Nebraska","TRUE","","886","1.6","31107","Knox","{""31107"": 100}","Knox","31107","FALSE","FALSE","America/Chicago"
"68784","42.25763","-96.88657","Wakefield","NE","Nebraska","TRUE","","1676","5.7","31051","Dixon","{""31051"": 52.49, ""31179"": 44.74, ""31173"": 2.77}","Dixon|Wayne|Thurston","31051|31179|31173","FALSE","FALSE","America/Chicago"
"68785","42.42796","-96.7224","Waterbury","NE","Nebraska","TRUE","","211","2.8","31051","Dixon","{""31051"": 51.43, ""31043"": 48.57}","Dixon|Dakota","31051|31043","FALSE","FALSE","America/Chicago"
"68786","42.50351","-97.55855","Wausa","NE","Nebraska","TRUE","","967","3.0","31107","Knox","{""31107"": 78.67, ""31027"": 17.24, ""31139"": 4.09}","Knox|Cedar|Pierce","31107|31027|31139","FALSE","FALSE","America/Chicago"
"68787","42.21372","-97.03351","Wayne","NE","Nebraska","TRUE","","6931","18.7","31179","Wayne","{""31179"": 93.7, ""31051"": 6.3}","Wayne|Dixon","31179|31051","FALSE","FALSE","America/Chicago"
"68788","41.8387","-96.72571","West Point","NE","Nebraska","TRUE","","4545","9.4","31039","Cuming","{""31039"": 99.88, ""31053"": 0.12}","Cuming|Dodge","31039|31053","FALSE","FALSE","America/Chicago"
"68789","42.53642","-97.99182","Winnetoon","NE","Nebraska","TRUE","","72","0.8","31107","Knox","{""31107"": 100}","Knox","31107","FALSE","FALSE","America/Chicago"
"68790","42.17384","-97.18616","Winside","NE","Nebraska","TRUE","","808","4.9","31179","Wayne","{""31179"": 100}","Wayne","31179","FALSE","FALSE","America/Chicago"
"68791","41.99103","-96.93245","Wisner","NE","Nebraska","TRUE","","1837","5.1","31039","Cuming","{""31039"": 94.26, ""31179"": 4.34, ""31167"": 1.4}","Cuming|Wayne|Stanton","31039|31179|31167","FALSE","FALSE","America/Chicago"
"68792","42.73323","-97.11427","Wynot","NE","Nebraska","TRUE","","375","2.7","31027","Cedar","{""31027"": 100}","Cedar","31027","FALSE","FALSE","America/Chicago"
"68801","40.94949","-98.29295","Grand Island","NE","Nebraska","TRUE","","30176","129.5","31079","Hall","{""31079"": 59.7, ""31121"": 40.3}","Hall|Merrick","31079|31121","FALSE","FALSE","America/Chicago"
"68803","40.95357","-98.41593","Grand Island","NE","Nebraska","TRUE","","25966","115.4","31079","Hall","{""31079"": 100}","Hall","31079","FALSE","FALSE","America/Chicago"
"68810","40.86238","-98.4675","Alda","NE","Nebraska","TRUE","","927","16.9","31079","Hall","{""31079"": 100}","Hall","31079","FALSE","FALSE","America/Chicago"
"68812","40.9051","-99.279","Amherst","NE","Nebraska","TRUE","","562","1.8","31019","Buffalo","{""31019"": 100}","Buffalo","31019","FALSE","FALSE","America/Chicago"
"68813","41.70477","-99.8355","Anselmo","NE","Nebraska","TRUE","","391","0.3","31041","Custer","{""31041"": 63.84, ""31009"": 25.34, ""31115"": 10.82}","Custer|Blaine|Loup","31041|31009|31115","FALSE","FALSE","America/Chicago"
"68814","41.3086","-99.4102","Ansley","NE","Nebraska","TRUE","","928","1.8","31041","Custer","{""31041"": 100}","Custer","31041","FALSE","FALSE","America/Chicago"
"68815","41.42941","-99.16045","Arcadia","NE","Nebraska","TRUE","","668","1.6","31175","Valley","{""31175"": 55.55, ""31041"": 25.97, ""31163"": 18.48}","Valley|Custer|Sherman","31175|31041|31163","FALSE","FALSE","America/Chicago"
"68816","41.17484","-98.13373","Archer","NE","Nebraska","TRUE","","138","1.6","31121","Merrick","{""31121"": 100}","Merrick","31121","FALSE","FALSE","America/Chicago"
"68817","41.26125","-98.7937","Ashton","NE","Nebraska","TRUE","","343","1.6","31163","Sherman","{""31163"": 85.77, ""31093"": 14.23}","Sherman|Howard","31163|31093","FALSE","FALSE","America/Chicago"
"68818","40.82211","-98.01036","Aurora","NE","Nebraska","TRUE","","5834","12.4","31081","Hamilton","{""31081"": 94.01, ""31035"": 5.99}","Hamilton|Clay","31081|31035","FALSE","FALSE","America/Chicago"
"68820","41.1066","-98.70056","Boelus","NE","Nebraska","TRUE","","262","2.5","31093","Howard","{""31093"": 100}","Howard","31093","FALSE","FALSE","America/Chicago"
"68821","42.00177","-99.81628","Brewster","NE","Nebraska","TRUE","","76","0.2","31009","Blaine","{""31009"": 100}","Blaine","31009","FALSE","FALSE","America/Chicago"
"68822","41.38899","-99.62766","Broken Bow","NE","Nebraska","TRUE","","4808","4.8","31041","Custer","{""31041"": 100}","Custer","31041","FALSE","FALSE","America/Chicago"
"68823","41.93653","-99.13255","Burwell","NE","Nebraska","TRUE","","2171","0.9","31071","Garfield","{""31071"": 54.92, ""31115"": 23.82, ""31149"": 10.17, ""31175"": 5.96, ""31089"": 2.93, ""31041"": 2.2}","Garfield|Loup|Rock|Valley|Holt|Custer","31071|31115|31149|31175|31089|31041","FALSE","FALSE","America/Chicago"
"68824","41.00535","-98.61402","Cairo","NE","Nebraska","TRUE","","1492","6.4","31079","Hall","{""31079"": 85.72, ""31093"": 14.28}","Hall|Howard","31079|31093","FALSE","FALSE","America/Chicago"
"68825","41.27347","-99.95758","Callaway","NE","Nebraska","TRUE","","994","1.3","31041","Custer","{""31041"": 100}","Custer","31041","FALSE","FALSE","America/Chicago"
"68826","41.16341","-98.0191","Central City","NE","Nebraska","TRUE","","3928","10.5","31121","Merrick","{""31121"": 100}","Merrick","31121","FALSE","FALSE","America/Chicago"
"68827","41.04247","-98.1811","Chapman","NE","Nebraska","TRUE","","691","4.4","31121","Merrick","{""31121"": 100}","Merrick","31121","FALSE","FALSE","America/Chicago"
"68828","41.55626","-99.24776","Comstock","NE","Nebraska","TRUE","","190","0.9","31041","Custer","{""31041"": 72.84, ""31175"": 27.16}","Custer|Valley","31041|31175","FALSE","FALSE","America/Chicago"
"68831","41.10937","-98.54661","Dannebrog","NE","Nebraska","TRUE","","626","3.4","31093","Howard","{""31093"": 96.0, ""31079"": 4.0}","Howard|Hall","31093|31079","FALSE","FALSE","America/Chicago"
"68832","40.76963","-98.36608","Doniphan","NE","Nebraska","TRUE","","2050","7.9","31079","Hall","{""31079"": 88.36, ""31081"": 11.64}","Hall|Hamilton","31079|31081","FALSE","FALSE","America/Chicago"
"68833","41.80281","-100.09433","Dunning","NE","Nebraska","TRUE","","149","0.1","31009","Blaine","{""31009"": 69.67, ""31041"": 23.74, ""31113"": 6.59}","Blaine|Custer|Logan","31009|31041|31113","FALSE","FALSE","America/Chicago"
"68834","41.01834","-99.65049","Eddyville","NE","Nebraska","TRUE","","188","0.6","31047","Dawson","{""31047"": 68.93, ""31041"": 31.07}","Dawson|Custer","31047|31041","FALSE","FALSE","America/Chicago"
"68835","41.33326","-98.61769","Elba","NE","Nebraska","TRUE","","584","2.3","31093","Howard","{""31093"": 90.88, ""31077"": 9.12}","Howard|Greeley","31093|31077","FALSE","FALSE","America/Chicago"
"68836","40.70709","-99.37865","Elm Creek","NE","Nebraska","TRUE","","1877","4.9","31019","Buffalo","{""31019"": 52.82, ""31137"": 31.93, ""31047"": 15.25}","Buffalo|Phelps|Dawson","31019|31137|31047","FALSE","FALSE","America/Chicago"
"68837","41.66139","-99.06063","Elyria","NE","Nebraska","TRUE","","92","1.3","31175","Valley","{""31175"": 100}","Valley","31175","FALSE","FALSE","America/Chicago"
"68838","41.2156","-98.66755","Farwell","NE","Nebraska","TRUE","","233","1.9","31093","Howard","{""31093"": 100}","Howard","31093","FALSE","FALSE","America/Chicago"
"68840","40.75728","-98.88027","Gibbon","NE","Nebraska","TRUE","","3131","8.0","31019","Buffalo","{""31019"": 88.56, ""31099"": 11.44}","Buffalo|Kearney","31019|31099","FALSE","FALSE","America/Chicago"
"68841","40.76316","-98.16677","Giltner","NE","Nebraska","TRUE","","622","3.5","31081","Hamilton","{""31081"": 100}","Hamilton","31081","FALSE","FALSE","America/Chicago"
"68842","41.58068","-98.53462","Greeley","NE","Nebraska","TRUE","","619","1.3","31077","Greeley","{""31077"": 100}","Greeley","31077","FALSE","FALSE","America/Chicago"
"68843","40.90334","-97.88018","Hampton","NE","Nebraska","TRUE","","729","3.5","31081","Hamilton","{""31081"": 96.33, ""31185"": 3.67}","Hamilton|York","31081|31185","FALSE","FALSE","America/Chicago"
"68844","41.05659","-99.05938","Hazard","NE","Nebraska","TRUE","","257","2.1","31163","Sherman","{""31163"": 64.13, ""31019"": 35.87}","Sherman|Buffalo","31163|31019","FALSE","FALSE","America/Chicago"
"68845","40.71583","-99.17059","Kearney","NE","Nebraska","TRUE","","20632","64.4","31019","Buffalo","{""31019"": 78.83, ""31099"": 12.29, ""31137"": 8.88}","Buffalo|Kearney|Phelps","31019|31099|31137","FALSE","FALSE","America/Chicago"
"68846","41.06499","-97.88533","Hordville","NE","Nebraska","TRUE","","313","4.0","31081","Hamilton","{""31081"": 100}","Hamilton","31081","FALSE","FALSE","America/Chicago"
"68847","40.73465","-99.02272","Kearney","NE","Nebraska","TRUE","","16789","59.1","31019","Buffalo","{""31019"": 80.35, ""31099"": 19.65}","Buffalo|Kearney","31019|31099","FALSE","FALSE","America/Chicago"
"68849","40.70148","-99.10082","Kearney","NE","Nebraska","TRUE","","1566","2750.1","31019","Buffalo","{""31019"": 100}","Buffalo","31019","FALSE","FALSE","America/Chicago"
"68850","40.82548","-99.73574","Lexington","NE","Nebraska","TRUE","","12171","17.6","31047","Dawson","{""31047"": 93.2, ""31073"": 6.8}","Dawson|Gosper","31047|31073","FALSE","FALSE","America/Chicago"
"68852","41.1672","-99.14628","Litchfield","NE","Nebraska","TRUE","","502","1.6","31163","Sherman","{""31163"": 86.55, ""31041"": 13.45}","Sherman|Custer","31163|31041","FALSE","FALSE","America/Chicago"
"68853","41.28975","-98.98616","Loup City","NE","Nebraska","TRUE","","1436","2.8","31163","Sherman","{""31163"": 100}","Sherman","31163","FALSE","FALSE","America/Chicago"
"68854","41.00798","-98.00239","Marquette","NE","Nebraska","TRUE","","756","4.2","31081","Hamilton","{""31081"": 100}","Hamilton","31081","FALSE","FALSE","America/Chicago"
"68855","41.16248","-99.32635","Mason City","NE","Nebraska","TRUE","","303","0.7","31041","Custer","{""31041"": 100}","Custer","31041","FALSE","FALSE","America/Chicago"
"68856","41.50167","-99.8168","Merna","NE","Nebraska","TRUE","","702","2.2","31041","Custer","{""31041"": 100}","Custer","31041","FALSE","FALSE","America/Chicago"
"68858","40.96171","-99.37797","Miller","NE","Nebraska","TRUE","","415","2.5","31019","Buffalo","{""31019"": 95.68, ""31041"": 4.32}","Buffalo|Custer","31019|31041","FALSE","FALSE","America/Chicago"
"68859","41.46103","-98.81931","North Loup","NE","Nebraska","TRUE","","520","2.0","31175","Valley","{""31175"": 88.42, ""31163"": 11.58}","Valley|Sherman","31175|31163","FALSE","FALSE","America/Chicago"
"68860","41.13378","-99.79167","Oconto","NE","Nebraska","TRUE","","255","0.5","31041","Custer","{""31041"": 96.83, ""31047"": 3.17}","Custer|Dawson","31041|31047","FALSE","FALSE","America/Chicago"
"68861","40.69892","-99.2639","Odessa","NE","Nebraska","TRUE","","90","39.5","31019","Buffalo","{""31019"": 100}","Buffalo","31019","FALSE","FALSE","America/Chicago"
"68862","41.60362","-98.93841","Ord","NE","Nebraska","TRUE","","2874","3.7","31175","Valley","{""31175"": 94.95, ""31071"": 5.05}","Valley|Garfield","31175|31071","FALSE","FALSE","America/Chicago"
"68863","40.76628","-99.5252","Overton","NE","Nebraska","TRUE","","1342","4.6","31047","Dawson","{""31047"": 87.13, ""31137"": 12.87}","Dawson|Phelps","31047|31137","FALSE","FALSE","America/Chicago"
"68864","41.2608","-98.24046","Palmer","NE","Nebraska","TRUE","","1099","2.4","31121","Merrick","{""31121"": 38.05, ""31125"": 37.37, ""31093"": 24.57}","Merrick|Nance|Howard","31121|31125|31093","FALSE","FALSE","America/Chicago"
"68865","40.89337","-98.187","Phillips","NE","Nebraska","TRUE","","898","5.8","31081","Hamilton","{""31081"": 100}","Hamilton","31081","FALSE","FALSE","America/Chicago"
"68866","40.96873","-99.12297","Pleasanton","NE","Nebraska","TRUE","","1126","4.0","31019","Buffalo","{""31019"": 94.41, ""31041"": 5.59}","Buffalo|Custer","31019|31041","FALSE","FALSE","America/Chicago"
"68869","40.99944","-98.88325","Ravenna","NE","Nebraska","TRUE","","2123","3.9","31019","Buffalo","{""31019"": 73.31, ""31163"": 26.69}","Buffalo|Sherman","31019|31163","FALSE","FALSE","America/Chicago"
"68870","40.8453","-99.15835","Riverdale","NE","Nebraska","TRUE","","634","5.5","31019","Buffalo","{""31019"": 100}","Buffalo","31019","FALSE","FALSE","America/Chicago"
"68871","41.14039","-98.84788","Rockville","NE","Nebraska","TRUE","","255","1.5","31163","Sherman","{""31163"": 100}","Sherman","31163","FALSE","FALSE","America/Chicago"
"68872","41.09286","-98.33216","Saint Libory","NE","Nebraska","TRUE","","864","5.3","31093","Howard","{""31093"": 73.57, ""31121"": 26.43}","Howard|Merrick","31093|31121","FALSE","FALSE","America/Chicago"
"68873","41.24696","-98.45149","Saint Paul","NE","Nebraska","TRUE","","3649","8.2","31093","Howard","{""31093"": 100}","Howard","31093","FALSE","FALSE","America/Chicago"
"68874","41.63368","-99.42635","Sargent","NE","Nebraska","TRUE","","727","1.1","31041","Custer","{""31041"": 95.27, ""31115"": 4.73}","Custer|Loup","31041|31115","FALSE","FALSE","America/Chicago"
"68875","41.51328","-98.68197","Scotia","NE","Nebraska","TRUE","","562","1.7","31077","Greeley","{""31077"": 95.92, ""31093"": 4.08}","Greeley|Howard","31077|31093","FALSE","FALSE","America/Chicago"
"68876","40.82492","-98.74663","Shelton","NE","Nebraska","TRUE","","1949","8.3","31019","Buffalo","{""31019"": 72.37, ""31079"": 27.63}","Buffalo|Hall","31019|31079","FALSE","FALSE","America/Chicago"
"68878","40.98623","-99.50567","Sumner","NE","Nebraska","TRUE","","511","1.6","31047","Dawson","{""31047"": 78.36, ""31041"": 21.64}","Dawson|Custer","31047|31041","FALSE","FALSE","America/Chicago"
"68879","41.87411","-99.50104","Taylor","NE","Nebraska","TRUE","","402","0.8","31115","Loup","{""31115"": 100}","Loup","31115","FALSE","FALSE","America/Chicago"
"68881","41.43472","-99.35957","Westerville","NE","Nebraska","TRUE","","115","2.4","31041","Custer","{""31041"": 100}","Custer","31041","FALSE","FALSE","America/Chicago"
"68882","41.42362","-98.40366","Wolbach","NE","Nebraska","TRUE","","448","1.3","31077","Greeley","{""31077"": 67.67, ""31093"": 24.78, ""31125"": 7.55}","Greeley|Howard|Nance","31077|31093|31125","FALSE","FALSE","America/Chicago"
"68883","40.81823","-98.58558","Wood River","NE","Nebraska","TRUE","","2590","5.4","31079","Hall","{""31079"": 95.27, ""31001"": 4.73}","Hall|Adams","31079|31001","FALSE","FALSE","America/Chicago"
"68901","40.59092","-98.36599","Hastings","NE","Nebraska","TRUE","","26374","67.8","31001","Adams","{""31001"": 83.28, ""31035"": 14.3, ""31079"": 2.42}","Adams|Clay|Hall","31001|31035|31079","FALSE","FALSE","America/Chicago"
"68920","40.15482","-99.33521","Alma","NE","Nebraska","TRUE","","1560","5.1","31083","Harlan","{""31083"": 100}","Harlan","31083","FALSE","FALSE","America/Chicago"
"68922","40.33653","-99.89976","Arapahoe","NE","Nebraska","TRUE","","1122","2.7","31065","Furnas","{""31065"": 53.55, ""31073"": 46.45}","Furnas|Gosper","31065|31073","FALSE","FALSE","America/Chicago"
"68923","40.36835","-99.47314","Atlanta","NE","Nebraska","TRUE","","100","163.5","31137","Phelps","{""31137"": 100}","Phelps","31137","FALSE","FALSE","America/Chicago"
"68924","40.49557","-99.12469","Axtell","NE","Nebraska","TRUE","","1540","5.5","31099","Kearney","{""31099"": 89.0, ""31137"": 11.0}","Kearney|Phelps","31099|31137","FALSE","FALSE","America/Chicago"
"68925","40.42366","-98.43821","Ayr","NE","Nebraska","TRUE","","499","3.2","31001","Adams","{""31001"": 100}","Adams","31001","FALSE","FALSE","America/Chicago"
"68926","40.09311","-99.85139","Beaver City","NE","Nebraska","TRUE","","576","1.5","31065","Furnas","{""31065"": 100}","Furnas","31065","FALSE","FALSE","America/Chicago"
"68927","40.51146","-99.62665","Bertrand","NE","Nebraska","TRUE","","1243","3.2","31137","Phelps","{""31137"": 64.92, ""31073"": 35.08}","Phelps|Gosper","31137|31073","FALSE","FALSE","America/Chicago"
"68928","40.2874","-98.60728","Bladen","NE","Nebraska","TRUE","","374","1.3","31181","Webster","{""31181"": 82.66, ""31001"": 17.34}","Webster|Adams","31181|31001","FALSE","FALSE","America/Chicago"
"68929","40.15245","-99.07124","Bloomington","NE","Nebraska","TRUE","","166","1.1","31061","Franklin","{""31061"": 100}","Franklin","31061","FALSE","FALSE","America/Chicago"
"68930","40.28514","-98.41846","Blue Hill","NE","Nebraska","TRUE","","1341","3.7","31181","Webster","{""31181"": 80.75, ""31001"": 19.25}","Webster|Adams","31181|31001","FALSE","FALSE","America/Chicago"
"68932","40.30258","-98.73851","Campbell","NE","Nebraska","TRUE","","408","1.7","31061","Franklin","{""31061"": 41.95, ""31181"": 32.56, ""31099"": 12.76, ""31001"": 12.74}","Franklin|Webster|Kearney|Adams","31061|31181|31099|31001","FALSE","FALSE","America/Chicago"
"68933","40.51786","-98.04211","Clay Center","NE","Nebraska","TRUE","","907","5.2","31035","Clay","{""31035"": 100}","Clay","31035","FALSE","FALSE","America/Chicago"
"68934","40.33831","-98.15962","Deweese","NE","Nebraska","TRUE","","147","1.6","31129","Nuckolls","{""31129"": 68.82, ""31035"": 31.18}","Nuckolls|Clay","31129|31035","FALSE","FALSE","America/Chicago"
"68935","40.38058","-97.95859","Edgar","NE","Nebraska","TRUE","","697","2.2","31035","Clay","{""31035"": 63.84, ""31129"": 36.16}","Clay|Nuckolls","31035|31129","FALSE","FALSE","America/Chicago"
"68936","40.31655","-99.77868","Edison","NE","Nebraska","TRUE","","212","0.9","31065","Furnas","{""31065"": 63.94, ""31073"": 36.06}","Furnas|Gosper","31065|31073","FALSE","FALSE","America/Chicago"
"68937","40.57262","-99.85494","Elwood","NE","Nebraska","TRUE","","1764","3.4","31073","Gosper","{""31073"": 92.65, ""31047"": 3.99, ""31063"": 3.36}","Gosper|Dawson|Frontier","31073|31047|31063","FALSE","FALSE","America/Chicago"
"68938","40.42093","-98.12344","Fairfield","NE","Nebraska","TRUE","","490","2.7","31035","Clay","{""31035"": 100}","Clay","31035","FALSE","FALSE","America/Chicago"
"68939","40.10977","-98.96169","Franklin","NE","Nebraska","TRUE","","1018","2.9","31061","Franklin","{""31061"": 100}","Franklin","31061","FALSE","FALSE","America/Chicago"
"68940","40.53815","-99.25086","Funk","NE","Nebraska","TRUE","","525","2.7","31137","Phelps","{""31137"": 100}","Phelps","31137","FALSE","FALSE","America/Chicago"
"68941","40.46882","-98.26792","Glenvil","NE","Nebraska","TRUE","","837","3.4","31035","Clay","{""31035"": 58.74, ""31001"": 41.26}","Clay|Adams","31035|31001","FALSE","FALSE","America/Chicago"
"68942","40.09552","-98.31143","Guide Rock","NE","Nebraska","TRUE","","469","1.3","31181","Webster","{""31181"": 72.93, ""31129"": 27.07}","Webster|Nuckolls","31181|31129","FALSE","FALSE","America/Chicago"
"68943","40.03916","-97.88589","Hardy","NE","Nebraska","TRUE","","274","1.8","31129","Nuckolls","{""31129"": 84.06, ""20157"": 11.82, ""31169"": 4.12}","Nuckolls|Republic|Thayer","31129|20157|31169","FALSE","FALSE","America/Chicago"
"68944","40.63741","-98.0949","Harvard","NE","Nebraska","TRUE","","1348","4.8","31035","Clay","{""31035"": 89.34, ""31081"": 10.66}","Clay|Hamilton","31035|31081","FALSE","FALSE","America/Chicago"
"68945","40.56098","-98.77327","Heartwell","NE","Nebraska","TRUE","","212","1.8","31099","Kearney","{""31099"": 97.85, ""31001"": 2.15}","Kearney|Adams","31099|31001","FALSE","FALSE","America/Chicago"
"68946","40.1067","-99.99048","Hendley","NE","Nebraska","TRUE","","38","0.7","31065","Furnas","{""31065"": 100}","Furnas","31065","FALSE","FALSE","America/Chicago"
