"zip","lat","lng","city","state_id","state_name","zcta","parent_zcta","population","density","county_fips","county_name","county_weights","county_names_all","county_fips_all","imprecise","military","timezone"
"31815","32.04117","-84.85407","Lumpkin","GA","Georgia","TRUE","","3515","5.4","13259","Stewart","{""13259"": 100}","Stewart","13259","FALSE","FALSE","America/New_York"
"31816","32.8762","-84.60169","Manchester","GA","Georgia","TRUE","","4956","51.0","13199","Meriwether","{""13199"": 85.89, ""13263"": 14.11}","Meriwether|Talbot","13199|13263","FALSE","FALSE","America/New_York"
"31820","32.57576","-84.82947","Midland","GA","Georgia","TRUE","","12477","116.6","13215","Muscogee","{""13215"": 60.23, ""13145"": 39.77}","Muscogee|Harris","13215|13145","FALSE","FALSE","America/New_York"
"31821","32.14048","-84.97083","Omaha","GA","Georgia","TRUE","","40","0.2","13259","Stewart","{""13259"": 100}","Stewart","13259","FALSE","FALSE","America/Chicago"
"31822","32.86708","-84.91107","Pine Mountain","GA","Georgia","TRUE","","5899","19.7","13145","Harris","{""13145"": 49.84, ""13285"": 32.47, ""13199"": 17.69}","Harris|Troup|Meriwether","13145|13285|13199","FALSE","FALSE","America/New_York"
"31823","32.80061","-84.81377","Pine Mountain Valley","GA","Georgia","TRUE","","602","31.4","13145","Harris","{""13145"": 100}","Harris","13145","FALSE","FALSE","America/New_York"
"31824","32.05687","-84.5229","Preston","GA","Georgia","TRUE","","1131","3.7","13307","Webster","{""13307"": 98.18, ""13197"": 1.82}","Webster|Marion","13307|13197","FALSE","FALSE","America/New_York"
"31825","32.1081","-84.6693","Richland","GA","Georgia","TRUE","","2512","6.7","13259","Stewart","{""13259"": 70.2, ""13307"": 29.8}","Stewart|Webster","13259|13307","FALSE","FALSE","America/New_York"
"31826","32.79526","-84.70292","Shiloh","GA","Georgia","TRUE","","1962","14.7","13145","Harris","{""13145"": 65.99, ""13263"": 34.01}","Harris|Talbot","13145|13263","FALSE","FALSE","America/New_York"
"31827","32.69821","-84.49847","Talbotton","GA","Georgia","TRUE","","2114","5.3","13263","Talbot","{""13263"": 100}","Talbot","13263","FALSE","FALSE","America/New_York"
"31829","32.56681","-84.72787","Upatoi","GA","Georgia","TRUE","","1467","42.5","13215","Muscogee","{""13215"": 84.22, ""13145"": 15.78}","Muscogee|Harris","13215|13145","FALSE","FALSE","America/New_York"
"31830","32.8951","-84.72689","Warm Springs","GA","Georgia","TRUE","","2523","17.8","13199","Meriwether","{""13199"": 90.21, ""13145"": 9.79}","Meriwether|Harris","13199|13145","FALSE","FALSE","America/New_York"
"31831","32.66486","-84.70701","Waverly Hall","GA","Georgia","TRUE","","3751","19.7","13145","Harris","{""13145"": 62.4, ""13263"": 37.6}","Harris|Talbot","13145|13263","FALSE","FALSE","America/New_York"
"31832","31.95501","-84.61709","Weston","GA","Georgia","TRUE","","175","2.4","13307","Webster","{""13307"": 87.56, ""13243"": 12.44}","Webster|Randolph","13307|13243","FALSE","FALSE","America/New_York"
"31833","32.84963","-85.09202","West Point","GA","Georgia","TRUE","","6872","27.2","13145","Harris","{""13145"": 60.91, ""13285"": 39.09}","Harris|Troup","13145|13285","FALSE","FALSE","America/New_York"
"31836","32.79189","-84.54891","Woodland","GA","Georgia","TRUE","","809","3.5","13263","Talbot","{""13263"": 100}","Talbot","13263","FALSE","FALSE","America/New_York"
"31901","32.46461","-84.97986","Columbus","GA","Georgia","TRUE","","5728","503.2","13215","Muscogee","{""13215"": 100}","Muscogee","13215","FALSE","FALSE","America/New_York"
"31903","32.41484","-84.95321","Columbus","GA","Georgia","TRUE","","19587","758.1","13215","Muscogee","{""13215"": 100}","Muscogee","13215","FALSE","FALSE","America/New_York"
"31904","32.55189","-85.00009","Columbus","GA","Georgia","TRUE","","34865","489.3","13215","Muscogee","{""13215"": 100}","Muscogee","13215","FALSE","FALSE","America/New_York"
"31905","32.37304","-84.84331","Fort Benning","GA","Georgia","TRUE","","16973","71.9","13053","Chattahoochee","{""13053"": 80.96, ""13215"": 19.04}","Chattahoochee|Muscogee","13053|13215","FALSE","FALSE","America/New_York"
"31906","32.46815","-84.94963","Columbus","GA","Georgia","TRUE","","20722","1164.8","13215","Muscogee","{""13215"": 100}","Muscogee","13215","FALSE","FALSE","America/New_York"
"31907","32.48388","-84.89976","Columbus","GA","Georgia","TRUE","","61085","989.0","13215","Muscogee","{""13215"": 100}","Muscogee","13215","FALSE","FALSE","America/New_York"
"31909","32.54517","-84.92385","Columbus","GA","Georgia","TRUE","","40062","827.2","13215","Muscogee","{""13215"": 100}","Muscogee","13215","FALSE","FALSE","America/New_York"
"32003","30.09813","-81.71255","Fleming Island","FL","Florida","TRUE","","29505","719.3","12019","Clay","{""12019"": 100}","Clay","12019","FALSE","FALSE","America/New_York"
"32008","29.90351","-82.90311","Branford","FL","Florida","TRUE","","5920","15.2","12067","Lafayette","{""12067"": 46.09, ""12041"": 24.59, ""12121"": 23.75, ""12029"": 5.56}","Lafayette|Gilchrist|Suwannee|Dixie","12067|12041|12121|12029","FALSE","FALSE","America/New_York"
"32009","30.42078","-81.97252","Bryceville","FL","Florida","TRUE","","3372","14.9","12089","Nassau","{""12089"": 100}","Nassau","12089","FALSE","FALSE","America/New_York"
"32011","30.56985","-81.83975","Callahan","FL","Florida","TRUE","","14791","33.9","12089","Nassau","{""12089"": 100}","Nassau","12089","FALSE","FALSE","America/New_York"
"32013","30.19366","-83.29116","Day","FL","Florida","TRUE","","66","2332.5","12067","Lafayette","{""12067"": 100}","Lafayette","12067","FALSE","FALSE","America/New_York"
"32024","30.0793","-82.72597","Lake City","FL","Florida","TRUE","","18712","49.7","12023","Columbia","{""12023"": 81.42, ""12121"": 18.58}","Columbia|Suwannee","12023|12121","FALSE","FALSE","America/New_York"
"32025","30.11266","-82.57072","Lake City","FL","Florida","TRUE","","23649","87.3","12023","Columbia","{""12023"": 100}","Columbia","12023","FALSE","FALSE","America/New_York"
"32033","29.78851","-81.44263","Elkton","FL","Florida","TRUE","","4666","23.0","12109","St. Johns","{""12109"": 100}","St. Johns","12109","FALSE","FALSE","America/New_York"
"32034","30.624","-81.49392","Fernandina Beach","FL","Florida","TRUE","","38747","230.2","12089","Nassau","{""12089"": 100}","Nassau","12089","FALSE","FALSE","America/New_York"
"32038","29.93617","-82.69924","Fort White","FL","Florida","TRUE","","9905","35.7","12023","Columbia","{""12023"": 100}","Columbia","12023","FALSE","FALSE","America/New_York"
"32040","30.24696","-82.23531","Glen Saint Mary","FL","Florida","TRUE","","8006","25.5","12003","Baker","{""12003"": 100}","Baker","12003","FALSE","FALSE","America/New_York"
"32043","29.92991","-81.74304","Green Cove Springs","FL","Florida","TRUE","","30249","50.9","12019","Clay","{""12019"": 93.13, ""12107"": 6.87}","Clay|Putnam","12019|12107","FALSE","FALSE","America/New_York"
"32044","29.85344","-82.16425","Hampton","FL","Florida","TRUE","","2268","50.1","12007","Bradford","{""12007"": 93.71, ""12001"": 6.29}","Bradford|Alachua","12007|12001","FALSE","FALSE","America/New_York"
"32046","30.70253","-81.91718","Hilliard","FL","Florida","TRUE","","10745","21.1","12089","Nassau","{""12089"": 100}","Nassau","12089","FALSE","FALSE","America/New_York"
"32052","30.48683","-82.94499","Jasper","FL","Florida","TRUE","","8712","11.8","12047","Hamilton","{""12047"": 100}","Hamilton","12047","FALSE","FALSE","America/New_York"
"32053","30.56417","-83.1519","Jennings","FL","Florida","TRUE","","3729","13.6","12047","Hamilton","{""12047"": 100}","Hamilton","12047","FALSE","FALSE","America/New_York"
"32054","30.0281","-82.39143","Lake Butler","FL","Florida","TRUE","","12757","22.8","12125","Union","{""12125"": 91.31, ""12007"": 8.69}","Union|Bradford","12125|12007","FALSE","FALSE","America/New_York"
"32055","30.27031","-82.62507","Lake City","FL","Florida","TRUE","","16184","33.9","12023","Columbia","{""12023"": 100}","Columbia","12023","FALSE","FALSE","America/New_York"
"32058","30.07988","-82.10743","Lawtey","FL","Florida","TRUE","","5411","29.2","12007","Bradford","{""12007"": 86.69, ""12125"": 10.47, ""12019"": 2.84}","Bradford|Union|Clay","12007|12125|12019","FALSE","FALSE","America/New_York"
"32059","30.38672","-83.27066","Lee","FL","Florida","TRUE","","2670","8.7","12079","Madison","{""12079"": 100}","Madison","12079","FALSE","FALSE","America/New_York"
"32060","30.27554","-83.04935","Live Oak","FL","Florida","TRUE","","23078","22.6","12121","Suwannee","{""12121"": 100}","Suwannee","12121","FALSE","FALSE","America/New_York"
"32061","30.08311","-82.51666","Lulu","FL","Florida","TRUE","","344","8.3","12023","Columbia","{""12023"": 100}","Columbia","12023","FALSE","FALSE","America/New_York"
"32062","30.13276","-82.9754","McAlpin","FL","Florida","TRUE","","1862","10.9","12121","Suwannee","{""12121"": 100}","Suwannee","12121","FALSE","FALSE","America/New_York"
"32063","30.27045","-82.11974","Macclenny","FL","Florida","TRUE","","14024","73.9","12003","Baker","{""12003"": 100}","Baker","12003","FALSE","FALSE","America/New_York"
"32064","30.28907","-83.02375","Live Oak","FL","Florida","TRUE","","7433","308.9","12121","Suwannee","{""12121"": 100}","Suwannee","12121","FALSE","FALSE","America/New_York"
"32065","30.15613","-81.81762","Orange Park","FL","Florida","TRUE","","39146","763.0","12019","Clay","{""12019"": 100}","Clay","12019","FALSE","FALSE","America/New_York"
"32066","30.04423","-83.22495","Mayo","FL","Florida","TRUE","","6973","9.6","12067","Lafayette","{""12067"": 100}","Lafayette","12067","FALSE","FALSE","America/New_York"
"32068","30.08218","-81.88245","Middleburg","FL","Florida","TRUE","","57231","191.3","12019","Clay","{""12019"": 100}","Clay","12019","FALSE","FALSE","America/New_York"
"32071","30.04097","-82.945","O'Brien","FL","Florida","TRUE","","2987","11.1","12121","Suwannee","{""12121"": 100}","Suwannee","12121","FALSE","FALSE","America/New_York"
"32073","30.16766","-81.74069","Orange Park","FL","Florida","TRUE","","42278","969.5","12019","Clay","{""12019"": 100}","Clay","12019","FALSE","FALSE","America/New_York"
"32079","29.97814","-81.80563","Penney Farms","FL","Florida","TRUE","","384","327.8","12019","Clay","{""12019"": 100}","Clay","12019","FALSE","FALSE","America/New_York"
"32080","29.82453","-81.27412","Saint Augustine","FL","Florida","TRUE","","21001","515.6","12109","St. Johns","{""12109"": 99.06, ""12035"": 0.94}","St. Johns|Flagler","12109|12035","FALSE","FALSE","America/New_York"
"32081","30.12143","-81.42089","Ponte Vedra","FL","Florida","TRUE","","20867","228.4","12109","St. Johns","{""12109"": 90.41, ""12031"": 9.59}","St. Johns|Duval","12109|12031","FALSE","FALSE","America/New_York"
"32082","30.12488","-81.36577","Ponte Vedra Beach","FL","Florida","TRUE","","28721","332.4","12109","St. Johns","{""12109"": 100}","St. Johns","12109","FALSE","FALSE","America/New_York"
"32083","30.09074","-82.23222","Raiford","FL","Florida","TRUE","","2159","21.1","12125","Union","{""12125"": 98.05, ""12007"": 1.95}","Union|Bradford","12125|12007","FALSE","FALSE","America/New_York"
"32084","29.91412","-81.36417","Saint Augustine","FL","Florida","TRUE","","35618","304.8","12109","St. Johns","{""12109"": 100}","St. Johns","12109","FALSE","FALSE","America/New_York"
"32086","29.75656","-81.30282","Saint Augustine","FL","Florida","TRUE","","32753","192.3","12109","St. Johns","{""12109"": 100}","St. Johns","12109","FALSE","FALSE","America/New_York"
"32087","30.36999","-82.29741","Sanderson","FL","Florida","TRUE","","5605","13.6","12003","Baker","{""12003"": 100}","Baker","12003","FALSE","FALSE","America/New_York"
"32091","29.93205","-82.11324","Starke","FL","Florida","TRUE","","15618","39.7","12007","Bradford","{""12007"": 83.22, ""12019"": 16.78}","Bradford|Clay","12007|12019","FALSE","FALSE","America/New_York"
"32092","29.92849","-81.52209","Saint Augustine","FL","Florida","TRUE","","42245","131.5","12109","St. Johns","{""12109"": 100}","St. Johns","12109","FALSE","FALSE","America/New_York"
"32094","30.19797","-82.82767","Wellborn","FL","Florida","TRUE","","3358","23.0","12121","Suwannee","{""12121"": 88.48, ""12023"": 11.52}","Suwannee|Columbia","12121|12023","FALSE","FALSE","America/New_York"
"32095","30.01693","-81.40927","Saint Augustine","FL","Florida","TRUE","","15021","101.1","12109","St. Johns","{""12109"": 100}","St. Johns","12109","FALSE","FALSE","America/New_York"
"32096","30.43678","-82.7011","White Springs","FL","Florida","TRUE","","2793","6.3","12023","Columbia","{""12023"": 55.39, ""12047"": 42.96, ""12121"": 1.65}","Columbia|Hamilton|Suwannee","12023|12047|12121","FALSE","FALSE","America/New_York"
"32097","30.65851","-81.64478","Yulee","FL","Florida","TRUE","","20752","64.2","12089","Nassau","{""12089"": 100}","Nassau","12089","FALSE","FALSE","America/New_York"
"32102","29.1359","-81.52544","Astor","FL","Florida","TRUE","","2319","14.3","12069","Lake","{""12069"": 61.11, ""12127"": 38.89}","Lake|Volusia","12069|12127","FALSE","FALSE","America/New_York"
"32110","29.44456","-81.36131","Bunnell","FL","Florida","TRUE","","8909","11.6","12035","Flagler","{""12035"": 100}","Flagler","12035","FALSE","FALSE","America/New_York"
"32112","29.42664","-81.55649","Crescent City","FL","Florida","TRUE","","7501","56.3","12107","Putnam","{""12107"": 100}","Putnam","12107","FALSE","FALSE","America/New_York"
"32113","29.39836","-82.08127","Citra","FL","Florida","TRUE","","4966","22.4","12083","Marion","{""12083"": 100}","Marion","12083","FALSE","FALSE","America/New_York"
"32114","29.19312","-81.04915","Daytona Beach","FL","Florida","TRUE","","34560","834.1","12127","Volusia","{""12127"": 100}","Volusia","12127","FALSE","FALSE","America/New_York"
"32117","29.23351","-81.06727","Daytona Beach","FL","Florida","TRUE","","29100","936.6","12127","Volusia","{""12127"": 100}","Volusia","12127","FALSE","FALSE","America/New_York"
"32118","29.21035","-81.00425","Daytona Beach","FL","Florida","TRUE","","18123","1650.1","12127","Volusia","{""12127"": 100}","Volusia","12127","FALSE","FALSE","America/New_York"
"32119","29.16001","-81.02707","Daytona Beach","FL","Florida","TRUE","","22677","1119.1","12127","Volusia","{""12127"": 100}","Volusia","12127","FALSE","FALSE","America/New_York"
"32124","29.15802","-81.15732","Daytona Beach","FL","Florida","TRUE","","7449","46.8","12127","Volusia","{""12127"": 100}","Volusia","12127","FALSE","FALSE","America/New_York"
"32127","29.10866","-80.97907","Port Orange","FL","Florida","TRUE","","28136","730.3","12127","Volusia","{""12127"": 100}","Volusia","12127","FALSE","FALSE","America/New_York"
"32128","29.09773","-81.07467","Port Orange","FL","Florida","TRUE","","21811","252.1","12127","Volusia","{""12127"": 100}","Volusia","12127","FALSE","FALSE","America/New_York"
"32129","29.13721","-81.02381","Port Orange","FL","Florida","TRUE","","22670","1164.0","12127","Volusia","{""12127"": 100}","Volusia","12127","FALSE","FALSE","America/New_York"
"32130","29.15704","-81.34501","De Leon Springs","FL","Florida","TRUE","","4756","19.4","12127","Volusia","{""12127"": 100}","Volusia","12127","FALSE","FALSE","America/New_York"
"32131","29.67803","-81.56785","East Palatka","FL","Florida","TRUE","","4273","46.1","12107","Putnam","{""12107"": 93.98, ""12109"": 6.02}","Putnam|St. Johns","12107|12109","FALSE","FALSE","America/New_York"
"32132","28.97731","-80.92345","Edgewater","FL","Florida","TRUE","","7667","421.3","12127","Volusia","{""12127"": 100}","Volusia","12127","FALSE","FALSE","America/New_York"
"32133","29.01061","-81.92036","Eastlake Weir","FL","Florida","TRUE","","711","260.6","12083","Marion","{""12083"": 100}","Marion","12083","FALSE","FALSE","America/New_York"
"32134","29.37177","-81.82562","Fort McCoy","FL","Florida","TRUE","","7147","10.3","12083","Marion","{""12083"": 79.1, ""12107"": 19.48, ""12069"": 1.42}","Marion|Putnam|Lake","12083|12107|12069","FALSE","FALSE","America/New_York"
"32136","29.45252","-81.14025","Flagler Beach","FL","Florida","TRUE","","8209","178.8","12035","Flagler","{""12035"": 90.25, ""12127"": 9.75}","Flagler|Volusia","12035|12127","FALSE","FALSE","America/New_York"
"32137","29.58057","-81.22455","Palm Coast","FL","Florida","TRUE","","44687","276.5","12035","Flagler","{""12035"": 100}","Flagler","12035","FALSE","FALSE","America/New_York"
"32139","29.37693","-81.61431","Georgetown","FL","Florida","TRUE","","853","26.1","12107","Putnam","{""12107"": 99.79, ""12127"": 0.21}","Putnam|Volusia","12107|12127","FALSE","FALSE","America/New_York"
"32140","29.76274","-81.86306","Florahome","FL","Florida","TRUE","","1802","20.9","12107","Putnam","{""12107"": 90.17, ""12019"": 9.83}","Putnam|Clay","12107|12019","FALSE","FALSE","America/New_York"
"32141","28.92322","-80.90196","Edgewater","FL","Florida","TRUE","","18859","308.9","12127","Volusia","{""12127"": 100}","Volusia","12127","FALSE","FALSE","America/New_York"
"32145","29.67899","-81.41973","Hastings","FL","Florida","TRUE","","5539","23.9","12109","St. Johns","{""12109"": 99.35, ""12107"": 0.65}","St. Johns|Putnam","12109|12107","FALSE","FALSE","America/New_York"
"32147","29.63157","-81.79577","Hollister","FL","Florida","TRUE","","1961","25.4","12107","Putnam","{""12107"": 100}","Putnam","12107","FALSE","FALSE","America/New_York"
"32148","29.60088","-81.88191","Interlachen","FL","Florida","TRUE","","10552","52.1","12107","Putnam","{""12107"": 100}","Putnam","12107","FALSE","FALSE","America/New_York"
"32157","29.46296","-81.58165","Lake Como","FL","Florida","TRUE","","376","57.8","12107","Putnam","{""12107"": 100}","Putnam","12107","FALSE","FALSE","America/New_York"
"32159","28.92456","-81.90528","Lady Lake","FL","Florida","TRUE","","29613","379.1","12069","Lake","{""12069"": 85.93, ""12119"": 14.07}","Lake|Sumter","12069|12119","FALSE","FALSE","America/New_York"
"32162","28.91629","-81.99374","The Villages","FL","Florida","TRUE","","51373","871.1","12119","Sumter","{""12119"": 84.95, ""12083"": 15.05}","Sumter|Marion","12119|12083","FALSE","FALSE","America/New_York"
"32163","28.81878","-81.98663","The Villages","FL","Florida","TRUE","","24467","499.9","12119","Sumter","{""12119"": 90.56, ""12069"": 9.44}","Sumter|Lake","12119|12069","FALSE","FALSE","America/New_York"
"32164","29.48316","-81.2174","Palm Coast","FL","Florida","TRUE","","50008","593.9","12035","Flagler","{""12035"": 100}","Flagler","12035","FALSE","FALSE","America/New_York"
"32168","28.98214","-81.03721","New Smyrna Beach","FL","Florida","TRUE","","30060","75.4","12127","Volusia","{""12127"": 100}","Volusia","12127","FALSE","FALSE","America/New_York"
"32169","28.97934","-80.87386","New Smyrna Beach","FL","Florida","TRUE","","10400","247.9","12127","Volusia","{""12127"": 100}","Volusia","12127","FALSE","FALSE","America/New_York"
"32174","29.28928","-81.16446","Ormond Beach","FL","Florida","TRUE","","51319","158.1","12127","Volusia","{""12127"": 71.82, ""12035"": 28.18}","Volusia|Flagler","12127|12035","FALSE","FALSE","America/New_York"
"32176","29.33216","-81.06327","Ormond Beach","FL","Florida","TRUE","","13741","932.2","12127","Volusia","{""12127"": 100}","Volusia","12127","FALSE","FALSE","America/New_York"
"32177","29.69011","-81.70565","Palatka","FL","Florida","TRUE","","26087","44.4","12107","Putnam","{""12107"": 100}","Putnam","12107","FALSE","FALSE","America/New_York"
"32179","29.09631","-81.89686","Ocklawaha","FL","Florida","TRUE","","8043","41.4","12083","Marion","{""12083"": 100}","Marion","12083","FALSE","FALSE","America/New_York"
"32180","29.23437","-81.44521","Pierson","FL","Florida","TRUE","","5144","22.0","12127","Volusia","{""12127"": 88.09, ""12035"": 11.91}","Volusia|Flagler","12127|12035","FALSE","FALSE","America/New_York"
"32181","29.50658","-81.60126","Pomona Park","FL","Florida","TRUE","","3119","47.2","12107","Putnam","{""12107"": 100}","Putnam","12107","FALSE","FALSE","America/New_York"
"32182","29.50926","-81.94113","Orange Springs","FL","Florida","TRUE","","55","87.2","12083","Marion","{""12083"": 98.56, ""12107"": 1.44}","Marion|Putnam","12083|12107","FALSE","FALSE","America/New_York"
"32187","29.57827","-81.55392","San Mateo","FL","Florida","TRUE","","1337","22.4","12107","Putnam","{""12107"": 100}","Putnam","12107","FALSE","FALSE","America/New_York"
"32189","29.54991","-81.64819","Satsuma","FL","Florida","TRUE","","5287","69.7","12107","Putnam","{""12107"": 100}","Putnam","12107","FALSE","FALSE","America/New_York"
"32190","29.33289","-81.49056","Seville","FL","Florida","TRUE","","1524","15.8","12127","Volusia","{""12127"": 100}","Volusia","12127","FALSE","FALSE","America/New_York"
"32192","29.35005","-82.11109","Sparr","FL","Florida","TRUE","","0","0.0","12083","Marion","{""12083"": 100}","Marion","12083","FALSE","FALSE","America/New_York"
"32193","29.47605","-81.6647","Welaka","FL","Florida","TRUE","","1057","114.4","12107","Putnam","{""12107"": 100}","Putnam","12107","FALSE","FALSE","America/New_York"
"32195","28.9854","-81.89814","Weirsdale","FL","Florida","TRUE","","2984","47.2","12083","Marion","{""12083"": 87.29, ""12069"": 12.71}","Marion|Lake","12083|12069","FALSE","FALSE","America/New_York"
"32202","30.32505","-81.64786","Jacksonville","FL","Florida","TRUE","","6717","1308.5","12031","Duval","{""12031"": 100}","Duval","12031","FALSE","FALSE","America/New_York"
"32203","30.33702","-81.67129","Jacksonville","FL","Florida","TRUE","","0","0.0","12031","Duval","{""12031"": 100}","Duval","12031","FALSE","FALSE","America/New_York"
"32204","30.31636","-81.68095","Jacksonville","FL","Florida","TRUE","","7750","1114.0","12031","Duval","{""12031"": 100}","Duval","12031","FALSE","FALSE","America/New_York"
"32205","30.30275","-81.72257","Jacksonville","FL","Florida","TRUE","","31398","1566.7","12031","Duval","{""12031"": 100}","Duval","12031","FALSE","FALSE","America/New_York"
"32206","30.35069","-81.63865","Jacksonville","FL","Florida","TRUE","","16406","1016.2","12031","Duval","{""12031"": 100}","Duval","12031","FALSE","FALSE","America/New_York"
"32207","30.29","-81.64018","Jacksonville","FL","Florida","TRUE","","36711","1238.9","12031","Duval","{""12031"": 100}","Duval","12031","FALSE","FALSE","America/New_York"
"32208","30.39351","-81.68245","Jacksonville","FL","Florida","TRUE","","32244","1080.0","12031","Duval","{""12031"": 100}","Duval","12031","FALSE","FALSE","America/New_York"
"32209","30.36141","-81.69573","Jacksonville","FL","Florida","TRUE","","35915","1489.9","12031","Duval","{""12031"": 100}","Duval","12031","FALSE","FALSE","America/New_York"
"32210","30.26491","-81.74746","Jacksonville","FL","Florida","TRUE","","66824","1178.7","12031","Duval","{""12031"": 100}","Duval","12031","FALSE","FALSE","America/New_York"
"32211","30.33276","-81.58428","Jacksonville","FL","Florida","TRUE","","35668","1680.8","12031","Duval","{""12031"": 100}","Duval","12031","FALSE","FALSE","America/New_York"
"32212","30.21916","-81.67869","Jacksonville","FL","Florida","TRUE","","2275","171.7","12031","Duval","{""12031"": 100}","Duval","12031","FALSE","FALSE","America/New_York"
"32214","30.20749","-81.68334","Jacksonville","FL","Florida","TRUE","","0","0.0","12031","Duval","{""12031"": 100}","Duval","12031","FALSE","FALSE","America/New_York"
"32216","30.27891","-81.58305","Jacksonville","FL","Florida","TRUE","","39762","1211.3","12031","Duval","{""12031"": 100}","Duval","12031","FALSE","FALSE","America/New_York"
"32217","30.2394","-81.62722","Jacksonville","FL","Florida","TRUE","","20303","1458.3","12031","Duval","{""12031"": 100}","Duval","12031","FALSE","FALSE","America/New_York"
"32218","30.48673","-81.66959","Jacksonville","FL","Florida","TRUE","","68534","273.8","12031","Duval","{""12031"": 100}","Duval","12031","FALSE","FALSE","America/New_York"
"32219","30.41815","-81.81367","Jacksonville","FL","Florida","TRUE","","14169","76.5","12031","Duval","{""12031"": 100}","Duval","12031","FALSE","FALSE","America/New_York"
"32220","30.33693","-81.85335","Jacksonville","FL","Florida","TRUE","","12020","120.3","12031","Duval","{""12031"": 100}","Duval","12031","FALSE","FALSE","America/New_York"
"32221","30.26043","-81.86764","Jacksonville","FL","Florida","TRUE","","29346","238.7","12031","Duval","{""12031"": 100}","Duval","12031","FALSE","FALSE","America/New_York"
"32222","30.21651","-81.8293","Jacksonville","FL","Florida","TRUE","","14879","504.2","12031","Duval","{""12031"": 100}","Duval","12031","FALSE","FALSE","America/New_York"
"32223","30.1549","-81.64821","Jacksonville","FL","Florida","TRUE","","25824","866.8","12031","Duval","{""12031"": 100}","Duval","12031","FALSE","FALSE","America/New_York"
"32224","30.26815","-81.4642","Jacksonville","FL","Florida","TRUE","","41366","765.7","12031","Duval","{""12031"": 91.7, ""12109"": 8.3}","Duval|St. Johns","12031|12109","FALSE","FALSE","America/New_York"
"32225","30.35768","-81.50592","Jacksonville","FL","Florida","TRUE","","55401","813.1","12031","Duval","{""12031"": 100}","Duval","12031","FALSE","FALSE","America/New_York"
"32226","30.46444","-81.50999","Jacksonville","FL","Florida","TRUE","","18097","81.5","12031","Duval","{""12031"": 100}","Duval","12031","FALSE","FALSE","America/New_York"
"32227","30.38792","-81.40571","Jacksonville","FL","Florida","TRUE","","3510","1225.9","12031","Duval","{""12031"": 100}","Duval","12031","FALSE","FALSE","America/New_York"
"32228","30.39158","-81.40022","Jacksonville","FL","Florida","TRUE","","412","1229.1","12031","Duval","{""12031"": 100}","Duval","12031","FALSE","FALSE","America/New_York"
"32233","30.35943","-81.42098","Atlantic Beach","FL","Florida","TRUE","","24489","926.6","12031","Duval","{""12031"": 100}","Duval","12031","FALSE","FALSE","America/New_York"
"32234","30.20784","-82.01096","Jacksonville","FL","Florida","TRUE","","7780","19.7","12031","Duval","{""12031"": 45.8, ""12019"": 28.87, ""12003"": 20.97, ""12089"": 4.36}","Duval|Clay|Baker|Nassau","12031|12019|12003|12089","FALSE","FALSE","America/New_York"
"32244","30.2171","-81.75384","Jacksonville","FL","Florida","TRUE","","63709","1043.5","12031","Duval","{""12031"": 100}","Duval","12031","FALSE","FALSE","America/New_York"
"32246","30.29422","-81.51782","Jacksonville","FL","Florida","TRUE","","56222","1136.5","12031","Duval","{""12031"": 100}","Duval","12031","FALSE","FALSE","America/New_York"
"32250","30.27846","-81.41035","Jacksonville Beach","FL","Florida","TRUE","","28859","1244.2","12031","Duval","{""12031"": 100}","Duval","12031","FALSE","FALSE","America/New_York"
"32254","30.34164","-81.73549","Jacksonville","FL","Florida","TRUE","","13798","429.5","12031","Duval","{""12031"": 100}","Duval","12031","FALSE","FALSE","America/New_York"
"32256","30.1929","-81.50309","Jacksonville","FL","Florida","TRUE","","48988","308.2","12031","Duval","{""12031"": 100}","Duval","12031","FALSE","FALSE","America/New_York"
"32257","30.19515","-81.6123","Jacksonville","FL","Florida","TRUE","","41487","1307.4","12031","Duval","{""12031"": 100}","Duval","12031","FALSE","FALSE","America/New_York"
"32258","30.13874","-81.54941","Jacksonville","FL","Florida","TRUE","","41004","888.5","12031","Duval","{""12031"": 100}","Duval","12031","FALSE","FALSE","America/New_York"
"32259","30.07109","-81.6029","Saint Johns","FL","Florida","TRUE","","62354","425.7","12109","St. Johns","{""12109"": 98.86, ""12031"": 1.14}","St. Johns|Duval","12109|12031","FALSE","FALSE","America/New_York"
"32266","30.31648","-81.41177","Neptune Beach","FL","Florida","TRUE","","6880","1136.6","12031","Duval","{""12031"": 100}","Duval","12031","FALSE","FALSE","America/New_York"
"32277","30.3728","-81.59465","Jacksonville","FL","Florida","TRUE","","33948","1831.0","12031","Duval","{""12031"": 100}","Duval","12031","FALSE","FALSE","America/New_York"
"32301","30.42701","-84.25799","Tallahassee","FL","Florida","TRUE","","32425","1227.0","12073","Leon","{""12073"": 100}","Leon","12073","FALSE","FALSE","America/New_York"
"32303","30.51237","-84.34386","Tallahassee","FL","Florida","TRUE","","50598","561.0","12073","Leon","{""12073"": 100}","Leon","12073","FALSE","FALSE","America/New_York"
"32304","30.45346","-84.35314","Tallahassee","FL","Florida","TRUE","","45853","1166.6","12073","Leon","{""12073"": 100}","Leon","12073","FALSE","FALSE","America/New_York"
"32305","30.3337","-84.26977","Tallahassee","FL","Florida","TRUE","","20815","83.7","12073","Leon","{""12073"": 100}","Leon","12073","FALSE","FALSE","America/New_York"
"32306","30.44227","-84.29455","Tallahassee","FL","Florida","TRUE","","1827","5823.7","12073","Leon","{""12073"": 100}","Leon","12073","FALSE","FALSE","America/New_York"
"32307","30.42173","-84.28686","Tallahassee","FL","Florida","TRUE","","1758","1610.5","12073","Leon","{""12073"": 100}","Leon","12073","FALSE","FALSE","America/New_York"
"32308","30.4781","-84.21968","Tallahassee","FL","Florida","TRUE","","22415","547.5","12073","Leon","{""12073"": 100}","Leon","12073","FALSE","FALSE","America/New_York"
"32309","30.57174","-84.10128","Tallahassee","FL","Florida","TRUE","","33505","106.0","12073","Leon","{""12073"": 100}","Leon","12073","FALSE","FALSE","America/New_York"
"32310","30.39924","-84.50694","Tallahassee","FL","Florida","TRUE","","14090","59.2","12073","Leon","{""12073"": 100}","Leon","12073","FALSE","FALSE","America/New_York"
"32311","30.39647","-84.16843","Tallahassee","FL","Florida","TRUE","","21231","145.1","12073","Leon","{""12073"": 100}","Leon","12073","FALSE","FALSE","America/New_York"
"32312","30.60421","-84.23996","Tallahassee","FL","Florida","TRUE","","31956","132.1","12073","Leon","{""12073"": 100}","Leon","12073","FALSE","FALSE","America/New_York"
"32313","30.44168","-84.30287","Tallahassee","FL","Florida","TRUE","","0","0.0","12073","Leon","{""12073"": 100}","Leon","12073","FALSE","FALSE","America/New_York"
"32317","30.46746","-84.11442","Tallahassee","FL","Florida","TRUE","","14492","157.4","12073","Leon","{""12073"": 100}","Leon","12073","FALSE","FALSE","America/New_York"
"32320","29.74232","-85.06938","Apalachicola","FL","Florida","TRUE","","4010","48.4","12037","Franklin","{""12037"": 100}","Franklin","12037","FALSE","FALSE","America/New_York"
"32321","30.26196","-84.9891","Bristol","FL","Florida","TRUE","","6443","6.7","12077","Liberty","{""12077"": 97.72, ""12037"": 2.28}","Liberty|Franklin","12077|12037","FALSE","FALSE","America/New_York"
"32322","29.89948","-84.62327","Carrabelle","FL","Florida","TRUE","","3824","19.6","12037","Franklin","{""12037"": 100}","Franklin","12037","FALSE","FALSE","America/New_York"
"32323","29.89185","-84.6122","Lanark Village","FL","Florida","TRUE","","104","5.5","12037","Franklin","{""12037"": 100}","Franklin","12037","FALSE","FALSE","America/New_York"
"32324","30.65635","-84.79126","Chattahoochee","FL","Florida","TRUE","","5039","28.9","12039","Gadsden","{""12039"": 100}","Gadsden","12039","FALSE","FALSE","America/New_York"
"32327","30.18705","-84.30472","Crawfordville","FL","Florida","TRUE","","29946","49.1","12129","Wakulla","{""12129"": 100}","Wakulla","12129","FALSE","FALSE","America/New_York"
"32328","29.8463","-84.90991","Eastpoint","FL","Florida","TRUE","","3889","17.5","12037","Franklin","{""12037"": 100}","Franklin","12037","FALSE","FALSE","America/New_York"
"32330","30.57859","-84.74799","Greensboro","FL","Florida","TRUE","","779","83.5","12039","Gadsden","{""12039"": 100}","Gadsden","12039","FALSE","FALSE","America/New_York"
"32331","30.45851","-83.6294","Greenville","FL","Florida","TRUE","","4775","5.5","12079","Madison","{""12079"": 73.43, ""12123"": 13.77, ""12065"": 12.8}","Madison|Taylor|Jefferson","12079|12123|12065","FALSE","FALSE","America/New_York"
"32332","30.61168","-84.6657","Gretna","FL","Florida","TRUE","","1178","130.1","12039","Gadsden","{""12039"": 100}","Gadsden","12039","FALSE","FALSE","America/New_York"
"32333","30.60677","-84.41249","Havana","FL","Florida","TRUE","","11695","42.8","12039","Gadsden","{""12039"": 100}","Gadsden","12039","FALSE","FALSE","America/New_York"
"32334","30.2612","-84.75835","Hosford","FL","Florida","TRUE","","1494","2.6","12077","Liberty","{""12077"": 100}","Liberty","12077","FALSE","FALSE","America/New_York"
"32336","30.26371","-83.86319","Lamont","FL","Florida","TRUE","","1553","2.7","12123","Taylor","{""12123"": 47.44, ""12065"": 40.28, ""12079"": 12.27}","Taylor|Jefferson|Madison","12123|12065|12079","FALSE","FALSE","America/New_York"
"32337","30.48307","-84.02104","Lloyd","FL","Florida","TRUE","","48","122.4","12065","Jefferson","{""12065"": 100}","Jefferson","12065","FALSE","FALSE","America/New_York"
"32340","30.45651","-83.42667","Madison","FL","Florida","TRUE","","10456","19.4","12079","Madison","{""12079"": 100}","Madison","12079","FALSE","FALSE","America/New_York"
"32343","30.48515","-84.47652","Midway","FL","Florida","TRUE","","3416","49.2","12039","Gadsden","{""12039"": 100}","Gadsden","12039","FALSE","FALSE","America/New_York"
"32344","30.44645","-83.91902","Monticello","FL","Florida","TRUE","","12151","10.6","12065","Jefferson","{""12065"": 100}","Jefferson","12065","FALSE","FALSE","America/New_York"
"32346","29.97919","-84.38387","Panacea","FL","Florida","TRUE","","2049","27.9","12129","Wakulla","{""12129"": 60.54, ""12037"": 39.46}","Wakulla|Franklin","12129|12037","FALSE","FALSE","America/New_York"
"32347","30.14416","-83.64268","Perry","FL","Florida","TRUE","","7072","19.8","12123","Taylor","{""12123"": 100}","Taylor","12123","FALSE","FALSE","America/New_York"
"32348","29.94808","-83.56762","Perry","FL","Florida","TRUE","","13032","15.6","12123","Taylor","{""12123"": 100}","Taylor","12123","FALSE","FALSE","America/New_York"
"32350","30.58662","-83.32242","Pinetta","FL","Florida","TRUE","","1421","10.7","12079","Madison","{""12079"": 100}","Madison","12079","FALSE","FALSE","America/New_York"
"32351","30.52358","-84.68362","Quincy","FL","Florida","TRUE","","17508","31.7","12039","Gadsden","{""12039"": 100}","Gadsden","12039","FALSE","FALSE","America/New_York"
"32352","30.6499","-84.58535","Quincy","FL","Florida","TRUE","","4618","18.5","12039","Gadsden","{""12039"": 100}","Gadsden","12039","FALSE","FALSE","America/New_York"
"32355","30.1695","-84.21002","Saint Marks","FL","Florida","TRUE","","298","41.4","12129","Wakulla","{""12129"": 100}","Wakulla","12129","FALSE","FALSE","America/New_York"
"32356","29.85387","-83.40018","Salem","FL","Florida","TRUE","","0","0.0","12123","Taylor","{""12123"": 100}","Taylor","12123","FALSE","FALSE","America/New_York"
"32358","30.09535","-84.54468","Sopchoppy","FL","Florida","TRUE","","1256","2.7","12129","Wakulla","{""12129"": 84.78, ""12037"": 15.22}","Wakulla|Franklin","12129|12037","FALSE","FALSE","America/New_York"
"32359","29.66181","-83.37047","Steinhatchee","FL","Florida","TRUE","","958","2.0","12029","Dixie","{""12029"": 61.1, ""12123"": 38.9}","Dixie|Taylor","12029|12123","FALSE","FALSE","America/New_York"
"32360","30.36506","-84.81238","Telogia","FL","Florida","TRUE","","50","60.1","12077","Liberty","{""12077"": 100}","Liberty","12077","FALSE","FALSE","America/New_York"
"32361","30.35765","-83.98865","Wacissa","FL","Florida","TRUE","","430","72.0","12065","Jefferson","{""12065"": 100}","Jefferson","12065","FALSE","FALSE","America/New_York"
"32399","30.40162","-84.24426","Tallahassee","FL","Florida","TRUE","","0","0.0","12073","Leon","{""12073"": 100}","Leon","12073","FALSE","FALSE","America/New_York"
"32401","30.14477","-85.67448","Panama City","FL","Florida","TRUE","","19208","593.6","12005","Bay","{""12005"": 100}","Bay","12005","FALSE","FALSE","America/Chicago"
"32403","30.05337","-85.55679","Panama City","FL","Florida","TRUE","","1416","12.4","12005","Bay","{""12005"": 100}","Bay","12005","FALSE","FALSE","America/Chicago"
"32404","30.19075","-85.51122","Panama City","FL","Florida","TRUE","","39832","113.9","12005","Bay","{""12005"": 100}","Bay","12005","FALSE","FALSE","America/Chicago"
"32405","30.20002","-85.66869","Panama City","FL","Florida","TRUE","","29999","616.8","12005","Bay","{""12005"": 100}","Bay","12005","FALSE","FALSE","America/Chicago"
"32407","30.20276","-85.7912","Panama City Beach","FL","Florida","TRUE","","14355","371.6","12005","Bay","{""12005"": 100}","Bay","12005","FALSE","FALSE","America/Chicago"
"32408","30.1593","-85.75324","Panama City","FL","Florida","TRUE","","19821","892.7","12005","Bay","{""12005"": 100}","Bay","12005","FALSE","FALSE","America/Chicago"
"32409","30.33447","-85.70516","Panama City","FL","Florida","TRUE","","10004","30.5","12005","Bay","{""12005"": 100}","Bay","12005","FALSE","FALSE","America/Chicago"
"32410","29.94805","-85.41812","Mexico Beach","FL","Florida","TRUE","","517","127.9","12005","Bay","{""12005"": 100}","Bay","12005","FALSE","FALSE","America/Chicago"
"32413","30.30975","-85.88745","Panama City Beach","FL","Florida","TRUE","","14472","51.6","12005","Bay","{""12005"": 99.58, ""12131"": 0.42}","Bay|Walton","12005|12131","FALSE","FALSE","America/Chicago"
"32420","30.63637","-85.38123","Alford","FL","Florida","TRUE","","2275","16.6","12063","Jackson","{""12063"": 97.61, ""12133"": 2.39}","Jackson|Washington","12063|12133","FALSE","FALSE","America/Chicago"
"32421","30.52973","-85.19308","Altha","FL","Florida","TRUE","","4197","12.9","12013","Calhoun","{""12013"": 100}","Calhoun","12013","FALSE","FALSE","America/Chicago"
"32423","30.94496","-85.06073","Bascom","FL","Florida","TRUE","","974","5.6","12063","Jackson","{""12063"": 100}","Jackson","12063","FALSE","FALSE","America/Chicago"
"32424","30.38901","-85.08232","Blountstown","FL","Florida","TRUE","","7208","17.5","12013","Calhoun","{""12013"": 100}","Calhoun","12013","FALSE","FALSE","America/Chicago"
"32425","30.85538","-85.72225","Bonifay","FL","Florida","TRUE","","14135","20.6","12059","Holmes","{""12059"": 85.81, ""12133"": 14.19}","Holmes|Washington","12059|12133","FALSE","FALSE","America/Chicago"
"32426","30.94861","-85.36714","Campbellton","FL","Florida","TRUE","","802","6.6","12063","Jackson","{""12063"": 100}","Jackson","12063","FALSE","FALSE","America/Chicago"
"32427","30.71587","-85.79311","Caryville","FL","Florida","TRUE","","1088","9.3","12133","Washington","{""12133"": 100}","Washington","12133","FALSE","FALSE","America/Chicago"
"32428","30.61797","-85.57154","Chipley","FL","Florida","TRUE","","17578","23.7","12133","Washington","{""12133"": 97.48, ""12005"": 1.67, ""12063"": 0.85}","Washington|Bay|Jackson","12133|12005|12063","FALSE","FALSE","America/Chicago"
"32430","30.41872","-85.22562","Clarksville","FL","Florida","TRUE","","837","3.9","12013","Calhoun","{""12013"": 100}","Calhoun","12013","FALSE","FALSE","America/Chicago"
"32431","30.78609","-85.40982","Cottondale","FL","Florida","TRUE","","4412","16.1","12063","Jackson","{""12063"": 82.98, ""12133"": 17.02}","Jackson|Washington","12063|12133","FALSE","FALSE","America/Chicago"
"32432","30.71415","-85.07727","Cypress","FL","Florida","TRUE","","0","0.0","12063","Jackson","{""12063"": 100}","Jackson","12063","FALSE","FALSE","America/Chicago"
"32433","30.84848","-86.19822","Defuniak Springs","FL","Florida","TRUE","","19500","30.0","12131","Walton","{""12131"": 100}","Walton","12131","FALSE","FALSE","America/Chicago"
"32435","30.65367","-86.11597","Defuniak Springs","FL","Florida","TRUE","","6638","18.7","12131","Walton","{""12131"": 100}","Walton","12131","FALSE","FALSE","America/Chicago"
"32437","30.43315","-85.90694","Ebro","FL","Florida","TRUE","","601","6.7","12133","Washington","{""12133"": 77.53, ""12005"": 22.47}","Washington|Bay","12133|12005","FALSE","FALSE","America/Chicago"
"32438","30.51251","-85.41744","Fountain","FL","Florida","TRUE","","4920","33.5","12005","Bay","{""12005"": 77.1, ""12013"": 17.09, ""12063"": 4.6, ""12133"": 1.21}","Bay|Calhoun|Jackson|Washington","12005|12013|12063|12133","FALSE","FALSE","America/Chicago"
"32439","30.49082","-86.12933","Freeport","FL","Florida","TRUE","","13306","53.2","12131","Walton","{""12131"": 100}","Walton","12131","FALSE","FALSE","America/Chicago"
"32440","30.92025","-85.52588","Graceville","FL","Florida","TRUE","","7731","27.8","12063","Jackson","{""12063"": 69.01, ""12059"": 30.99}","Jackson|Holmes","12063|12059","FALSE","FALSE","America/Chicago"
"32442","30.68531","-85.00829","Grand Ridge","FL","Florida","TRUE","","3568","14.6","12063","Jackson","{""12063"": 89.76, ""12013"": 10.24}","Jackson|Calhoun","12063|12013","FALSE","FALSE","America/Chicago"
"32443","30.86586","-85.11695","Greenwood","FL","Florida","TRUE","","3082","21.0","12063","Jackson","{""12063"": 100}","Jackson","12063","FALSE","FALSE","America/Chicago"
"32444","30.23854","-85.65185","Lynn Haven","FL","Florida","TRUE","","21148","832.1","12005","Bay","{""12005"": 100}","Bay","12005","FALSE","FALSE","America/Chicago"
"32445","30.96924","-85.19504","Malone","FL","Florida","TRUE","","2483","37.6","12063","Jackson","{""12063"": 100}","Jackson","12063","FALSE","FALSE","America/Chicago"
"32446","30.84493","-85.23017","Marianna","FL","Florida","TRUE","","11161","26.1","12063","Jackson","{""12063"": 100}","Jackson","12063","FALSE","FALSE","America/Chicago"
"32448","30.66663","-85.21616","Marianna","FL","Florida","TRUE","","7524","16.1","12063","Jackson","{""12063"": 99.33, ""12013"": 0.67}","Jackson|Calhoun","12063|12013","FALSE","FALSE","America/Chicago"
"32449","30.27611","-85.20607","Wewahitchka","FL","Florida","TRUE","","998","8.5","12013","Calhoun","{""12013"": 100}","Calhoun","12013","FALSE","FALSE","America/Chicago"
"32455","30.63831","-85.96395","Ponce De Leon","FL","Florida","TRUE","","3953","6.8","12131","Walton","{""12131"": 67.84, ""12059"": 32.16}","Walton|Holmes","12131|12059","FALSE","FALSE","America/Chicago"
"32456","29.84586","-85.3188","Port Saint Joe","FL","Florida","TRUE","","8088","29.4","12045","Gulf","{""12045"": 72.67, ""12005"": 19.81, ""12037"": 7.52}","Gulf|Bay|Franklin","12045|12005|12037","FALSE","FALSE","America/New_York"
"32459","30.36527","-86.18429","Santa Rosa Beach","FL","Florida","TRUE","","18544","131.3","12131","Walton","{""12131"": 100}","Walton","12131","FALSE","FALSE","America/Chicago"
"32460","30.77565","-84.94949","Sneads","FL","Florida","TRUE","","5891","31.2","12063","Jackson","{""12063"": 100}","Jackson","12063","FALSE","FALSE","America/Chicago"
"32461","30.30905","-86.03508","Inlet Beach","FL","Florida","TRUE","","2158","56.0","12131","Walton","{""12131"": 100}","Walton","12131","FALSE","FALSE","America/Chicago"
"32462","30.55753","-85.83241","Vernon","FL","Florida","TRUE","","3691","9.3","12133","Washington","{""12133"": 81.89, ""12131"": 16.68, ""12005"": 1.43}","Washington|Walton|Bay","12133|12131|12005","FALSE","FALSE","America/Chicago"
"32463","30.6279","-85.58728","Wausau","FL","Florida","TRUE","","191","164.0","12133","Washington","{""12133"": 100}","Washington","12133","FALSE","FALSE","America/Chicago"
"32464","30.89687","-85.95592","Westville","FL","Florida","TRUE","","3729","8.2","12059","Holmes","{""12059"": 81.84, ""12131"": 18.16}","Holmes|Walton","12059|12131","FALSE","FALSE","America/Chicago"
"32465","30.00239","-85.18615","Wewahitchka","FL","Florida","TRUE","","7873","9.6","12045","Gulf","{""12045"": 100}","Gulf","12045","FALSE","FALSE","America/Chicago"
"32466","30.38618","-85.464","Youngstown","FL","Florida","TRUE","","5718","12.8","12005","Bay","{""12005"": 65.66, ""12013"": 24.08, ""12133"": 10.26}","Bay|Calhoun|Washington","12005|12013|12133","FALSE","FALSE","America/Chicago"
"32501","30.42826","-87.22277","Pensacola","FL","Florida","TRUE","","10985","1150.3","12033","Escambia","{""12033"": 100}","Escambia","12033","FALSE","FALSE","America/Chicago"
"32502","30.40928","-87.22636","Pensacola","FL","Florida","TRUE","","3799","547.1","12033","Escambia","{""12033"": 100}","Escambia","12033","FALSE","FALSE","America/Chicago"
"32503","30.46022","-87.21372","Pensacola","FL","Florida","TRUE","","32950","1008.8","12033","Escambia","{""12033"": 100}","Escambia","12033","FALSE","FALSE","America/Chicago"
"32504","30.48495","-87.19093","Pensacola","FL","Florida","TRUE","","21687","798.3","12033","Escambia","{""12033"": 100}","Escambia","12033","FALSE","FALSE","America/Chicago"
"32505","30.45575","-87.26082","Pensacola","FL","Florida","TRUE","","27661","824.4","12033","Escambia","{""12033"": 100}","Escambia","12033","FALSE","FALSE","America/Chicago"
"32506","30.39152","-87.37167","Pensacola","FL","Florida","TRUE","","37202","469.4","12033","Escambia","{""12033"": 100}","Escambia","12033","FALSE","FALSE","America/Chicago"
"32507","30.34035","-87.37706","Pensacola","FL","Florida","TRUE","","33615","465.6","12033","Escambia","{""12033"": 100}","Escambia","12033","FALSE","FALSE","America/Chicago"
"32508","30.35614","-87.29866","Pensacola","FL","Florida","TRUE","","5423","290.2","12033","Escambia","{""12033"": 100}","Escambia","12033","FALSE","FALSE","America/Chicago"
"32509","30.47096","-87.34115","Pensacola","FL","Florida","TRUE","","566","170.1","12033","Escambia","{""12033"": 100}","Escambia","12033","FALSE","FALSE","America/Chicago"
"32511","30.4064","-87.29129","Pensacola","FL","Florida","TRUE","","1292","1746.8","12033","Escambia","{""12033"": 100}","Escambia","12033","FALSE","FALSE","America/Chicago"
"32512","30.399","-87.29925","Pensacola","FL","Florida","TRUE","","0","0.0","12033","Escambia","{""12033"": 100}","Escambia","12033","FALSE","FALSE","America/Chicago"
"32514","30.53209","-87.22235","Pensacola","FL","Florida","TRUE","","42059","819.4","12033","Escambia","{""12033"": 100}","Escambia","12033","FALSE","FALSE","America/Chicago"
"32526","30.49824","-87.36543","Pensacola","FL","Florida","TRUE","","39318","259.9","12033","Escambia","{""12033"": 100}","Escambia","12033","FALSE","FALSE","America/Chicago"
"32530","30.5926","-87.02344","Bagdad","FL","Florida","TRUE","","92","44.6","12113","Santa Rosa","{""12113"": 100}","Santa Rosa","12113","FALSE","FALSE","America/Chicago"
"32531","30.88513","-86.696","Baker","FL","Florida","TRUE","","6452","10.9","12091","Okaloosa","{""12091"": 87.95, ""12113"": 12.05}","Okaloosa|Santa Rosa","12091|12113","FALSE","FALSE","America/Chicago"
"32533","30.61329","-87.32561","Cantonment","FL","Florida","TRUE","","29568","147.9","12033","Escambia","{""12033"": 100}","Escambia","12033","FALSE","FALSE","America/Chicago"
"32534","30.53276","-87.28374","Pensacola","FL","Florida","TRUE","","15931","622.1","12033","Escambia","{""12033"": 100}","Escambia","12033","FALSE","FALSE","America/Chicago"
"32535","30.96515","-87.34673","Century","FL","Florida","TRUE","","5689","31.2","12033","Escambia","{""12033"": 100}","Escambia","12033","FALSE","FALSE","America/Chicago"
"32536","30.75399","-86.59491","Crestview","FL","Florida","TRUE","","24643","223.9","12091","Okaloosa","{""12091"": 100}","Okaloosa","12091","FALSE","FALSE","America/Chicago"
"32539","30.78128","-86.46646","Crestview","FL","Florida","TRUE","","30924","93.3","12091","Okaloosa","{""12091"": 88.79, ""12131"": 11.21}","Okaloosa|Walton","12091|12131","FALSE","FALSE","America/Chicago"
"32541","30.39666","-86.47486","Destin","FL","Florida","TRUE","","20559","631.9","12091","Okaloosa","{""12091"": 100}","Okaloosa","12091","FALSE","FALSE","America/Chicago"
"32542","30.58743","-86.59296","Eglin Afb","FL","Florida","TRUE","","4244","19.5","12091","Okaloosa","{""12091"": 100}","Okaloosa","12091","FALSE","FALSE","America/Chicago"
"32544","30.42801","-86.70441","Hurlburt Field","FL","Florida","TRUE","","2169","101.8","12091","Okaloosa","{""12091"": 100}","Okaloosa","12091","FALSE","FALSE","America/Chicago"
"32547","30.46649","-86.65513","Fort Walton Beach","FL","Florida","TRUE","","32556","433.6","12091","Okaloosa","{""12091"": 100}","Okaloosa","12091","FALSE","FALSE","America/Chicago"
"32548","30.4094","-86.6494","Fort Walton Beach","FL","Florida","TRUE","","22938","733.0","12091","Okaloosa","{""12091"": 100}","Okaloosa","12091","FALSE","FALSE","America/Chicago"
"32550","30.38541","-86.34438","Miramar Beach","FL","Florida","TRUE","","8648","477.8","12131","Walton","{""12131"": 100}","Walton","12131","FALSE","FALSE","America/Chicago"
"32561","30.35165","-87.10906","Gulf Breeze","FL","Florida","TRUE","","9610","308.2","12033","Escambia","{""12033"": 77.78, ""12113"": 22.22}","Escambia|Santa Rosa","12033|12113","FALSE","FALSE","America/Chicago"
"32563","30.38782","-87.0331","Gulf Breeze","FL","Florida","TRUE","","28186","654.2","12113","Santa Rosa","{""12113"": 100}","Santa Rosa","12113","FALSE","FALSE","America/Chicago"
"32564","30.72755","-86.7875","Holt","FL","Florida","TRUE","","2577","9.7","12113","Santa Rosa","{""12113"": 50.15, ""12091"": 49.85}","Santa Rosa|Okaloosa","12113|12091","FALSE","FALSE","America/Chicago"
"32565","30.89241","-87.14071","Jay","FL","Florida","TRUE","","5192","8.7","12113","Santa Rosa","{""12113"": 100}","Santa Rosa","12113","FALSE","FALSE","America/Chicago"
"32566","30.4253","-86.8843","Navarre","FL","Florida","TRUE","","42753","421.4","12113","Santa Rosa","{""12113"": 100}","Santa Rosa","12113","FALSE","FALSE","America/Chicago"
"32567","30.92207","-86.43396","Laurel Hill","FL","Florida","TRUE","","4554","12.1","12091","Okaloosa","{""12091"": 65.23, ""12131"": 34.77}","Okaloosa|Walton","12091|12131","FALSE","FALSE","America/Chicago"
"32568","30.87085","-87.46792","McDavid","FL","Florida","TRUE","","3269","6.1","12033","Escambia","{""12033"": 100}","Escambia","12033","FALSE","FALSE","America/Chicago"
"32569","30.40666","-86.72962","Mary Esther","FL","Florida","TRUE","","12184","1132.6","12091","Okaloosa","{""12091"": 100}","Okaloosa","12091","FALSE","FALSE","America/Chicago"
"32570","30.80022","-86.98158","Milton","FL","Florida","TRUE","","33099","42.4","12113","Santa Rosa","{""12113"": 100}","Santa Rosa","12113","FALSE","FALSE","America/Chicago"
"32571","30.67162","-87.20004","Milton","FL","Florida","TRUE","","37727","129.3","12113","Santa Rosa","{""12113"": 100}","Santa Rosa","12113","FALSE","FALSE","America/Chicago"
"32577","30.73453","-87.37471","Molino","FL","Florida","TRUE","","4453","24.9","12033","Escambia","{""12033"": 100}","Escambia","12033","FALSE","FALSE","America/Chicago"
"32578","30.50871","-86.4535","Niceville","FL","Florida","TRUE","","34015","566.8","12091","Okaloosa","{""12091"": 97.72, ""12131"": 2.28}","Okaloosa|Walton","12091|12131","FALSE","FALSE","America/Chicago"
"32579","30.44553","-86.57401","Shalimar","FL","Florida","TRUE","","10452","1157.1","12091","Okaloosa","{""12091"": 100}","Okaloosa","12091","FALSE","FALSE","America/Chicago"
"32580","30.50337","-86.50942","Valparaiso","FL","Florida","TRUE","","3860","192.2","12091","Okaloosa","{""12091"": 100}","Okaloosa","12091","FALSE","FALSE","America/Chicago"
"32583","30.60084","-86.97513","Milton","FL","Florida","TRUE","","30379","93.8","12113","Santa Rosa","{""12113"": 100}","Santa Rosa","12113","FALSE","FALSE","America/Chicago"
"32601","29.64886","-82.32506","Gainesville","FL","Florida","TRUE","","21460","1802.2","12001","Alachua","{""12001"": 100}","Alachua","12001","FALSE","FALSE","America/New_York"
"32603","29.65305","-82.35054","Gainesville","FL","Florida","TRUE","","5625","2504.8","12001","Alachua","{""12001"": 100}","Alachua","12001","FALSE","FALSE","America/New_York"
"32605","29.67659","-82.37351","Gainesville","FL","Florida","TRUE","","28058","1103.7","12001","Alachua","{""12001"": 100}","Alachua","12001","FALSE","FALSE","America/New_York"
"32606","29.68169","-82.44391","Gainesville","FL","Florida","TRUE","","23682","594.0","12001","Alachua","{""12001"": 100}","Alachua","12001","FALSE","FALSE","America/New_York"
"32607","29.64524","-82.41923","Gainesville","FL","Florida","TRUE","","30445","934.4","12001","Alachua","{""12001"": 100}","Alachua","12001","FALSE","FALSE","America/New_York"
"32608","29.59271","-82.3935","Gainesville","FL","Florida","TRUE","","51317","445.7","12001","Alachua","{""12001"": 100}","Alachua","12001","FALSE","FALSE","America/New_York"
"32609","29.76296","-82.27978","Gainesville","FL","Florida","TRUE","","19542","64.2","12001","Alachua","{""12001"": 100}","Alachua","12001","FALSE","FALSE","America/New_York"
"32610","29.64077","-82.34326","Gainesville","FL","Florida","TRUE","","42","226.0","12001","Alachua","{""12001"": 100}","Alachua","12001","FALSE","FALSE","America/New_York"
"32612","29.64469","-82.35307","Gainesville","FL","Florida","TRUE","","7152","2936.1","12001","Alachua","{""12001"": 100}","Alachua","12001","FALSE","FALSE","America/New_York"
"32615","29.81706","-82.49065","Alachua","FL","Florida","TRUE","","14933","41.8","12001","Alachua","{""12001"": 100}","Alachua","12001","FALSE","FALSE","America/New_York"
"32616","29.78205","-82.49933","Alachua","FL","Florida","TRUE","","149","251.1","12001","Alachua","{""12001"": 100}","Alachua","12001","FALSE","FALSE","America/New_York"
"32617","29.30659","-82.07553","Anthony","FL","Florida","TRUE","","4090","52.9","12083","Marion","{""12083"": 100}","Marion","12083","FALSE","FALSE","America/New_York"
"32618","29.53789","-82.52295","Archer","FL","Florida","TRUE","","8640","36.3","12001","Alachua","{""12001"": 80.25, ""12075"": 19.75}","Alachua|Levy","12001|12075","FALSE","FALSE","America/New_York"
"32619","29.75661","-82.86668","Bell","FL","Florida","TRUE","","5139","18.0","12041","Gilchrist","{""12041"": 100}","Gilchrist","12041","FALSE","FALSE","America/New_York"
"32621","29.426","-82.62936","Bronson","FL","Florida","TRUE","","4703","24.7","12075","Levy","{""12075"": 100}","Levy","12075","FALSE","FALSE","America/New_York"
"32622","29.89914","-82.31216","Brooker","FL","Florida","TRUE","","1510","8.5","12007","Bradford","{""12007"": 85.64, ""12001"": 14.36}","Bradford|Alachua","12007|12001","FALSE","FALSE","America/New_York"
"32625","29.23005","-82.98331","Cedar Key","FL","Florida","TRUE","","1527","6.3","12075","Levy","{""12075"": 100}","Levy","12075","FALSE","FALSE","America/New_York"
"32626","29.42146","-82.89464","Chiefland","FL","Florida","TRUE","","8950","14.2","12075","Levy","{""12075"": 100}","Levy","12075","FALSE","FALSE","America/New_York"
"32628","29.65471","-83.16247","Cross City","FL","Florida","TRUE","","5262","23.1","12029","Dixie","{""12029"": 100}","Dixie","12029","FALSE","FALSE","America/New_York"
"32631","29.71719","-82.10225","Earleton","FL","Florida","TRUE","","366","30.7","12001","Alachua","{""12001"": 100}","Alachua","12001","FALSE","FALSE","America/New_York"
"32634","29.3646","-82.25419","Fairfield","FL","Florida","TRUE","","18","54.9","12083","Marion","{""12083"": 100}","Marion","12083","FALSE","FALSE","America/New_York"
"32639","29.23092","-82.72007","Gulf Hammock","FL","Florida","TRUE","","248","2.0","12075","Levy","{""12075"": 100}","Levy","12075","FALSE","FALSE","America/New_York"
"32640","29.56889","-82.08021","Hawthorne","FL","Florida","TRUE","","10543","21.7","12001","Alachua","{""12001"": 62.72, ""12107"": 37.28}","Alachua|Putnam","12001|12107","FALSE","FALSE","America/New_York"
"32641","29.62956","-82.22557","Gainesville","FL","Florida","TRUE","","17035","95.8","12001","Alachua","{""12001"": 100}","Alachua","12001","FALSE","FALSE","America/New_York"
"32643","29.81845","-82.64155","High Springs","FL","Florida","TRUE","","12260","42.2","12001","Alachua","{""12001"": 52.23, ""12041"": 35.03, ""12023"": 12.74}","Alachua|Gilchrist|Columbia","12001|12041|12023","FALSE","FALSE","America/New_York"
"32648","29.50515","-83.24498","Horseshoe Beach","FL","Florida","TRUE","","369","1.7","12029","Dixie","{""12029"": 100}","Dixie","12029","FALSE","FALSE","America/New_York"
"32653","29.74506","-82.40546","Gainesville","FL","Florida","TRUE","","15799","158.6","12001","Alachua","{""12001"": 100}","Alachua","12001","FALSE","FALSE","America/New_York"
"32656","29.82533","-81.95287","Keystone Heights","FL","Florida","TRUE","","13900","76.5","12019","Clay","{""12019"": 95.35, ""12007"": 4.65}","Clay|Bradford","12019|12007","FALSE","FALSE","America/New_York"
"32658","29.84817","-82.41214","La Crosse","FL","Florida","TRUE","","446","101.1","12001","Alachua","{""12001"": 100}","Alachua","12001","FALSE","FALSE","America/New_York"
"32664","29.44986","-82.22187","McIntosh","FL","Florida","TRUE","","290","134.5","12083","Marion","{""12083"": 100}","Marion","12083","FALSE","FALSE","America/New_York"
"32666","29.72301","-81.99145","Melrose","FL","Florida","TRUE","","6804","46.2","12107","Putnam","{""12107"": 59.73, ""12001"": 20.37, ""12019"": 14.2, ""12007"": 5.7}","Putnam|Alachua|Clay|Bradford","12107|12001|12019|12007","FALSE","FALSE","America/New_York"
"32667","29.49484","-82.31084","Micanopy","FL","Florida","TRUE","","4399","18.8","12001","Alachua","{""12001"": 57.5, ""12083"": 42.5}","Alachua|Marion","12001|12083","FALSE","FALSE","America/New_York"
"32668","29.26327","-82.50321","Morriston","FL","Florida","TRUE","","5694","16.3","12075","Levy","{""12075"": 81.31, ""12083"": 18.69}","Levy|Marion","12075|12083","FALSE","FALSE","America/New_York"
"32669","29.63666","-82.60015","Newberry","FL","Florida","TRUE","","15125","59.2","12001","Alachua","{""12001"": 83.05, ""12041"": 12.11, ""12075"": 4.84}","Alachua|Gilchrist|Levy","12001|12041|12075","FALSE","FALSE","America/New_York"
"32680","29.58144","-83.08041","Old Town","FL","Florida","TRUE","","10682","12.0","12029","Dixie","{""12029"": 100}","Dixie","12029","FALSE","FALSE","America/New_York"
"32681","29.42694","-82.21527","Orange Lake","FL","Florida","TRUE","","255","674.6","12083","Marion","{""12083"": 100}","Marion","12083","FALSE","FALSE","America/New_York"
"32683","29.29519","-82.76743","Otter Creek","FL","Florida","TRUE","","281","6.8","12075","Levy","{""12075"": 100}","Levy","12075","FALSE","FALSE","America/New_York"
"32686","29.36214","-82.26236","Reddick","FL","Florida","TRUE","","5232","27.9","12083","Marion","{""12083"": 100}","Marion","12083","FALSE","FALSE","America/New_York"
"32692","29.32519","-83.15995","Suwannee","FL","Florida","TRUE","","40","8.4","12029","Dixie","{""12029"": 100}","Dixie","12029","FALSE","FALSE","America/New_York"
"32693","29.62814","-82.79446","Trenton","FL","Florida","TRUE","","10872","20.9","12041","Gilchrist","{""12041"": 75.14, ""12075"": 24.86}","Gilchrist|Levy","12041|12075","FALSE","FALSE","America/New_York"
"32694","29.79086","-82.15367","Waldo","FL","Florida","TRUE","","1753","23.1","12001","Alachua","{""12001"": 100}","Alachua","12001","FALSE","FALSE","America/New_York"
"32696","29.39544","-82.46728","Williston","FL","Florida","TRUE","","13955","37.8","12075","Levy","{""12075"": 79.57, ""12083"": 20.43}","Levy|Marion","12075|12083","FALSE","FALSE","America/New_York"
"32697","29.92831","-82.42538","Worthington Springs","FL","Florida","TRUE","","147","205.4","12125","Union","{""12125"": 100}","Union","12125","FALSE","FALSE","America/New_York"
"32701","28.66509","-81.36916","Altamonte Springs","FL","Florida","TRUE","","24931","1708.7","12117","Seminole","{""12117"": 100}","Seminole","12117","FALSE","FALSE","America/New_York"
"32702","29.04642","-81.6259","Altoona","FL","Florida","TRUE","","2576","16.8","12069","Lake","{""12069"": 77.12, ""12083"": 22.88}","Lake|Marion","12069|12083","FALSE","FALSE","America/New_York"
"32703","28.65579","-81.52139","Apopka","FL","Florida","TRUE","","54551","655.9","12095","Orange","{""12095"": 90.8, ""12117"": 9.2}","Orange|Seminole","12095|12117","FALSE","FALSE","America/New_York"
"32707","28.66255","-81.31403","Casselberry","FL","Florida","TRUE","","37495","1505.3","12117","Seminole","{""12117"": 100}","Seminole","12117","FALSE","FALSE","America/New_York"
"32708","28.68751","-81.27086","Winter Springs","FL","Florida","TRUE","","48218","1006.3","12117","Seminole","{""12117"": 100}","Seminole","12117","FALSE","FALSE","America/New_York"
"32709","28.49266","-80.98801","Christmas","FL","Florida","TRUE","","1310","3.4","12095","Orange","{""12095"": 100}","Orange","12095","FALSE","FALSE","America/New_York"
"32712","28.72917","-81.54103","Apopka","FL","Florida","TRUE","","49441","266.8","12095","Orange","{""12095"": 100}","Orange","12095","FALSE","FALSE","America/New_York"
"32713","28.8816","-81.3238","Debary","FL","Florida","TRUE","","22154","448.5","12127","Volusia","{""12127"": 100}","Volusia","12127","FALSE","FALSE","America/New_York"
"32714","28.66237","-81.4115","Altamonte Springs","FL","Florida","TRUE","","37957","1727.0","12117","Seminole","{""12117"": 100}","Seminole","12117","FALSE","FALSE","America/New_York"
"32720","29.01775","-81.37802","Deland","FL","Florida","TRUE","","33239","193.6","12127","Volusia","{""12127"": 55.86, ""12069"": 44.14}","Volusia|Lake","12127|12069","FALSE","FALSE","America/New_York"
"32723","29.03454","-81.30452","Deland","FL","Florida","TRUE","","0","0.0","12127","Volusia","{""12127"": 100}","Volusia","12127","FALSE","FALSE","America/New_York"
"32724","29.0506","-81.23284","Deland","FL","Florida","TRUE","","40157","185.1","12127","Volusia","{""12127"": 100}","Volusia","12127","FALSE","FALSE","America/New_York"
"32725","28.88368","-81.25061","Deltona","FL","Florida","TRUE","","50336","843.1","12127","Volusia","{""12127"": 100}","Volusia","12127","FALSE","FALSE","America/New_York"
"32726","28.8541","-81.68","Eustis","FL","Florida","TRUE","","23236","781.0","12069","Lake","{""12069"": 100}","Lake","12069","FALSE","FALSE","America/New_York"
"32730","28.65242","-81.34301","Casselberry","FL","Florida","TRUE","","6536","2046.4","12117","Seminole","{""12117"": 100}","Seminole","12117","FALSE","FALSE","America/New_York"
"32732","28.74565","-81.10563","Geneva","FL","Florida","TRUE","","5394","37.3","12117","Seminole","{""12117"": 100}","Seminole","12117","FALSE","FALSE","America/New_York"
"32735","28.89099","-81.73718","Grand Island","FL","Florida","TRUE","","5050","488.6","12069","Lake","{""12069"": 100}","Lake","12069","FALSE","FALSE","America/New_York"
"32736","28.89831","-81.49317","Eustis","FL","Florida","TRUE","","11748","41.6","12069","Lake","{""12069"": 100}","Lake","12069","FALSE","FALSE","America/New_York"
"32738","28.90755","-81.18862","Deltona","FL","Florida","TRUE","","47559","712.5","12127","Volusia","{""12127"": 100}","Volusia","12127","FALSE","FALSE","America/New_York"
"32744","28.98497","-81.21899","Lake Helen","FL","Florida","TRUE","","3487","99.1","12127","Volusia","{""12127"": 100}","Volusia","12127","FALSE","FALSE","America/New_York"
"32746","28.76297","-81.35499","Lake Mary","FL","Florida","TRUE","","45145","827.5","12117","Seminole","{""12117"": 100}","Seminole","12117","FALSE","FALSE","America/New_York"
"32750","28.7074","-81.34955","Longwood","FL","Florida","TRUE","","25189","852.2","12117","Seminole","{""12117"": 100}","Seminole","12117","FALSE","FALSE","America/New_York"
"32751","28.631","-81.36457","Maitland","FL","Florida","TRUE","","22671","1247.1","12095","Orange","{""12095"": 76.68, ""12117"": 23.32}","Orange|Seminole","12095|12117","FALSE","FALSE","America/New_York"
"32754","28.68565","-80.9208","Mims","FL","Florida","TRUE","","12159","34.3","12009","Brevard","{""12009"": 78.48, ""12127"": 21.52}","Brevard|Volusia","12009|12127","FALSE","FALSE","America/New_York"
"32757","28.77954","-81.637","Mount Dora","FL","Florida","TRUE","","29950","327.9","12069","Lake","{""12069"": 67.86, ""12095"": 32.14}","Lake|Orange","12069|12095","FALSE","FALSE","America/New_York"
"32759","28.84004","-80.9034","Oak Hill","FL","Florida","TRUE","","2544","20.2","12127","Volusia","{""12127"": 100}","Volusia","12127","FALSE","FALSE","America/New_York"
"32763","28.94291","-81.30593","Orange City","FL","Florida","TRUE","","23839","440.1","12127","Volusia","{""12127"": 100}","Volusia","12127","FALSE","FALSE","America/New_York"
"32764","28.83883","-81.07239","Osteen","FL","Florida","TRUE","","2687","10.9","12127","Volusia","{""12127"": 100}","Volusia","12127","FALSE","FALSE","America/New_York"
"32765","28.66732","-81.20033","Oviedo","FL","Florida","TRUE","","62675","620.1","12117","Seminole","{""12117"": 100}","Seminole","12117","FALSE","FALSE","America/New_York"
"32766","28.64761","-81.08124","Oviedo","FL","Florida","TRUE","","16523","145.5","12117","Seminole","{""12117"": 100}","Seminole","12117","FALSE","FALSE","America/New_York"
"32767","29.01957","-81.52065","Paisley","FL","Florida","TRUE","","3156","22.2","12069","Lake","{""12069"": 100}","Lake","12069","FALSE","FALSE","America/New_York"
"32768","28.69577","-81.55795","Plymouth","FL","Florida","TRUE","","0","0.0","12095","Orange","{""12095"": 100}","Orange","12095","FALSE","FALSE","America/New_York"
"32771","28.81496","-81.31751","Sanford","FL","Florida","TRUE","","57074","587.7","12117","Seminole","{""12117"": 100}","Seminole","12117","FALSE","FALSE","America/New_York"
"32773","28.75264","-81.24659","Sanford","FL","Florida","TRUE","","31903","446.3","12117","Seminole","{""12117"": 100}","Seminole","12117","FALSE","FALSE","America/New_York"
"32775","28.76704","-80.8767","Scottsmoor","FL","Florida","TRUE","","0","0.0","12009","Brevard","{""12009"": 100}","Brevard","12009","FALSE","FALSE","America/New_York"
"32776","28.81033","-81.4872","Sorrento","FL","Florida","TRUE","","12620","98.3","12069","Lake","{""12069"": 85.09, ""12095"": 14.91}","Lake|Orange","12069|12095","FALSE","FALSE","America/New_York"
"32778","28.77554","-81.72884","Tavares","FL","Florida","TRUE","","23210","352.8","12069","Lake","{""12069"": 100}","Lake","12069","FALSE","FALSE","America/New_York"
"32779","28.71632","-81.41343","Longwood","FL","Florida","TRUE","","28948","592.3","12117","Seminole","{""12117"": 100}","Seminole","12117","FALSE","FALSE","America/New_York"
"32780","28.54672","-80.7841","Titusville","FL","Florida","TRUE","","37301","211.4","12009","Brevard","{""12009"": 100}","Brevard","12009","FALSE","FALSE","America/New_York"
"32784","28.97626","-81.7232","Umatilla","FL","Florida","TRUE","","10929","45.5","12083","Marion","{""12083"": 53.19, ""12069"": 46.81}","Marion|Lake","12083|12069","FALSE","FALSE","America/New_York"
"32789","28.59977","-81.35235","Winter Park","FL","Florida","TRUE","","25801","1276.9","12095","Orange","{""12095"": 100}","Orange","12095","FALSE","FALSE","America/New_York"
"32792","28.61066","-81.29923","Winter Park","FL","Florida","TRUE","","51929","1654.8","12117","Seminole","{""12117"": 51.71, ""12095"": 48.29}","Seminole|Orange","12117|12095","FALSE","FALSE","America/New_York"
"32796","28.62591","-80.84051","Titusville","FL","Florida","TRUE","","20953","561.3","12009","Brevard","{""12009"": 100}","Brevard","12009","FALSE","FALSE","America/New_York"
"32798","28.72647","-81.58648","Zellwood","FL","Florida","TRUE","","2235","288.3","12095","Orange","{""12095"": 100}","Orange","12095","FALSE","FALSE","America/New_York"
"32801","28.542","-81.37343","Orlando","FL","Florida","TRUE","","13589","2374.2","12095","Orange","{""12095"": 100}","Orange","12095","FALSE","FALSE","America/New_York"
"32803","28.55592","-81.34895","Orlando","FL","Florida","TRUE","","22136","1255.6","12095","Orange","{""12095"": 100}","Orange","12095","FALSE","FALSE","America/New_York"
"32804","28.57688","-81.39748","Orlando","FL","Florida","TRUE","","20073","1083.3","12095","Orange","{""12095"": 100}","Orange","12095","FALSE","FALSE","America/New_York"
"32805","28.52981","-81.40614","Orlando","FL","Florida","TRUE","","18547","1052.1","12095","Orange","{""12095"": 100}","Orange","12095","FALSE","FALSE","America/New_York"
"32806","28.5123","-81.36031","Orlando","FL","Florida","TRUE","","27050","1530.6","12095","Orange","{""12095"": 100}","Orange","12095","FALSE","FALSE","America/New_York"
"32807","28.55245","-81.30165","Orlando","FL","Florida","TRUE","","35638","1637.9","12095","Orange","{""12095"": 100}","Orange","12095","FALSE","FALSE","America/New_York"
"32808","28.57932","-81.44342","Orlando","FL","Florida","TRUE","","64001","2080.6","12095","Orange","{""12095"": 100}","Orange","12095","FALSE","FALSE","America/New_York"
"32809","28.46301","-81.38428","Orlando","FL","Florida","TRUE","","30744","1142.9","12095","Orange","{""12095"": 100}","Orange","12095","FALSE","FALSE","America/New_York"
"32810","28.62113","-81.42863","Orlando","FL","Florida","TRUE","","39602","1667.9","12095","Orange","{""12095"": 99.89, ""12117"": 0.11}","Orange|Seminole","12095|12117","FALSE","FALSE","America/New_York"
"32811","28.51624","-81.44516","Orlando","FL","Florida","TRUE","","40402","1878.0","12095","Orange","{""12095"": 100}","Orange","12095","FALSE","FALSE","America/New_York"
"32812","28.4848","-81.32767","Orlando","FL","Florida","TRUE","","37241","1693.9","12095","Orange","{""12095"": 100}","Orange","12095","FALSE","FALSE","America/New_York"
"32814","28.57002","-81.32663","Orlando","FL","Florida","TRUE","","9293","2997.0","12095","Orange","{""12095"": 100}","Orange","12095","FALSE","FALSE","America/New_York"
"32816","28.60075","-81.19511","Orlando","FL","Florida","TRUE","","11667","2285.2","12095","Orange","{""12095"": 100}","Orange","12095","FALSE","FALSE","America/New_York"
"32817","28.59002","-81.2445","Orlando","FL","Florida","TRUE","","35491","1168.1","12095","Orange","{""12095"": 100}","Orange","12095","FALSE","FALSE","America/New_York"
"32818","28.58518","-81.48716","Orlando","FL","Florida","TRUE","","62693","2175.0","12095","Orange","{""12095"": 100}","Orange","12095","FALSE","FALSE","America/New_York"
"32819","28.45565","-81.472","Orlando","FL","Florida","TRUE","","28765","537.4","12095","Orange","{""12095"": 100}","Orange","12095","FALSE","FALSE","America/New_York"
"32820","28.58493","-81.12127","Orlando","FL","Florida","TRUE","","11162","285.4","12095","Orange","{""12095"": 100}","Orange","12095","FALSE","FALSE","America/New_York"
"32821","28.38095","-81.47719","Orlando","FL","Florida","TRUE","","20618","488.0","12095","Orange","{""12095"": 100}","Orange","12095","FALSE","FALSE","America/New_York"
"32822","28.49001","-81.29056","Orlando","FL","Florida","TRUE","","67238","1909.3","12095","Orange","{""12095"": 100}","Orange","12095","FALSE","FALSE","America/New_York"
"32824","28.38991","-81.34471","Orlando","FL","Florida","TRUE","","53049","611.5","12095","Orange","{""12095"": 100}","Orange","12095","FALSE","FALSE","America/New_York"
"32825","28.53681","-81.24243","Orlando","FL","Florida","TRUE","","60846","1278.1","12095","Orange","{""12095"": 100}","Orange","12095","FALSE","FALSE","America/New_York"
"32826","28.58543","-81.18263","Orlando","FL","Florida","TRUE","","25763","1355.1","12095","Orange","{""12095"": 100}","Orange","12095","FALSE","FALSE","America/New_York"
"32827","28.41399","-81.29032","Orlando","FL","Florida","TRUE","","16007","272.6","12095","Orange","{""12095"": 100}","Orange","12095","FALSE","FALSE","America/New_York"
"32828","28.53052","-81.17022","Orlando","FL","Florida","TRUE","","70039","1298.1","12095","Orange","{""12095"": 100}","Orange","12095","FALSE","FALSE","America/New_York"
"32829","28.47639","-81.22478","Orlando","FL","Florida","TRUE","","19331","385.3","12095","Orange","{""12095"": 100}","Orange","12095","FALSE","FALSE","America/New_York"
"32830","28.38643","-81.56732","Orlando","FL","Florida","TRUE","","44","0.7","12095","Orange","{""12095"": 100}","Orange","12095","FALSE","FALSE","America/New_York"
"32831","28.47439","-81.14729","Orlando","FL","Florida","TRUE","","2679","95.9","12095","Orange","{""12095"": 100}","Orange","12095","FALSE","FALSE","America/New_York"
"32832","28.39843","-81.18407","Orlando","FL","Florida","TRUE","","27072","193.0","12095","Orange","{""12095"": 100}","Orange","12095","FALSE","FALSE","America/New_York"
"32833","28.4948","-81.081","Orlando","FL","Florida","TRUE","","10299","116.6","12095","Orange","{""12095"": 100}","Orange","12095","FALSE","FALSE","America/New_York"
"32835","28.52182","-81.48473","Orlando","FL","Florida","TRUE","","50115","2059.9","12095","Orange","{""12095"": 100}","Orange","12095","FALSE","FALSE","America/New_York"
"32836","28.41734","-81.51536","Orlando","FL","Florida","TRUE","","21868","707.6","12095","Orange","{""12095"": 100}","Orange","12095","FALSE","FALSE","America/New_York"
"32837","28.38074","-81.41998","Orlando","FL","Florida","TRUE","","49669","1052.1","12095","Orange","{""12095"": 100}","Orange","12095","FALSE","FALSE","America/New_York"
"32839","28.48833","-81.40689","Orlando","FL","Florida","TRUE","","52756","2741.9","12095","Orange","{""12095"": 100}","Orange","12095","FALSE","FALSE","America/New_York"
"32899","28.58331","-80.63544","Orlando","FL","Florida","TRUE","","0","0.0","12009","Brevard","{""12009"": 100}","Brevard","12009","FALSE","FALSE","America/New_York"
"32901","28.07887","-80.62268","Melbourne","FL","Florida","TRUE","","25176","805.7","12009","Brevard","{""12009"": 100}","Brevard","12009","FALSE","FALSE","America/New_York"
"32903","28.10818","-80.58709","Indialantic","FL","Florida","TRUE","","14347","1529.1","12009","Brevard","{""12009"": 100}","Brevard","12009","FALSE","FALSE","America/New_York"
"32904","28.01","-80.79104","Melbourne","FL","Florida","TRUE","","35079","62.4","12009","Brevard","{""12009"": 100}","Brevard","12009","FALSE","FALSE","America/New_York"
"32905","28.03136","-80.59997","Palm Bay","FL","Florida","TRUE","","26073","1037.6","12009","Brevard","{""12009"": 100}","Brevard","12009","FALSE","FALSE","America/New_York"
"32907","28.01565","-80.68187","Palm Bay","FL","Florida","TRUE","","47209","1029.4","12009","Brevard","{""12009"": 100}","Brevard","12009","FALSE","FALSE","America/New_York"
"32908","27.95622","-80.69827","Palm Bay","FL","Florida","TRUE","","13351","268.4","12009","Brevard","{""12009"": 100}","Brevard","12009","FALSE","FALSE","America/New_York"
"32909","27.90435","-80.65515","Palm Bay","FL","Florida","TRUE","","34156","228.7","12009","Brevard","{""12009"": 100}","Brevard","12009","FALSE","FALSE","America/New_York"
"32920","28.44603","-80.58503","Cape Canaveral","FL","Florida","TRUE","","9979","155.5","12009","Brevard","{""12009"": 100}","Brevard","12009","FALSE","FALSE","America/New_York"
"32922","28.37252","-80.74279","Cocoa","FL","Florida","TRUE","","15108","1071.7","12009","Brevard","{""12009"": 100}","Brevard","12009","FALSE","FALSE","America/New_York"
"32925","28.24272","-80.62287","Patrick Afb","FL","Florida","TRUE","","1609","200.7","12009","Brevard","{""12009"": 100}","Brevard","12009","FALSE","FALSE","America/New_York"
"32926","28.39051","-80.81773","Cocoa","FL","Florida","TRUE","","23193","181.7","12009","Brevard","{""12009"": 100}","Brevard","12009","FALSE","FALSE","America/New_York"
"32927","28.46372","-80.80709","Cocoa","FL","Florida","TRUE","","28618","430.8","12009","Brevard","{""12009"": 100}","Brevard","12009","FALSE","FALSE","America/New_York"
"32931","28.32193","-80.62731","Cocoa Beach","FL","Florida","TRUE","","13469","1001.0","12009","Brevard","{""12009"": 100}","Brevard","12009","FALSE","FALSE","America/New_York"
"32934","28.13532","-80.71153","Melbourne","FL","Florida","TRUE","","18901","318.3","12009","Brevard","{""12009"": 100}","Brevard","12009","FALSE","FALSE","America/New_York"
"32935","28.1444","-80.64832","Melbourne","FL","Florida","TRUE","","41744","1226.4","12009","Brevard","{""12009"": 100}","Brevard","12009","FALSE","FALSE","America/New_York"
"32937","28.17464","-80.61146","Satellite Beach","FL","Florida","TRUE","","27557","1565.6","12009","Brevard","{""12009"": 100}","Brevard","12009","FALSE","FALSE","America/New_York"
"32940","28.21813","-80.7543","Melbourne","FL","Florida","TRUE","","45050","303.6","12009","Brevard","{""12009"": 100}","Brevard","12009","FALSE","FALSE","America/New_York"
"32948","27.75901","-80.61826","Fellsmere","FL","Florida","TRUE","","6079","20.6","12061","Indian River","{""12061"": 78.72, ""12009"": 21.28}","Indian River|Brevard","12061|12009","FALSE","FALSE","America/New_York"
"32949","27.92005","-80.55203","Grant","FL","Florida","TRUE","","2616","60.1","12009","Brevard","{""12009"": 100}","Brevard","12009","FALSE","FALSE","America/New_York"
"32950","27.9757","-80.57839","Malabar","FL","Florida","TRUE","","4565","94.8","12009","Brevard","{""12009"": 100}","Brevard","12009","FALSE","FALSE","America/New_York"
"32951","27.9595","-80.51498","Melbourne Beach","FL","Florida","TRUE","","11814","560.7","12009","Brevard","{""12009"": 100}","Brevard","12009","FALSE","FALSE","America/New_York"
"32952","28.31749","-80.66832","Merritt Island","FL","Florida","TRUE","","20515","643.7","12009","Brevard","{""12009"": 100}","Brevard","12009","FALSE","FALSE","America/New_York"
"32953","28.45613","-80.69916","Merritt Island","FL","Florida","TRUE","","23853","231.7","12009","Brevard","{""12009"": 100}","Brevard","12009","FALSE","FALSE","America/New_York"
"32955","28.29414","-80.77528","Rockledge","FL","Florida","TRUE","","38892","295.2","12009","Brevard","{""12009"": 100}","Brevard","12009","FALSE","FALSE","America/New_York"
"32958","27.79364","-80.49135","Sebastian","FL","Florida","TRUE","","28339","392.9","12061","Indian River","{""12061"": 100}","Indian River","12061","FALSE","FALSE","America/New_York"
"32959","28.44513","-80.7637","Sharpes","FL","Florida","TRUE","","0","0.0","12009","Brevard","{""12009"": 100}","Brevard","12009","FALSE","FALSE","America/New_York"
"32960","27.64069","-80.40366","Vero Beach","FL","Florida","TRUE","","23085","806.4","12061","Indian River","{""12061"": 100}","Indian River","12061","FALSE","FALSE","America/New_York"
"32962","27.5865","-80.38414","Vero Beach","FL","Florida","TRUE","","25958","802.1","12061","Indian River","{""12061"": 100}","Indian River","12061","FALSE","FALSE","America/New_York"
"32963","27.71951","-80.39646","Vero Beach","FL","Florida","TRUE","","15182","336.6","12061","Indian River","{""12061"": 100}","Indian River","12061","FALSE","FALSE","America/New_York"
"32966","27.68716","-80.70693","Vero Beach","FL","Florida","TRUE","","18916","28.1","12061","Indian River","{""12061"": 100}","Indian River","12061","FALSE","FALSE","America/New_York"
"32967","27.71359","-80.46015","Vero Beach","FL","Florida","TRUE","","24405","235.8","12061","Indian River","{""12061"": 100}","Indian River","12061","FALSE","FALSE","America/New_York"
"32968","27.58808","-80.50993","Vero Beach","FL","Florida","TRUE","","15825","140.6","12061","Indian River","{""12061"": 100}","Indian River","12061","FALSE","FALSE","America/New_York"
"32970","27.75402","-80.45136","Wabasso","FL","Florida","TRUE","","213","83.3","12061","Indian River","{""12061"": 100}","Indian River","12061","FALSE","FALSE","America/New_York"
"32976","27.86198","-80.53721","Sebastian","FL","Florida","TRUE","","8759","139.2","12009","Brevard","{""12009"": 100}","Brevard","12009","FALSE","FALSE","America/New_York"
"33001","24.82041","-80.80992","Long Key","FL","Florida","TRUE","","341","67.4","12087","Monroe","{""12087"": 100}","Monroe","12087","FALSE","FALSE","America/New_York"
"33004","26.05939","-80.13637","Dania","FL","Florida","TRUE","","15876","907.3","12011","Broward","{""12011"": 100}","Broward","12011","FALSE","FALSE","America/New_York"
"33009","25.98531","-80.1466","Hallandale","FL","Florida","TRUE","","43547","3437.2","12011","Broward","{""12011"": 100}","Broward","12011","FALSE","FALSE","America/New_York"
"33010","25.83309","-80.27902","Hialeah","FL","Florida","TRUE","","42246","3774.5","12086","Miami-Dade","{""12086"": 100}","Miami-Dade","12086","FALSE","FALSE","America/New_York"
"33012","25.86583","-80.30247","Hialeah","FL","Florida","TRUE","","70485","4634.1","12086","Miami-Dade","{""12086"": 100}","Miami-Dade","12086","FALSE","FALSE","America/New_York"
"33013","25.86209","-80.27032","Hialeah","FL","Florida","TRUE","","30706","3130.4","12086","Miami-Dade","{""12086"": 100}","Miami-Dade","12086","FALSE","FALSE","America/New_York"
"33014","25.90332","-80.30173","Hialeah","FL","Florida","TRUE","","41021","2444.0","12086","Miami-Dade","{""12086"": 100}","Miami-Dade","12086","FALSE","FALSE","America/New_York"
"33015","25.94116","-80.31761","Hialeah","FL","Florida","TRUE","","69023","4527.7","12086","Miami-Dade","{""12086"": 100}","Miami-Dade","12086","FALSE","FALSE","America/New_York"
"33016","25.89361","-80.33186","Hialeah","FL","Florida","TRUE","","46498","4290.4","12086","Miami-Dade","{""12086"": 100}","Miami-Dade","12086","FALSE","FALSE","America/New_York"
"33018","25.92","-80.39274","Hialeah","FL","Florida","TRUE","","55079","757.2","12086","Miami-Dade","{""12086"": 100}","Miami-Dade","12086","FALSE","FALSE","America/New_York"
"33019","26.02346","-80.1236","Hollywood","FL","Florida","TRUE","","13613","1403.4","12011","Broward","{""12011"": 100}","Broward","12011","FALSE","FALSE","America/New_York"
"33020","26.01911","-80.15251","Hollywood","FL","Florida","TRUE","","45416","2914.0","12011","Broward","{""12011"": 100}","Broward","12011","FALSE","FALSE","America/New_York"
"33021","26.02277","-80.18742","Hollywood","FL","Florida","TRUE","","49788","2175.9","12011","Broward","{""12011"": 100}","Broward","12011","FALSE","FALSE","America/New_York"
"33022","26.01385","-80.14407","Hollywood","FL","Florida","TRUE","","0","0.0","12011","Broward","{""12011"": 100}","Broward","12011","FALSE","FALSE","America/New_York"
"33023","25.98812","-80.21263","Hollywood","FL","Florida","TRUE","","71463","3151.5","12011","Broward","{""12011"": 100}","Broward","12011","FALSE","FALSE","America/New_York"
"33024","26.02501","-80.24475","Hollywood","FL","Florida","TRUE","","74017","2463.0","12011","Broward","{""12011"": 100}","Broward","12011","FALSE","FALSE","America/New_York"
"33025","25.98737","-80.28134","Hollywood","FL","Florida","TRUE","","71690","2623.4","12011","Broward","{""12011"": 100}","Broward","12011","FALSE","FALSE","America/New_York"
"33026","26.02575","-80.29625","Hollywood","FL","Florida","TRUE","","31671","2655.4","12011","Broward","{""12011"": 100}","Broward","12011","FALSE","FALSE","America/New_York"
"33027","25.98245","-80.34359","Hollywood","FL","Florida","TRUE","","63068","1822.6","12011","Broward","{""12011"": 100}","Broward","12011","FALSE","FALSE","America/New_York"
"33028","26.01852","-80.34488","Pembroke Pines","FL","Florida","TRUE","","27530","1849.7","12011","Broward","{""12011"": 100}","Broward","12011","FALSE","FALSE","America/New_York"
"33029","25.99184","-80.40794","Hollywood","FL","Florida","TRUE","","45177","1040.6","12011","Broward","{""12011"": 100}","Broward","12011","FALSE","FALSE","America/New_York"
"33030","25.4848","-80.50857","Homestead","FL","Florida","TRUE","","37225","814.5","12086","Miami-Dade","{""12086"": 100}","Miami-Dade","12086","FALSE","FALSE","America/New_York"
"33031","25.52709","-80.50312","Homestead","FL","Florida","TRUE","","9190","159.7","12086","Miami-Dade","{""12086"": 100}","Miami-Dade","12086","FALSE","FALSE","America/New_York"
"33032","25.52963","-80.39234","Homestead","FL","Florida","TRUE","","54545","1154.6","12086","Miami-Dade","{""12086"": 100}","Miami-Dade","12086","FALSE","FALSE","America/New_York"
"33033","25.47858","-80.4057","Homestead","FL","Florida","TRUE","","67265","1163.1","12086","Miami-Dade","{""12086"": 100}","Miami-Dade","12086","FALSE","FALSE","America/New_York"
"33034","25.4195","-80.86342","Homestead","FL","Florida","TRUE","","23044","7.6","12086","Miami-Dade","{""12086"": 52.45, ""12087"": 47.55}","Miami-Dade|Monroe","12086|12087","FALSE","FALSE","America/New_York"
"33035","25.4216","-80.4036","Homestead","FL","Florida","TRUE","","16127","211.2","12086","Miami-Dade","{""12086"": 100}","Miami-Dade","12086","FALSE","FALSE","America/New_York"
"33036","24.9227","-80.6385","Islamorada","FL","Florida","TRUE","","3810","251.6","12087","Monroe","{""12087"": 100}","Monroe","12087","FALSE","FALSE","America/New_York"
"33037","25.19779","-80.38634","Key Largo","FL","Florida","TRUE","","12090","141.8","12087","Monroe","{""12087"": 100}","Monroe","12087","FALSE","FALSE","America/New_York"
"33039","25.49796","-80.39818","Homestead","FL","Florida","TRUE","","0","0.0","12086","Miami-Dade","{""12086"": 100}","Miami-Dade","12086","FALSE","FALSE","America/New_York"
"33040","24.5855","-81.74904","Key West","FL","Florida","TRUE","","37404","814.8","12087","Monroe","{""12087"": 100}","Monroe","12087","FALSE","FALSE","America/New_York"
"33042","24.67481","-81.50717","Summerland Key","FL","Florida","TRUE","","7054","98.7","12087","Monroe","{""12087"": 100}","Monroe","12087","FALSE","FALSE","America/New_York"
"33043","24.70563","-81.3587","Big Pine Key","FL","Florida","TRUE","","4801","111.4","12087","Monroe","{""12087"": 100}","Monroe","12087","FALSE","FALSE","America/New_York"
"33050","24.72843","-81.03405","Marathon","FL","Florida","TRUE","","10423","443.3","12087","Monroe","{""12087"": 100}","Monroe","12087","FALSE","FALSE","America/New_York"
"33051","24.72328","-81.02155","Key Colony Beach","FL","Florida","TRUE","","744","654.8","12087","Monroe","{""12087"": 100}","Monroe","12087","FALSE","FALSE","America/New_York"
"33054","25.90775","-80.25753","Opa Locka","FL","Florida","TRUE","","32390","1489.1","12086","Miami-Dade","{""12086"": 100}","Miami-Dade","12086","FALSE","FALSE","America/New_York"
"33055","25.94812","-80.27809","Opa Locka","FL","Florida","TRUE","","38817","2495.9","12086","Miami-Dade","{""12086"": 100}","Miami-Dade","12086","FALSE","FALSE","America/New_York"
"33056","25.94922","-80.24562","Miami Gardens","FL","Florida","TRUE","","37579","2367.6","12086","Miami-Dade","{""12086"": 100}","Miami-Dade","12086","FALSE","FALSE","America/New_York"
"33060","26.23513","-80.12084","Pompano Beach","FL","Florida","TRUE","","37826","2100.4","12011","Broward","{""12011"": 100}","Broward","12011","FALSE","FALSE","America/New_York"
"33062","26.24101","-80.09399","Pompano Beach","FL","Florida","TRUE","","23763","2354.4","12011","Broward","{""12011"": 100}","Broward","12011","FALSE","FALSE","America/New_York"
"33063","26.25138","-80.21014","Pompano Beach","FL","Florida","TRUE","","54907","2583.9","12011","Broward","{""12011"": 100}","Broward","12011","FALSE","FALSE","America/New_York"
"33064","26.27806","-80.11524","Pompano Beach","FL","Florida","TRUE","","60586","2291.7","12011","Broward","{""12011"": 100}","Broward","12011","FALSE","FALSE","America/New_York"
"33065","26.27318","-80.26029","Coral Springs","FL","Florida","TRUE","","60590","2726.8","12011","Broward","{""12011"": 100}","Broward","12011","FALSE","FALSE","America/New_York"
"33066","26.25347","-80.17753","Pompano Beach","FL","Florida","TRUE","","16163","2056.4","12011","Broward","{""12011"": 100}","Broward","12011","FALSE","FALSE","America/New_York"
"33067","26.307","-80.2257","Pompano Beach","FL","Florida","TRUE","","25649","1001.8","12011","Broward","{""12011"": 100}","Broward","12011","FALSE","FALSE","America/New_York"
"33068","26.21644","-80.21535","Pompano Beach","FL","Florida","TRUE","","52541","3151.6","12011","Broward","{""12011"": 100}","Broward","12011","FALSE","FALSE","America/New_York"
"33069","26.23565","-80.15808","Pompano Beach","FL","Florida","TRUE","","29089","1197.6","12011","Broward","{""12011"": 100}","Broward","12011","FALSE","FALSE","America/New_York"
"33070","25.00873","-80.52501","Tavernier","FL","Florida","TRUE","","5559","507.3","12087","Monroe","{""12087"": 100}","Monroe","12087","FALSE","FALSE","America/New_York"
"33071","26.24395","-80.26627","Coral Springs","FL","Florida","TRUE","","39182","2018.8","12011","Broward","{""12011"": 100}","Broward","12011","FALSE","FALSE","America/New_York"
"33073","26.29818","-80.1827","Pompano Beach","FL","Florida","TRUE","","34243","1623.9","12011","Broward","{""12011"": 100}","Broward","12011","FALSE","FALSE","America/New_York"
"33076","26.31788","-80.27431","Pompano Beach","FL","Florida","TRUE","","42044","1499.3","12011","Broward","{""12011"": 100}","Broward","12011","FALSE","FALSE","America/New_York"
"33101","25.77976","-80.19877","Miami","FL","Florida","TRUE","","0","0.0","12086","Miami-Dade","{""12086"": 100}","Miami-Dade","12086","FALSE","FALSE","America/New_York"
"33109","25.7616","-80.14197","Miami Beach","FL","Florida","TRUE","","568","694.9","12086","Miami-Dade","{""12086"": 100}","Miami-Dade","12086","FALSE","FALSE","America/New_York"
"33122","25.80523","-80.31706","Miami","FL","Florida","TRUE","","1771","285.4","12086","Miami-Dade","{""12086"": 100}","Miami-Dade","12086","FALSE","FALSE","America/New_York"
"33125","25.7839","-80.23738","Miami","FL","Florida","TRUE","","55161","5435.7","12086","Miami-Dade","{""12086"": 100}","Miami-Dade","12086","FALSE","FALSE","America/New_York"
"33126","25.78061","-80.30054","Miami","FL","Florida","TRUE","","48130","3449.5","12086","Miami-Dade","{""12086"": 100}","Miami-Dade","12086","FALSE","FALSE","America/New_York"
"33127","25.81307","-80.20553","Miami","FL","Florida","TRUE","","29097","3410.3","12086","Miami-Dade","{""12086"": 100}","Miami-Dade","12086","FALSE","FALSE","America/New_York"
"33128","25.77661","-80.20407","Miami","FL","Florida","TRUE","","8665","7787.6","12086","Miami-Dade","{""12086"": 100}","Miami-Dade","12086","FALSE","FALSE","America/New_York"
"33129","25.7527","-80.20046","Miami","FL","Florida","TRUE","","14390","4019.2","12086","Miami-Dade","{""12086"": 100}","Miami-Dade","12086","FALSE","FALSE","America/New_York"
"33130","25.76805","-80.20291","Miami","FL","Florida","TRUE","","31835","11238.0","12086","Miami-Dade","{""12086"": 100}","Miami-Dade","12086","FALSE","FALSE","America/New_York"
"33131","25.76417","-80.18459","Miami","FL","Florida","TRUE","","22529","17357.2","12086","Miami-Dade","{""12086"": 100}","Miami-Dade","12086","FALSE","FALSE","America/New_York"
"33132","25.77719","-80.17395","Miami","FL","Florida","TRUE","","15834","4045.5","12086","Miami-Dade","{""12086"": 100}","Miami-Dade","12086","FALSE","FALSE","America/New_York"
"33133","25.72983","-80.24327","Miami","FL","Florida","TRUE","","34434","3194.2","12086","Miami-Dade","{""12086"": 100}","Miami-Dade","12086","FALSE","FALSE","America/New_York"
"33134","25.75338","-80.2712","Miami","FL","Florida","TRUE","","39082","2886.4","12086","Miami-Dade","{""12086"": 100}","Miami-Dade","12086","FALSE","FALSE","America/New_York"
"33135","25.76657","-80.23495","Miami","FL","Florida","TRUE","","35115","6375.1","12086","Miami-Dade","{""12086"": 100}","Miami-Dade","12086","FALSE","FALSE","America/New_York"
"33136","25.78703","-80.20444","Miami","FL","Florida","TRUE","","16190","4458.4","12086","Miami-Dade","{""12086"": 100}","Miami-Dade","12086","FALSE","FALSE","America/New_York"
"33137","25.81538","-80.17798","Miami","FL","Florida","TRUE","","22768","4348.2","12086","Miami-Dade","{""12086"": 100}","Miami-Dade","12086","FALSE","FALSE","America/New_York"
